station_name,line_code,line_name,deliver_no,customer_code,customer_name,longitude,latitude,order_cycle_type,order_weekday,city_village_code,avg_order_qty,distance_to_平城直送,distance_to_灵丘中转站,distance_to_太原直送,nearest_station,distance_to_station,province,city,district,township,full_address,lon_84,lat_84,grid_id,LonGridCenter,LatGridCenter,group,customer_osmid_mapping,OSM_X,OSM_Y,BB_RETAIL_CUSTOMER_CODE,kmeans_cluster,dbscan_label,kmeans_label
太原直送,AWLS010,AWLS010,41,140108100002,（唐***利店  唐久600,112.517653,37.890702,1.0,1.0,111.0,53.67,2.289128282588159,2.317411921293669,0.0837973369564943,太原直送,0.0837973369564943,山西省,太原市,尖草坪区,汇丰街道,山西省太原市尖草坪区汇丰街道千峰北路兴华北小区,112.51125483896112,37.89010165214656,170_94,112.5122637969168,37.88900108940375,4.0,7686325878.0,112.511275,37.8903399,140108100002.0,0,0,38
太原直送,AWLS012,AWLS012,109,140108104766,太原***平便利店,112.510238,37.892678,1.0,1.0,111.0,91.0,2.289775307859269,2.3215761757316944,0.0830353734862455,太原直送,0.0830353734862455,山西省,太原市,尖草坪区,汇丰街道,山西省太原市尖草坪区汇丰街道兴华北街友喜小区,112.50381288154156,37.89205640193879,169_95,112.50647086869964,37.893497694610176,4.0,2004160303.0,112.5033271,37.8920485,140108104766.0,0,0,38
太原直送,AWLS012,AWLS012,117,140108107764,太原***窗口商店,112.513986,37.893856,1.0,1.0,111.0,24.67,2.287396538639069,2.318007032573669,0.0811849974933777,太原直送,0.0811849974933777,山西省,太原市,尖草坪区,汇丰街道,山西省太原市尖草坪区汇丰街道友喜巷友喜小区,112.50757435800308,37.89324562931328,169_95,112.50647086869964,37.893497694610176,4.0,9012861427.0,112.5070964,37.8931771,140108107764.0,0,0,38
太原直送,AWLS011,AWLS011,64,140108108862,太原***合批发部,112.517592,37.888882,1.0,1.0,111.0,17.67,2.2908627493977014,2.3186821273475604,0.0856124005153427,太原直送,0.0856124005153427,山西省,太原市,尖草坪区,汇丰街道,山西省太原市尖草坪区汇丰街道千峰北路兴华北小区,112.51119383732092,37.88828113910941,170_94,112.5122637969168,37.88900108940375,4.0,7686334192.0,112.5113576,37.888346,140108108862.0,0,0,38
太原直送,AWLS010,AWLS010,16,140108117330,太原***百利商店,112.518985,37.888967,1.0,1.0,111.0,24.0,2.2903146534264653,2.317595164557647,0.0853811656045967,太原直送,0.0853811656045967,山西省,太原市,尖草坪区,汇丰街道,山西省太原市尖草坪区汇丰街道佳乐中街兴华北小区,112.51259174314464,37.88837013861867,170_94,112.5122637969168,37.88900108940375,4.0,7686334191.0,112.5124025,37.8883672,140108117330.0,0,0,38
太原直送,AWLS012,AWLS012,107,140108118960,太原***天便利店,112.50991,37.89262,1.0,1.0,111.0,49.67,2.2899412764178,2.321858331260754,0.0831600806757631,太原直送,0.0831600806757631,山西省,太原市,尖草坪区,汇丰街道,山西省太原市尖草坪区汇丰街道兴华北街友喜小区,112.5034836881958,37.891997421560696,168_95,112.50067794048248,37.893497694610176,4.0,2004160303.0,112.5033271,37.8920485,140108118960.0,0,0,38
太原直送,AWLS012,AWLS012,114,140108119155,太原***坊烟酒店,112.513761,37.893852,1.0,1.0,111.0,35.33,2.287476439422488,2.318176471809249,0.0812261245228361,太原直送,0.0812261245228361,山西省,太原市,尖草坪区,汇丰街道,山西省太原市尖草坪区汇丰街道友喜巷友喜小区,112.50734854675832,37.89324097195867,169_95,112.50647086869964,37.893497694610176,4.0,9012861427.0,112.5070964,37.8931771,140108119155.0,0,0,38
太原直送,AWLS010,AWLS010,40,140108119280,太原***北便利店,112.51795,37.889022,1.0,1.0,111.0,48.0,2.290610540142084,2.318323182108354,0.0854334120236354,太原直送,0.0854334120236354,山西省,太原市,尖草坪区,汇丰街道,山西省太原市尖草坪区汇丰街道佳乐中街兴华北小区东区,112.51155308787148,37.88842219163149,170_94,112.5122637969168,37.88900108940375,4.0,7686334192.0,112.5113576,37.888346,140108119280.0,0,0,38
太原直送,AWLS011,AWLS011,88,140108119339,（金***兴金虎便利店,112.517456,37.889988,1.0,1.0,111.0,61.33,2.289866936642824,2.3180381443369305,0.0845293357006868,太原直送,0.0845293357006868,山西省,太原市,尖草坪区,汇丰街道,山西省太原市尖草坪区汇丰街道千峰北路兴华北小区,112.51105722502204,37.88938695383934,170_94,112.5122637969168,37.88900108940375,4.0,7686325871.0,112.5111366,37.8885746,140108119339.0,0,0,38
太原直送,AWLS010,AWLS010,19,140108119423,太原***和便利店,112.520277,37.88817,1.0,1.0,111.0,53.0,2.29063211438786,2.317177603441309,0.0860594665623685,太原直送,0.0860594665623685,山西省,太原市,尖草坪区,汇丰街道,山西省太原市尖草坪区汇丰街道顺和中巷兴华北小区东区,112.51388836059932,37.88757665913752,170_94,112.5122637969168,37.88900108940375,4.0,8406622237.0,112.5137811,37.8876519,140108119423.0,0,0,38
太原直送,AWLS012,AWLS012,116,140108119446,太原***裕便利店,112.513655,37.892846,1.0,1.0,111.0,36.0,2.2884589634784804,2.3189304999335354,0.0822357492396097,太原直送,0.0822357492396097,山西省,太原市,尖草坪区,汇丰街道,山西省太原市尖草坪区汇丰街道兴华北街友喜小区,112.50724228281167,37.89223447390347,169_95,112.50647086869964,37.893497694610176,4.0,9012861430.0,112.5071578,37.8921094,140108119446.0,0,0,38
太原直送,AWLS011,AWLS011,102,140108119457,（金***扬金虎便利店,112.517424,37.891733,1.0,1.0,111.0,30.67,2.288234525279474,2.3168877157773458,0.0828002491602488,太原直送,0.0828002491602488,山西省,太原市,尖草坪区,汇丰街道,山西省太原市尖草坪区汇丰街道千峰北路绿荫小区,112.51102490594052,37.8911321868754,170_94,112.5122637969168,37.88900108940375,4.0,7686325858.0,112.5110764,37.8903314,140108119457.0,0,0,38
太原直送,AWLS011,AWLS011,68,140108119497,太原***茗人商行,112.517688,37.888822,1.0,1.0,111.0,75.67,2.2908869776944463,2.318651553935817,0.0856611969680556,太原直送,0.0856611969680556,山西省,太原市,尖草坪区,汇丰街道,山西省太原市尖草坪区汇丰街道千峰北路兴华北小区,112.5112901843994,37.88822140346101,170_94,112.5122637969168,37.88900108940375,4.0,7686334192.0,112.5113576,37.888346,140108119497.0,0,0,38
太原直送,AWLS011,AWLS011,85,140108119524,太原***酒副食店,112.515633,37.887654,1.0,1.0,111.0,36.33,2.2926784168742493,2.320957380120975,0.0870732284976287,太原直送,0.0870732284976287,山西省,太原市,尖草坪区,汇丰街道,山西省太原市尖草坪区汇丰街道芙蓉中巷兴华街商务广场,112.50922800625152,37.88704726268713,169_94,112.50647086869964,37.88900108940375,4.0,8406622243.0,112.5091789,37.8866868,140108119524.0,0,0,38
太原直送,AWLS011,AWLS011,80,140108119669,太原***部烟酒店,112.516219,37.890915,1.0,1.0,111.0,89.33,2.2894106631305764,2.3183296113652543,0.0837632512501732,太原直送,0.0837632512501732,山西省,太原市,尖草坪区,汇丰街道,山西省太原市尖草坪区汇丰街道西流街绿荫小区,112.50981571580996,37.89031056280856,170_94,112.5122637969168,37.88900108940375,4.0,9012861444.0,112.5098426,37.8902959,140108119669.0,0,0,38
太原直送,AWLS012,AWLS012,112,140108119730,太原***家便利店,112.513939,37.891141,1.0,1.0,111.0,66.67,2.2899674853945013,2.319865527134067,0.0838719292731503,太原直送,0.0838719292731503,山西省,太原市,尖草坪区,汇丰街道,山西省太原市尖草坪区汇丰街道西流街西流佳苑,112.50752750889868,37.89052998450567,169_94,112.50647086869964,37.88900108940375,4.0,7686325850.0,112.5072258,37.8902393,140108119730.0,0,0,38
太原直送,AWLS012,AWLS012,105,140108119841,太原***中便利店,112.511327,37.890687,1.0,1.0,111.0,24.67,2.2912787392563145,2.3221053300617123,0.0847730776367118,太原直送,0.0847730776367118,山西省,太原市,尖草坪区,汇丰街道,山西省太原市尖草坪区汇丰街道融创外滩公馆一期(北门),112.50490609225128,37.89006824262427,169_94,112.50647086869964,37.88900108940375,4.0,7686325857.0,112.5033912,37.8901642,140108119841.0,0,0,38
太原直送,AWLS011,AWLS011,82,140108119887,太原***家便利店,112.515157,37.888564,1.0,1.0,111.0,66.33,2.2919820592074847,2.3206969555049577,0.086237208541321,太原直送,0.086237208541321,山西省,太原市,尖草坪区,汇丰街道,山西省太原市尖草坪区汇丰街道芙蓉西巷尖草坪区青少年活动中心,112.50875019364928,37.887956050593,169_94,112.50647086869964,37.88900108940375,4.0,7686325869.0,112.5091361,37.8878713,140108119887.0,0,0,38
太原直送,AWLS012,AWLS012,110,140108119926,太原***苑便利店,112.510559,37.892752,1.0,1.0,111.0,45.33,2.289596702676912,2.321288489764679,0.0828975586914324,太原直送,0.0828975586914324,山西省,太原市,尖草坪区,汇丰街道,山西省太原市尖草坪区汇丰街道兴华北街友喜小区,112.50413504615656,37.89213136373697,169_95,112.50647086869964,37.893497694610176,4.0,2004160303.0,112.5033271,37.8920485,140108119926.0,0,0,38
太原直送,AWLS012,AWLS012,119,140108119970,太原***金鑫商店,112.510309,37.893766,1.0,1.0,111.0,36.33,2.288727885068251,2.320793748942368,0.0819561320768594,太原直送,0.0819561320768594,山西省,太原市,尖草坪区,汇丰街道,山西省太原市尖草坪区汇丰街道友喜巷友喜小区,112.5038840125902,37.89314481551583,169_95,112.50647086869964,37.893497694610176,4.0,9012861426.0,112.503292,37.8930807,140108119970.0,0,0,38
太原直送,AWLS011,AWLS011,120,140108119997,太原***信便利店,112.51707,37.889167,1.0,1.0,111.0,22.33,2.2907699459013746,2.318876227515384,0.0853901628116469,太原直送,0.0853901628116469,山西省,太原市,尖草坪区,汇丰街道,山西省太原市尖草坪区汇丰街道玫瑰巷兴华北小区,112.51066995184816,37.88856469177237,170_94,112.5122637969168,37.88900108940375,4.0,7686325871.0,112.5111366,37.8885746,140108119997.0,0,0,38
太原直送,AWLS012,AWLS012,150,140108120006,太原***百货超市,112.511386,37.890808,1.0,1.0,112.0,35.0,2.291144904236743,2.321980355287484,0.0846431383751791,太原直送,0.0846431383751791,山西省,太原市,尖草坪区,汇丰街道,山西省太原市尖草坪区汇丰街道西流街尖草坪区第六实验小学,112.50496529291388,37.890189438876334,169_94,112.50647086869964,37.88900108940375,4.0,7686325857.0,112.5033912,37.8901642,140108120006.0,0,0,38
太原直送,AWLS012,AWLS012,151,140108120007,（唐***歆唐久便利店,112.510681,37.88891,1.0,1.0,111.0,52.0,2.2931695102423144,2.3237775223876245,0.086640461869724,太原直送,0.086640461869724,山西省,太原市,尖草坪区,汇丰街道,山西省太原市尖草坪区汇丰街道西流南巷龙兴小区,112.5042579457316,37.888289008358406,169_94,112.50647086869964,37.88900108940375,4.0,7686325843.0,112.5034559,37.8882597,140108120007.0,0,0,38
太原直送,AWLS012,AWLS012,152,140108120010,太原***鲜便利店,112.510389,37.890722,1.0,1.0,111.0,38.0,2.291563901253684,2.322776922864956,0.084920433683538,太原直送,0.084920433683538,山西省,太原市,尖草坪区,汇丰街道,山西省太原市尖草坪区汇丰街道倍好孕婴童(西宫专卖店)融创外滩公馆,112.5039646647962,37.89010048292987,169_94,112.50647086869964,37.88900108940375,4.0,7686325857.0,112.5033912,37.8901642,140108120010.0,0,0,38
太原直送,AWLS012,AWLS012,14,140108120026,太原***来便利店,112.512755,37.890891,1.0,1.0,111.0,20.67,2.290603176781169,2.3209104035177632,0.0843148157087425,太原直送,0.0843148157087425,山西省,太原市,尖草坪区,汇丰街道,山西省太原市尖草坪区汇丰街道西流街西流佳苑,112.5063392576919,37.89027647578023,169_94,112.50647086869964,37.88900108940375,4.0,7686325850.0,112.5072258,37.8902393,140108120026.0,0,0,38
太原直送,AWLS012,AWLS012,23,140108120033,太原***旗便利店,112.511082,37.888989,1.0,1.0,111.0,22.33,2.2929593013241605,2.32342743986981,0.0864868697375463,太原直送,0.0864868697375463,山西省,太原市,尖草坪区,汇丰街道,山西省太原市尖草坪区汇丰街道西流南巷融创外滩公馆,112.50466039974764,37.888369205493255,169_94,112.50647086869964,37.88900108940375,4.0,7686325843.0,112.5034559,37.8882597,140108120033.0,0,0,38
太原直送,AWLS012,AWLS012,22,140108120055,太原***食品商行,112.510248,37.889498,1.0,1.0,111.0,81.0,2.2927631511174407,2.323703306944535,0.0861480704949278,太原直送,0.0861480704949278,山西省,太原市,尖草坪区,汇丰街道,山西省太原市尖草坪区汇丰街道天和堂药店融创外滩公馆一期,112.50382329391614,37.88887583893755,169_94,112.50647086869964,37.88900108940375,4.0,7686325842.0,112.5033191,37.8883827,140108120055.0,0,0,38
太原直送,AWLS012,AWLS012,32,140108120069,太原***利便利店,112.510887,37.888986,1.0,1.0,111.0,40.33,2.293028194822948,2.323573881528624,0.0865265779110637,太原直送,0.0865265779110637,山西省,太原市,尖草坪区,汇丰街道,山西省太原市尖草坪区汇丰街道西流南巷融创外滩公馆,112.50446468874831,37.88836563008951,169_94,112.50647086869964,37.88900108940375,4.0,7686325843.0,112.5034559,37.8882597,140108120069.0,0,0,38
太原直送,AWLS012,AWLS012,15,140108120083,太原***梅便利店,112.512382,37.890796,1.0,1.0,111.0,42.67,2.290818819448187,2.321250518646572,0.084473436830754,太原直送,0.084473436830754,山西省,太原市,尖草坪区,汇丰街道,山西省太原市尖草坪区汇丰街道西流街尖草坪区人民医院,112.50596491608628,37.89018036427007,169_94,112.50647086869964,37.88900108940375,4.0,7686325850.0,112.5072258,37.8902393,140108120083.0,0,0,38
太原直送,AWLS012,AWLS012,141,140108120172,（金***东金虎便利店,112.51053,37.890796,1.0,1.0,111.0,25.67,2.29144645266914,2.322622742934586,0.0848199373850238,太原直送,0.0848199373850238,山西省,太原市,尖草坪区,汇丰街道,山西省太原市尖草坪区汇丰街道西流街尖草坪区第六实验小学,112.50410617133728,37.89017491302389,169_94,112.50647086869964,37.88900108940375,4.0,7686325857.0,112.5033912,37.8901642,140108120172.0,0,0,38
太原直送,AWLS012,AWLS012,139,140108120210,太原***莱便利店,112.513993,37.890964,1.0,1.0,111.0,71.0,2.290115820931556,2.3199444919260475,0.0840381130261758,太原直送,0.0840381130261758,山西省,太原市,尖草坪区,汇丰街道,山西省太原市尖草坪区汇丰街道西流街西流佳苑,112.50758172451155,37.89035310905589,169_94,112.50647086869964,37.88900108940375,4.0,7686325850.0,112.5072258,37.8902393,140108120210.0,0,0,38
太原直送,AWLS012,AWLS012,28,140108120322,太原***烟酒商店,112.514013,37.890924,1.0,1.0,111.0,31.67,2.2901467091522747,2.3199565655714287,0.0840744477293778,太原直送,0.0840744477293778,山西省,太原市,尖草坪区,汇丰街道,山西省太原市尖草坪区汇丰街道西流街西流佳苑,112.50760180134093,37.8903131599405,169_94,112.50647086869964,37.88900108940375,4.0,7686325850.0,112.5072258,37.8902393,140108120322.0,0,0,38
太原直送,AWLS012,AWLS012,34,140108120338,太原***福江商店,112.511331,37.890733,1.0,1.0,111.0,32.33,2.2912341062274733,2.322071474404052,0.0847271476210561,太原直送,0.0847271476210561,山西省,太原市,尖草坪区,汇丰街道,山西省太原市尖草坪区汇丰街道融创外滩公馆一期(北门),112.5049101013923,37.890114262966414,169_94,112.50647086869964,37.88900108940375,4.0,7686325857.0,112.5033912,37.8901642,140108120338.0,0,0,38
太原直送,AWLS012,AWLS012,29,140108120380,太原***百货商行,112.513993,37.890964,1.0,1.0,111.0,23.0,2.290115820931556,2.3199444919260475,0.0840381130261758,太原直送,0.0840381130261758,山西省,太原市,尖草坪区,汇丰街道,山西省太原市尖草坪区汇丰街道西流街西流佳苑,112.50758172451155,37.89035310905589,169_94,112.50647086869964,37.88900108940375,4.0,7686325850.0,112.5072258,37.8902393,140108120380.0,0,0,38
太原直送,AWLS011,AWLS011,44,140108120482,（唐***艳红唐久便利店,112.517623,37.888331,1.0,1.0,111.0,44.67,2.2913712510459736,2.319030256302187,0.0861563894554523,太原直送,0.0861563894554523,山西省,太原市,尖草坪区,汇丰街道,山西省太原市尖草坪区汇丰街道千峰北路兴华北小区,112.51122501205022,37.88773012606765,170_94,112.5122637969168,37.88900108940375,4.0,7686334192.0,112.5113576,37.888346,140108120482.0,0,0,38
太原直送,AWLS012,AWLS012,43,140108120484,太原***信烟酒店,112.511601,37.889135,1.0,1.0,111.0,47.67,2.2926461464124777,2.3229449669824267,0.0862475259239315,太原直送,0.0862475259239315,山西省,太原市,尖草坪区,汇丰街道,山西省太原市尖草坪区汇丰街道融创外滩公馆一期(南门),112.50518127343388,37.88851676081836,169_94,112.50647086869964,37.88900108940375,4.0,7686325843.0,112.5034559,37.8882597,140108120484.0,0,0,38
太原直送,AWLS011,AWLS011,43,140108120522,太原***久烟酒店,112.517275,37.890916,1.0,1.0,111.0,34.0,2.289053992252042,2.317547565000988,0.083629199763003,太原直送,0.083629199763003,山西省,太原市,尖草坪区,汇丰街道,山西省太原市尖草坪区汇丰街道西流街绿荫小区,112.51087547364544,37.89031460638703,170_94,112.5122637969168,37.88900108940375,4.0,7686325858.0,112.5110764,37.8903314,140108120522.0,0,0,38
太原直送,AWLS010,AWLS010,18,140108215680,山西***司兴华店,112.51908,37.888085,1.0,1.0,111.0,60.33,2.291113599308644,2.3181191920002724,0.0862499248289543,太原直送,0.0862499248289543,山西省,太原市,尖草坪区,汇丰街道,山西省太原市尖草坪区汇丰街道顺和西巷兴华北小区东区,112.51268718081732,37.88748824597872,170_94,112.5122637969168,37.88900108940375,4.0,8406622236.0,112.5125272,37.8876226,140108215680.0,0,0,38
太原直送,AWLS012,AWLS012,67,140109100546,太原***百货商店,112.517888,37.88267,1.0,1.0,111.0,73.0,2.296614716377566,2.322650998370828,0.0917562780086475,太原直送,0.0917562780086475,山西省,太原市,万柏林区,兴华街道,山西省太原市万柏林区兴华街道千峰北路竹园,112.51149161679774,37.88206884663944,170_92,112.5122637969168,37.88000787899091,4.0,2004160260.0,112.5115045,37.8816769,140109100546.0,0,0,38
太原直送,AWLS012,AWLS012,65,140109101723,太原***百货商店,112.518251,37.882366,1.0,1.0,122.0,33.0,2.296779454203864,2.322588329658525,0.0920223054101561,太原直送,0.0920223054101561,山西省,太原市,万柏林区,兴华街道,山西省太原市万柏林区兴华街道永乐北街竹园,112.51185593510476,37.88176583060782,170_92,112.5122637969168,37.88000787899091,4.0,2004160260.0,112.5115045,37.8816769,140109101723.0,0,0,38
太原直送,AWLS013,AWLS013,53,140109105873,太原***炜炜烟店,112.514185,37.885164,1.0,1.0,122.0,16.67,2.2955107127611027,2.3237045557062523,0.089741464803062,太原直送,0.089741464803062,山西省,太原市,万柏林区,万柏林街道,山西省太原市万柏林区万柏林街道和平巷16号,112.5077751007442,37.88455259663274,169_93,112.50647086869964,37.88450448419733,4.0,10304726248.0,112.5081998,37.8839229,140109105873.0,0,0,38
太原直送,AWLS012,AWLS012,130,140109112913,太原***副食商店,112.509325,37.886271,1.0,1.0,111.0,68.67,2.2961119334954003,2.326555138731291,0.0894942937175296,太原直送,0.0894942937175296,山西省,太原市,万柏林区,万柏林街道,山西省太原市万柏林区万柏林街道西宫西街博林文苑,112.50289729509566,37.88564551216759,168_93,112.50067794048248,37.88450448419733,4.0,7843357515.0,112.5034118,37.8855938,140109112913.0,0,0,38
太原直送,AWLS012,AWLS012,127,140109113648,太原***烟酒商店,112.509695,37.890406,1.0,1.0,111.0,47.67,2.2920966927782542,2.3235034299785355,0.0853704865454109,太原直送,0.0853704865454109,山西省,太原市,万柏林区,万柏林街道,山西省太原市万柏林区万柏林街道和平北路东风小区,112.50326816251628,37.88978237256901,168_94,112.50067794048248,37.88900108940375,4.0,7686325857.0,112.5033912,37.8901642,140109113648.0,0,0,38
太原直送,AWLS012,AWLS012,124,140109113814,太原***货便利店,112.50847,37.891668,1.0,1.0,111.0,34.33,2.2913261152620725,2.3235649043650524,0.0844007165490862,太原直送,0.0844007165490862,山西省,太原市,万柏林区,万柏林街道,山西省太原市万柏林区万柏林街道东风小区,112.50203851752798,37.89104097714825,168_94,112.50067794048248,37.88900108940375,4.0,4268062016.0,112.5031946,37.8920439,140109113814.0,0,0,38
太原直送,AWLS013,AWLS013,15,140109114762,太原***货便利店,112.512937,37.882223,1.0,1.0,111.0,56.67,2.298700272906407,2.326608174385409,0.0928367014493691,太原直送,0.0928367014493691,山西省,太原市,万柏林区,万柏林街道,山西省太原市万柏林区万柏林街道彭西二巷汾西重工新建社区,112.50652294009404,37.88160741294576,169_92,112.50647086869964,37.88000787899091,4.0,10304726249.0,112.5056494,37.8815358,140109114762.0,0,0,38
太原直送,AWLS012,AWLS012,135,140109115425,太原***货便利店,112.503227,37.881556,1.0,1.0,111.0,22.0,2.302619068359547,2.3342394304702334,0.0954700483135906,太原直送,0.0954700483135906,山西省,太原市,万柏林区,万柏林街道,山西省太原市万柏林区万柏林街道西宫南二巷兴龙苑,112.49677732855372,37.88091147558964,167_92,112.49488501226531,37.88000787899091,4.0,7023261998.0,112.4970979,37.8822336,140109115425.0,0,0,38
太原直送,AWLS012,AWLS012,144,140109115518,太原***烟酒商行,112.50986,37.881538,1.0,1.0,111.0,64.67,2.300384079261981,2.3293436687309548,0.0940350653426677,太原直送,0.0940350653426677,山西省,太原市,万柏林区,万柏林街道,山西省太原市万柏林区万柏林街道西宫南二巷彭村新区,112.50343481474528,37.880913230376855,168_92,112.50067794048248,37.88000787899091,4.0,7543286125.0,112.5035711,37.8809594,140109115518.0,0,0,38
太原直送,AWLS013,AWLS013,56,140109116340,太原***合副食店,112.512937,37.882223,1.0,1.0,111.0,22.67,2.298700272906407,2.326608174385409,0.0928367014493691,太原直送,0.0928367014493691,山西省,太原市,万柏林区,万柏林街道,山西省太原市万柏林区万柏林街道彭西二巷汾西重工新建社区,112.50652294009404,37.88160741294576,169_92,112.50647086869964,37.88000787899091,4.0,10304726249.0,112.5056494,37.8815358,140109116340.0,0,0,38
太原直送,AWLS012,AWLS012,143,140109116709,（唐***久副食百货店,112.508322,37.88201,3.0,1.0,111.0,11.0,2.3004606489766304,2.3301632301289468,0.0938699916373665,太原直送,0.0938699916373665,山西省,太原市,万柏林区,万柏林街道,山西省太原市万柏林区万柏林街道彭村新区彭村新区北区,112.50189111535364,37.8813807580938,168_92,112.50067794048248,37.88000787899091,4.0,7543286127.0,112.5015659,37.8816787,140109116709.0,0,0,38
太原直送,AWLS013,AWLS013,62,140109118153,太原***晓兵烟店,112.512006,37.882233,1.0,1.0,111.0,25.0,2.2990048992694643,2.3272893610627787,0.0929753540945118,太原直送,0.0929753540945118,山西省,太原市,万柏林区,万柏林街道,山西省太原市万柏林区万柏林街道彭西二巷青年小区,112.5055885614364,37.88161468369222,169_92,112.50647086869964,37.88000787899091,4.0,10304726249.0,112.5056494,37.8815358,140109118153.0,0,0,38
太原直送,AWLS013,AWLS013,64,140109118504,太原***兆梅商店,112.5134,37.885022,1.0,1.0,111.0,21.5,2.2959090992480498,2.324380503661348,0.0899997760552754,太原直送,0.0899997760552754,山西省,太原市,万柏林区,万柏林街道,山西省太原市万柏林区万柏林街道和平巷31楼,112.50698728486935,37.88440827904894,169_93,112.50647086869964,37.88450448419733,4.0,10304726248.0,112.5081998,37.8839229,140109118504.0,0,0,38
太原直送,AWLS013,AWLS013,57,140109118719,（唐***副食便利店,112.517863,37.881766,1.0,1.0,111.0,35.67,2.2974747889813703,2.3232796124896327,0.092658103957505,太原直送,0.092658103957505,山西省,太原市,万柏林区,兴华街道,山西省太原市万柏林区兴华街道千峰北路漪汾华苑北区,112.51146663483836,37.88116461049732,170_92,112.5122637969168,37.88000787899091,4.0,2004160260.0,112.5115045,37.8816769,140109118719.0,0,0,38
太原直送,AWLS012,AWLS012,142,140109119196,太原***食便利店,112.507746,37.881653,1.0,1.0,111.0,60.0,2.300991759868992,2.330829533697392,0.09433731663027,太原直送,0.09433731663027,山西省,太原市,万柏林区,万柏林街道,山西省太原市万柏林区万柏林街道西宫南二巷彭村新区,112.50131303779156,37.88102198177613,168_92,112.50067794048248,37.88000787899091,4.0,7543286123.0,112.5016141,37.8809467,140109119196.0,0,0,38
太原直送,AWLS012,AWLS012,123,140109119600,太原***活便利店,112.508502,37.89349,1.0,1.0,111.0,57.0,2.289601962248025,2.3223194927668795,0.0826183205469588,太原直送,0.0826183205469588,山西省,太原市,万柏林区,万柏林街道,山西省太原市万柏林区万柏林街道新友谊社区卫生服务站东风小区,112.50207041968136,37.89286341292145,168_95,112.50067794048248,37.893497694610176,4.0,9012861426.0,112.503292,37.8930807,140109119600.0,0,0,38
太原直送,AWLS012,AWLS012,66,140109119609,（金***鑫金虎便利店,112.518018,37.88239,1.0,1.0,111.0,39.33,2.2968349321538097,2.3227440453422754,0.0920216139501997,太原直送,0.0920216139501997,山西省,太原市,万柏林区,兴华街道,山西省太原市万柏林区兴华街道永乐北街竹园,112.5116221093714,37.88178916808222,170_92,112.5122637969168,37.88000787899091,4.0,2004160260.0,112.5115045,37.8816769,140109119609.0,0,0,38
太原直送,AWLS012,AWLS012,101,140109119655,太原***百货商店,112.510684,37.882786,1.0,1.0,111.0,15.33,2.298930959292598,2.3278941251837444,0.0926577440368545,太原直送,0.0926577440368545,山西省,太原市,万柏林区,万柏林街道,山西省太原市万柏林区万柏林街道西宫东街69号青年小区,112.50426168010809,37.88216389170227,169_92,112.50647086869964,37.88000787899091,4.0,2004160221.0,112.5036903,37.8814917,140109119655.0,0,0,38
太原直送,AWLS012,AWLS012,132,140109120022,太原***百货商店,112.505545,37.881586,1.0,1.0,111.0,20.0,2.3018019625208863,2.3325031535159826,0.0948830382787148,太原直送,0.0948830382787148,山西省,太原市,万柏林区,万柏林街道,山西省太原市万柏林区万柏林街道西宫南二巷,112.49910391931384,37.88094841163209,168_92,112.50067794048248,37.88000787899091,4.0,7023261998.0,112.4970979,37.8822336,140109120022.0,0,0,38
太原直送,AWLS012,AWLS012,129,140109120027,（金***琳金虎便利店,112.510181,37.886903,1.0,1.0,111.0,35.0,2.295227193307888,2.3254965516596653,0.0887061561787017,太原直送,0.0887061561787017,山西省,太原市,尖草坪区,汇丰街道,山西省太原市尖草坪区汇丰街道兴华街龙兴小区,112.50375635551212,37.88628016103559,169_93,112.50647086869964,37.88450448419733,4.0,2002382940.0,112.5035304,37.8863345,140109120027.0,0,0,38
太原直送,AWLS013,AWLS013,60,140109120388,太原***奶副食店,112.512111,37.883275,1.0,1.0,111.0,51.0,2.297988613174573,2.326509871517631,0.0919302961378893,太原直送,0.0919302961378893,山西省,太原市,万柏林区,万柏林街道,山西省太原市万柏林区万柏林街道和平巷锦市集,112.50569381995832,37.88265718204476,169_93,112.50647086869964,37.88450448419733,4.0,10304726249.0,112.5056494,37.8815358,140109120388.0,0,0,38
太原直送,AWLS012,AWLS012,126,140109120409,太原***食便利店,112.508628,37.89099,1.0,1.0,111.0,22.0,2.291909966783596,2.323902544667693,0.0850269512213588,太原直送,0.0850269512213588,山西省,太原市,万柏林区,万柏林街道,山西省太原市万柏林区万柏林街道和平北路南巷25号东风小区,112.50219717845408,37.890363319624576,168_94,112.50067794048248,37.88900108940375,4.0,7686325857.0,112.5033912,37.8901642,140109120409.0,0,0,38
太原直送,AWLS012,AWLS012,128,140109120448,太原***百货超市,112.507982,37.886592,1.0,1.0,111.0,35.33,2.296265756478983,2.3273339876908508,0.0894601135814154,太原直送,0.0894601135814154,山西省,太原市,万柏林区,万柏林街道,山西省太原市万柏林区万柏林街道万柏林街道党群服务中心博林文苑,112.5015493226467,37.8859625867532,168_93,112.50067794048248,37.88450448419733,4.0,7023261507.0,112.5011534,37.8861541,140109120448.0,0,0,38
太原直送,AWLS013,AWLS013,58,140109120613,太原***鲜便利店,112.517858,37.884615,1.0,1.0,111.0,44.0,2.294792458885336,2.321360988043004,0.089824889696566,太原直送,0.089824889696566,山西省,太原市,万柏林区,兴华街道,山西省太原市万柏林区兴华街道千峰北路竹园,112.51146128161378,37.88401411597042,170_93,112.5122637969168,37.88450448419733,4.0,7686498854.0,112.511482,37.883985,140109120613.0,0,0,38
太原直送,AWLS012,AWLS012,102,140109120787,太原***酒便利店,112.514683,37.886478,1.0,1.0,111.0,18.67,2.2941057481548235,2.3224515640869643,0.088369329096696,太原直送,0.088369329096696,山西省,太原市,万柏林区,万柏林街道,山西省太原市万柏林区万柏林街道西宫东街西宫东街健康村,112.5082747377529,37.88586828813858,169_93,112.50647086869964,37.88450448419733,4.0,8406622243.0,112.5091789,37.8866868,140109120787.0,0,0,38
太原直送,AWLS013,AWLS013,61,140109120884,太原***食便利店,112.512111,37.883275,1.0,1.0,111.0,38.0,2.297988613174573,2.326509871517631,0.0919302961378893,太原直送,0.0919302961378893,山西省,太原市,万柏林区,万柏林街道,山西省太原市万柏林区万柏林街道和平巷锦市集,112.50569381995832,37.88265718204476,169_93,112.50647086869964,37.88450448419733,4.0,10304726249.0,112.5056494,37.8815358,140109120884.0,0,0,38
太原直送,AWLS013,AWLS013,59,140109121072,太原***货便利店,112.512115,37.883315,1.0,1.0,111.0,35.67,2.2979496111951607,2.326479975586509,0.0918901848294981,太原直送,0.0918901848294981,山西省,太原市,万柏林区,万柏林街道,山西省太原市万柏林区万柏林街道和平巷锦市集,112.5056978297679,37.88269720109393,169_93,112.50647086869964,37.88450448419733,4.0,7686334209.0,112.5055867,37.883822,140109121072.0,0,0,38
太原直送,AWLS012,AWLS012,145,140109121078,太原***怡副食店,112.509532,37.881571,1.0,1.0,111.0,50.0,2.3004639843764134,2.329563940030841,0.0940640181206383,太原直送,0.0940640181206383,山西省,太原市,万柏林区,万柏林街道,山西省太原市万柏林区万柏林街道西宫南二巷彭村新区,112.50310560940494,37.88094526582108,168_92,112.50067794048248,37.88000787899091,4.0,7543286125.0,112.5035711,37.8809594,140109121078.0,0,0,38
太原直送,AWLS012,AWLS012,125,140109121212,太原***鲜便利店,112.508151,37.891092,1.0,1.0,111.0,49.67,2.291976281424613,2.3241878554992064,0.0850335484676474,太原直送,0.0850335484676474,山西省,太原市,万柏林区,万柏林街道,山西省太原市万柏林区万柏林街道和平北路203号东风小区,112.50171841238117,37.89046392251808,168_94,112.50067794048248,37.88900108940375,4.0,7686325857.0,112.5033912,37.8901642,140109121212.0,0,0,38
太原直送,AWLS012,AWLS012,131,140109121452,（唐***久副食便利店,112.509924,37.882216,1.0,1.0,111.0,64.33,2.299724396947165,2.328839829731749,0.0933569745118159,太原直送,0.0933569745118159,山西省,太原市,万柏林区,万柏林街道,山西省太原市万柏林区万柏林街道和平北路159号彭村新区,112.50349896892858,37.881591542909,168_92,112.50067794048248,37.88000787899091,4.0,2004160221.0,112.5036903,37.8814917,140109121452.0,0,0,38
太原直送,AWLS012,AWLS012,147,140109121458,太原***达便利店,112.510077,37.879761,1.0,1.0,111.0,30.67,2.3019830976720908,2.330380350452905,0.0957425703644909,太原直送,0.0957425703644909,山西省,太原市,万柏林区,万柏林街道,山西省太原市万柏林区万柏林街道和平北路嘉怡·国际丽都城,112.50365281884888,37.87913655006213,169_92,112.50647086869964,37.88000787899091,4.0,7543286125.0,112.5035711,37.8809594,140109121458.0,0,0,38
太原直送,AWLS013,AWLS013,12,140109121541,太原***龙便利店,112.514755,37.883489,1.0,1.0,111.0,50.0,2.296895837280397,2.3244118577706967,0.0913188236893159,太原直送,0.0913188236893159,山西省,太原市,万柏林区,万柏林街道,山西省太原市万柏林区万柏林街道双拥路恒大书院,112.5083473489977,37.88287894948524,169_93,112.50647086869964,37.88450448419733,4.0,10304726248.0,112.5081998,37.8839229,140109121541.0,0,0,38
太原直送,AWLS013,AWLS013,118,140109121572,太原***酒便利店,112.51467,37.883262,1.0,1.0,111.0,53.67,2.2971382023487386,2.324627650197124,0.0915553597011091,太原直送,0.0915553597011091,山西省,太原市,万柏林区,万柏林街道,山西省太原市万柏林区万柏林街道双拥路恒大书院,112.50826207029708,37.88265166083495,169_93,112.50647086869964,37.88450448419733,4.0,2002382995.0,112.5081565,37.8815923,140109121572.0,0,0,38
太原直送,AWLS013,AWLS013,14,140109121636,太原***英日杂店,112.510884,37.882157,1.0,1.0,111.0,19.0,2.2994553406163365,2.32816982723855,0.0932412198386512,太原直送,0.0932412198386512,山西省,太原市,万柏林区,万柏林街道,山西省太原市万柏林区万柏林街道彭西二巷悠乐汇,112.50446248442734,37.88153536711334,169_92,112.50647086869964,37.88000787899091,4.0,2004160221.0,112.5036903,37.8814917,140109121636.0,0,0,38
太原直送,AWLS012,AWLS012,35,140109121719,太原***华民酒店,112.509822,37.886654,1.0,1.0,111.0,35.67,2.295583122562543,2.3259297216822765,0.0890202525383956,太原直送,0.0890202525383956,山西省,太原市,万柏林区,万柏林街道,山西省太原市万柏林区万柏林街道和平北路,112.5033960711018,37.88603005377737,168_93,112.50067794048248,37.88450448419733,4.0,4268051896.0,112.5033864,37.8863327,140109121719.0,0,0,38
太原直送,AWLS013,AWLS013,13,140109121862,太原***轩便利店,112.514612,37.8828,1.0,1.0,111.0,34.33,2.2975927675743546,2.324981917621078,0.0920209444094069,太原直送,0.0920209444094069,山西省,太原市,万柏林区,万柏林街道,山西省太原市万柏林区万柏林街道路路大碗香恒大书院,112.5082039162738,37.88218940784141,169_92,112.50647086869964,37.88000787899091,4.0,2002382995.0,112.5081565,37.8815923,140109121862.0,0,0,38
太原直送,AWLS012,AWLS012,39,140109121890,（唐***元唐久便利店,112.510077,37.879761,1.0,1.0,111.0,25.67,2.3019830976720908,2.330380350452905,0.0957425703644909,太原直送,0.0957425703644909,山西省,太原市,万柏林区,万柏林街道,山西省太原市万柏林区万柏林街道和平北路嘉怡·国际丽都城,112.50365281884888,37.87913655006213,169_92,112.50647086869964,37.88000787899091,4.0,7543286125.0,112.5035711,37.8809594,140109121890.0,0,0,38
太原直送,AWLS013,AWLS013,10,140109121895,太原***鑫便利店,112.514533,37.883257,1.0,1.0,111.0,28.33,2.297189029627295,2.324732224160235,0.0915793000410007,太原直送,0.0915793000410007,山西省,太原市,万柏林区,万柏林街道,山西省太原市万柏林区万柏林街道古槐饭店恒大书院,112.50812457829498,37.882646261292365,169_93,112.50647086869964,37.88450448419733,4.0,2002382995.0,112.5081565,37.8815923,140109121895.0,0,0,38
太原直送,AWLS013,AWLS013,55,140109121930,太原***酒便利店,112.514772,37.884553,1.0,1.0,111.0,28.67,2.295888230377302,2.323682294951705,0.0902626586191679,太原直送,0.0902626586191679,山西省,太原市,万柏林区,万柏林街道,山西省太原市万柏林区万柏林街道彭西一巷恒大书院,112.50836428460649,37.8839431934962,169_93,112.50647086869964,37.88450448419733,4.0,10304726248.0,112.5081998,37.8839229,140109121930.0,0,0,38
太原直送,AWLS013,AWLS013,8,140109121962,（金***跃金虎便利店,112.514717,37.883351,1.0,1.0,111.0,25.67,2.297038575398332,2.3245329425665244,0.091460736056518,太原直送,0.091460736056518,山西省,太原市,万柏林区,万柏林街道,山西省太原市万柏林区万柏林街道彭村北街47号恒大书院,112.50830922872284,37.882740813783,169_93,112.50647086869964,37.88450448419733,4.0,2002382995.0,112.5081565,37.8815923,140109121962.0,0,0,38
太原直送,AWLS012,AWLS012,133,140109122268,（金***丰金虎便利店,112.509924,37.882216,1.0,1.0,111.0,24.67,2.299724396947165,2.328839829731749,0.0933569745118159,太原直送,0.0933569745118159,山西省,太原市,万柏林区,万柏林街道,山西省太原市万柏林区万柏林街道和平北路159号彭村新区,112.50349896892858,37.881591542909,168_92,112.50067794048248,37.88000787899091,4.0,2004160221.0,112.5036903,37.8814917,140109122268.0,0,0,38
太原直送,AWLS013,AWLS013,23,140109122381,（唐***峰唐久便利店,112.512111,37.883275,1.0,1.0,111.0,62.33,2.297988613174573,2.326509871517631,0.0919302961378893,太原直送,0.0919302961378893,山西省,太原市,万柏林区,万柏林街道,山西省太原市万柏林区万柏林街道和平巷锦市集,112.50569381995832,37.88265718204476,169_93,112.50647086869964,37.88450448419733,4.0,10304726249.0,112.5056494,37.8815358,140109122381.0,0,0,38
太原直送,AWLS012,AWLS012,20,140109122395,太原***油醋商店,112.510077,37.879761,1.0,1.0,111.0,15.33,2.3019830976720908,2.330380350452905,0.0957425703644909,太原直送,0.0957425703644909,山西省,太原市,万柏林区,万柏林街道,山西省太原市万柏林区万柏林街道和平北路嘉怡·国际丽都城,112.50365281884888,37.87913655006213,169_92,112.50647086869964,37.88000787899091,4.0,7543286125.0,112.5035711,37.8809594,140109122395.0,0,0,38
太原直送,AWLS012,AWLS012,57,140109122442,太原***增便利店,112.511893,37.886334,1.0,1.0,111.0,72.0,2.2951831370243645,2.3246120844343032,0.0889522168414035,太原直送,0.0889522168414035,山西省,太原市,万柏林区,万柏林街道,山西省太原市万柏林区万柏林街道西宫东街万柏林区司法局万柏林司法所,112.50547466650146,37.88571610212729,169_93,112.50647086869964,37.88450448419733,4.0,7843357511.0,112.5053103,37.8856673,140109122442.0,0,0,38
太原直送,AWLS012,AWLS012,48,140109122598,太原***烟酒商行,112.510044,37.879289,1.0,1.0,111.0,89.0,2.302438490345617,2.330722822501212,0.0962128251170286,太原直送,0.0962128251170286,山西省,太原市,万柏林区,万柏林街道,山西省太原市万柏林区万柏林街道和平北路嘉怡·国际丽都城,112.50361975386824,37.87866436727686,169_92,112.50647086869964,37.88000787899091,4.0,7840653470.0,112.5038495,37.8766342,140109122598.0,0,0,38
太原直送,AWLS012,AWLS012,122,140109205540,山西***责任公司,112.508322,37.894672,1.0,1.0,111.0,17.67,2.288551900853024,2.321660991002125,0.0815094490350629,太原直送,0.0815094490350629,山西省,太原市,万柏林区,万柏林街道,山西省太原市万柏林区万柏林街道和平北路北巷晋西宾馆,112.5018896179942,37.89404510048328,168_95,112.50067794048248,37.893497694610176,4.0,4268051901.0,112.5031308,37.8939189,140109205540.0,0,0,38
太原直送,AWLS012,AWLS012,68,140109220403,（石***北路加油站,112.517927,37.886375,1.0,1.0,111.0,46.67,2.293111414868452,2.3201234379327724,0.088067454715119,太原直送,0.088067454715119,山西省,太原市,万柏林区,兴华街道,山西省太原市万柏林区兴华街道杏园一巷中国石化千峰北路加油站,112.5115303183455,37.885774636856645,170_93,112.5122637969168,37.88450448419733,4.0,8166050812.0,112.511464,37.8858273,140109220403.0,0,0,38
太原直送,AWLS012,AWLS012,146,140109220695,太原***有限公司,112.509907,37.881413,1.0,1.0,111.0,61.33,2.300485817409008,2.329393102320214,0.0941492108092224,太原直送,0.0941492108092224,山西省,太原市,万柏林区,万柏林街道,山西省太原市万柏林区万柏林街道和平北路167号彭村新区,112.5034820015714,37.88078834667912,168_92,112.50067794048248,37.88000787899091,4.0,7543286125.0,112.5035711,37.8809594,140109220695.0,0,0,38
太原直送,AWLS012,AWLS012,140,140109221893,太原***有限公司,112.509883,37.88132,1.0,1.0,111.0,33.0,2.3005814542234715,2.3294734751737307,0.0942450435248412,太原直送,0.0942450435248412,山西省,太原市,万柏林区,万柏林街道,山西省太原市万柏林区万柏林街道和平北路169号嘉怡·国际丽都城,112.50345792470266,37.88069525881916,168_92,112.50067794048248,37.88000787899091,4.0,7543286125.0,112.5035711,37.8809594,140109221893.0,0,0,38
太原直送,AWLS013,AWLS013,9,140109222461,山西***有限公司,112.514755,37.883489,1.0,1.0,111.0,61.67,2.296895837280397,2.3244118577706967,0.0913188236893159,太原直送,0.0913188236893159,山西省,太原市,万柏林区,万柏林街道,山西省太原市万柏林区万柏林街道双拥路恒大书院,112.5083473489977,37.88287894948524,169_93,112.50647086869964,37.88450448419733,4.0,10304726248.0,112.5081998,37.8839229,140109222461.0,0,0,38
太原直送,AWLS013,AWLS013,7,140109222650,山西***场分公司,112.512984,37.883971,1.0,1.0,111.0,46.67,2.2970388265131656,2.325395804421255,0.0911027346735496,太原直送,0.0911027346735496,山西省,太原市,万柏林区,万柏林街道,山西省太原市万柏林区万柏林街道知行路锦市集,112.50656990400124,37.88335586943519,169_93,112.50647086869964,37.88450448419733,4.0,7686334209.0,112.5055867,37.883822,140109222650.0,0,0,38
太原直送,AWLS013,AWLS013,6,140109122715,（唐***昇唐久便利店,112.514717,37.883351,1.0,1.0,111.0,30.0,2.297038575398332,2.3245329425665244,0.091460736056518,太原直送,0.091460736056518,山西省,太原市,万柏林区,万柏林街道,山西省太原市万柏林区万柏林街道彭村北街47号恒大书院,112.50830922872284,37.882740813783,169_93,112.50647086869964,37.88450448419733,4.0,2002382995.0,112.5081565,37.8815923,140109122715.0,0,0,38
太原直送,AWLS012,AWLS012,31,140109122725,太原***烟酒商行,112.509778,37.888964,1.0,1.0,111.0,49.0,2.2934249260409625,2.3244101741157905,0.0867652330487252,太原直送,0.0867652330487252,山西省,太原市,万柏林区,万柏林街道,山西省太原市万柏林区万柏林街道和平北路太原晋运达机动车驾驶员培训学校有限公司西宫分校,112.50335163697116,37.88834035040707,168_94,112.50067794048248,37.88900108940375,4.0,7686325842.0,112.5033191,37.8883827,140109122725.0,0,0,38
太原直送,AWLS012,AWLS012,25,140109122732,太原***汤便利店,112.508539,37.891258,1.0,1.0,111.0,20.0,2.2916882019989098,2.323788749480037,0.0847851504745949,太原直送,0.0847851504745949,山西省,太原市,万柏林区,万柏林街道,山西省太原市万柏林区万柏林街道和平北路203号东风小区,112.50210781966392,37.89063110546719,168_94,112.50067794048248,37.88900108940375,4.0,7686325857.0,112.5033912,37.8901642,140109122732.0,0,0,38
太原直送,AWLS012,AWLS012,18,140108120591,太原***烟酒商行,112.519198,37.887135,1.0,1.0,111.0,68.67,2.2919689568833577,2.318672288980912,0.0871846195667536,太原直送,0.0871846195667536,山西省,太原市,尖草坪区,汇丰街道,山西省太原市尖草坪区汇丰街道兴华街钢材大厦(兴华街),112.51280570704137,37.886538406497216,170_93,112.5122637969168,37.88450448419733,4.0,7686325884.0,112.5138172,37.8868153,140108120591.0,0,0,38
太原直送,AWLS012,AWLS012,38,140108220607,太原***金源商行,112.512394,37.887071,1.0,1.0,111.0,60.0,2.2943201599839984,2.323745611868905,0.0881403686457001,太原直送,0.0881403686457001,山西省,太原市,尖草坪区,汇丰街道,山西省太原市尖草坪区汇丰街道兴华街太原幼儿师范高等专科学校兴华校区,112.50597739942228,37.88645470924689,169_93,112.50647086869964,37.88450448419733,4.0,7843357511.0,112.5053103,37.8856673,140108220607.0,0,0,38
太原直送,AWLS012,AWLS012,59,140108120633,太原***帅烟酒店,112.514764,37.887164,1.0,1.0,111.0,60.67,2.2934325922620884,2.3219298480516155,0.0876787926582021,太原直送,0.0876787926582021,山西省,太原市,尖草坪区,汇丰街道,山西省太原市尖草坪区汇丰街道兴华街兴华街商务广场,112.50835594793853,37.8865546501122,169_93,112.50647086869964,37.88450448419733,4.0,8406622243.0,112.5091789,37.8866868,140108120633.0,0,0,38
太原直送,AWLS012,AWLS012,56,140109122819,太原***烟酒超市,112.509989,37.88624,1.0,1.0,111.0,35.67,2.295916030320139,2.32608440676128,0.0893937616671288,太原直送,0.0893937616671288,山西省,太原市,万柏林区,万柏林街道,山西省太原市万柏林区万柏林街道和平北路晋西和平东苑,112.50356373137696,37.88561647143098,168_93,112.50067794048248,37.88450448419733,4.0,7843357513.0,112.503553,37.8856017,140109122819.0,0,0,38
太原直送,AWLS012,AWLS012,58,140108120653,太原***烟酒商行,112.514181,37.887073,1.0,1.0,111.0,54.0,2.2937148606921487,2.3224222658941702,0.0878539779634351,太原直送,0.0878539779634351,山西省,太原市,尖草坪区,汇丰街道,山西省太原市尖草坪区汇丰街道兴华街兴华街商务广场,112.50777086114394,37.88646193607859,169_93,112.50647086869964,37.88450448419733,4.0,7686325845.0,112.5073361,37.8866541,140108120653.0,0,0,38
太原直送,AWLS013,AWLS013,11,140109122826,太原***熙烟酒店,112.517877,37.881436,1.0,1.0,111.0,25.67,2.2977810118879898,2.3234920700105683,0.0929849778458843,太原直送,0.0929849778458843,山西省,太原市,万柏林区,兴华街道,山西省太原市万柏林区兴华街道千峰北路漪汾华苑北区,112.51148072321844,37.880834590680045,170_92,112.5122637969168,37.88000787899091,4.0,2004160260.0,112.5115045,37.8816769,140109122826.0,0,0,38
太原直送,AWLS012,AWLS012,21,140109122855,太原***工商户）,112.510331,37.884407,1.0,1.0,111.0,31.33,2.2975249198752974,2.3270641632591493,0.0911285067363632,太原直送,0.0911285067363632,山西省,太原市,万柏林区,万柏林街道,山西省太原市万柏林区万柏林街道彭西一巷晋西和平东苑,112.50390719891338,37.88378414568311,169_93,112.50647086869964,37.88450448419733,4.0,7686334208.0,112.5036166,37.8837395,140109122855.0,0,0,38
太原直送,AWLS012,AWLS012,9,140108120662,太原***嘉盛酒业,112.512694,37.890893,1.0,1.0,111.0,36.67,2.2906219382868507,2.320954243551564,0.0843233852558122,太原直送,0.0843233852558122,山西省,太原市,尖草坪区,汇丰街道,山西省太原市尖草坪区汇丰街道西流街西流佳苑,112.50627803635211,37.890278297369896,169_94,112.50647086869964,37.88900108940375,4.0,7686325850.0,112.5072258,37.8902393,140108120662.0,0,0,38
太原直送,AWLS012,AWLS012,41,140108120661,太原***云云商店,112.51133,37.890742,1.0,1.0,111.0,68.67,2.29122597787516,2.322066171352785,0.0847184972128236,太原直送,0.0847184972128236,山西省,太原市,尖草坪区,汇丰街道,山西省太原市尖草坪区汇丰街道融创外滩公馆一期(北门),112.50490909668554,37.89012326169719,169_94,112.50647086869964,37.88900108940375,4.0,7686325857.0,112.5033912,37.8901642,140108120661.0,0,0,38
太原直送,AWLS012,AWLS012,1110,140108120713,太原***捌便利店,112.513542,37.887075,1.0,1.0,111.0,34.33,2.2939286078178154,2.322893572981763,0.0879496414148414,太原直送,0.0879496414148414,山西省,太原市,尖草坪区,汇丰街道,山西省太原市尖草坪区汇丰街道兴华街,112.50712955572938,37.886462071605685,169_93,112.50647086869964,37.88450448419733,4.0,7686325845.0,112.5073361,37.8866541,140108120713.0,0,0,38
太原直送,AWLS012,AWLS012,21,140108120766,太原***族便利店,112.512624,37.89407,1.0,1.0,111.0,34.33,2.2876563826470955,2.3188729909145493,0.0812088399744744,太原直送,0.0812088399744744,山西省,太原市,尖草坪区,汇丰街道,山西省太原市尖草坪区汇丰街道友喜巷友喜小区,112.50620740745316,37.893455686231405,169_95,112.50647086869964,37.893497694610176,4.0,9012861427.0,112.5070964,37.8931771,140108120766.0,0,0,38
太原直送,AWLS013,AWLS013,21,140109123142,太原***烟酒商行,112.517758,37.882352,1.0,1.0,111.0,32.67,2.2969578966123883,2.3229615416853115,0.0920859788784383,太原直送,0.0920859788784383,山西省,太原市,万柏林区,兴华街道,山西省太原市万柏林区兴华街道彭西二巷华康悦府,112.51136119431985,37.88175041604543,170_92,112.5122637969168,37.88000787899091,4.0,7012633294.0,112.5113836,37.8816738,140109123142.0,0,0,38
太原直送,AWLS011,AWLS011,70,140108120769,太原***便民中心,112.516311,37.889234,1.0,1.0,111.0,36.33,2.290962373507907,2.319392473177832,0.0854179079877246,太原直送,0.0854179079877246,山西省,太原市,尖草坪区,汇丰街道,山西省太原市尖草坪区汇丰街道芙蓉东巷兴华北小区,112.50990824217789,37.8886295161536,170_94,112.5122637969168,37.88900108940375,4.0,7686325872.0,112.5098598,37.8885323,140108120769.0,0,0,38
太原直送,AWLS012,AWLS012,30,140109123145,太原***百货超市,112.5097,37.890327,1.0,1.0,111.0,26.0,2.2921693026835968,2.3235527562497933,0.0854467618169351,太原直送,0.0854467618169351,山西省,太原市,万柏林区,万柏林街道,山西省太原市万柏林区万柏林街道和平北路融创外滩公馆,112.5032731901708,37.88970337267039,168_94,112.50067794048248,37.88900108940375,4.0,7686325857.0,112.5033912,37.8901642,140109123145.0,0,0,38
太原直送,AWLS011,AWLS011,64,140108120775,太原***好便利店,112.516338,37.888601,1.0,1.0,111.0,29.0,2.2915493098654856,2.3197985491718827,0.0860422511850975,太原直送,0.0860422511850975,山西省,太原市,尖草坪区,汇丰街道,山西省太原市尖草坪区汇丰街道芙蓉东巷兴华北小区,112.50993541308362,37.88799647683693,170_94,112.5122637969168,37.88900108940375,4.0,7686325872.0,112.5098598,37.8885323,140108120775.0,0,0,38
