station_name,line_code,line_name,deliver_no,customer_code,customer_name,longitude,latitude,order_cycle_type,order_weekday,city_village_code,avg_order_qty,distance_to_平城直送,distance_to_灵丘中转站,distance_to_太原直送,nearest_station,distance_to_station,province,city,district,township,full_address,lon_84,lat_84,grid_id,LonGridCenter,LatGridCenter,group,customer_osmid_mapping,OSM_X,OSM_Y,BB_RETAIL_CUSTOMER_CODE,kmeans_cluster,dbscan_label,kmeans_label
太原直送,BWLS014,BWLS014,81,140109100460,太原***海子商店,112.523072,37.856417,1.0,2.0,111.0,45.0,2.319650361841844,2.3366545634337985,0.1176017751439133,太原直送,0.1176017751439133,山西省,太原市,万柏林区,千峰街道,山西省太原市万柏林区千峰街道新矿院路山西省会计函授学校小区,112.51669674890633,37.85582589128016,171_87,112.51805672513396,37.85752485295879,1.0,7023514576.0,112.5167293,37.855035,140109100460.0,0,0,61
太原直送,BWLS014,BWLS014,88,140109100475,太原***龙便利店,112.528652,37.851448,1.0,2.0,111.0,43.67,2.32251191425362,2.3359748527963697,0.1225025383655381,太原直送,0.1225025383655381,山西省,太原市,万柏林区,下元街道,山西省太原市万柏林区下元街道后王街蓝水园温泉度假酒店,112.52229600878174,37.850871263086745,172_86,112.52384965335112,37.85302824775237,1.0,4225827166.0,112.5238702,37.8508092,140109100475.0,0,0,61
太原直送,BWLS014,BWLS014,82,140109101327,太原***烟经销部,112.521496,37.855647,1.0,2.0,111.0,91.33,2.320897270318746,2.338332334057758,0.1184379534819823,太原直送,0.1184379534819823,山西省,太原市,万柏林区,千峰街道,山西省太原市万柏林区千峰街道虎峪河北沿岸,112.51511541813268,37.85505135930857,170_86,112.5122637969168,37.85302824775237,1.0,7215233353.0,112.5143603,37.8550365,140109101327.0,0,0,61
太原直送,BWLS013,BWLS013,42,140109105242,（唐***喜唐久便利店,112.526818,37.85636,1.0,2.0,111.0,44.67,2.318471766142943,2.3339554214022527,0.1175839594247408,太原直送,0.1175839594247408,山西省,太原市,万柏林区,千峰街道,山西省太原市万柏林区千峰街道大王路煤博东院,112.5204553891102,37.8557791559848,171_87,112.51805672513396,37.85752485295879,1.0,7543087902.0,112.5204457,37.8558201,140109105242.0,0,0,61
太原直送,AWLS008,AWLS008,56,140109106224,太原***磊烟酒店,112.526639,37.859849,1.0,1.0,111.0,19.0,2.315235250012406,2.331705202016969,0.1140958743864138,太原直送,0.1140958743864138,山西省,太原市,万柏林区,千峰街道,山西省太原市万柏林区千峰街道前北屯路文兴苑,112.52027538494436,37.85926825982634,171_87,112.51805672513396,37.85752485295879,1.0,7512781374.0,112.5203351,37.8576765,140109106224.0,0,0,61
太原直送,BWLS014,BWLS014,103,140109106879,太原***全烟酒店,112.530215,37.851918,1.0,2.0,111.0,71.67,2.321557152300372,2.334513681879377,0.1220599799647704,太原直送,0.1220599799647704,山西省,太原市,万柏林区,下元街道,山西省太原市万柏林区下元街道晋祠路中海·寰宇天下,112.52386402564744,37.85134547551003,172_86,112.52384965335112,37.85302824775237,1.0,4225827166.0,112.5238702,37.8508092,140109106879.0,0,0,61
太原直送,BWLS014,BWLS014,104,140109107685,（金***利后王村店,112.528861,37.848715,1.0,2.0,111.0,24.67,2.325026680332936,2.337693844862705,0.1252378162058089,太原直送,0.1252378162058089,山西省,太原市,万柏林区,下元街道,山西省太原市万柏林区下元街道后王社区卫生服务站煤气化石油小区,112.52250601133672,37.84813837193648,172_85,112.52384965335112,37.84853164254594,1.0,4225827169.0,112.524098,37.848676,140109107685.0,0,0,61
太原直送,BWLS013,BWLS013,46,140109108463,太原***任烟酒店,112.530086,37.849274,1.0,2.0,111.0,63.67,2.324098589766362,2.3364185303299148,0.1247002823172397,太原直送,0.1247002823172397,山西省,太原市,万柏林区,下元街道,山西省太原市万柏林区下元街道后王南街山西省粮食局河西高层住宅小区,112.52373491939342,37.84870070276899,172_85,112.52384965335112,37.84853164254594,1.0,4225827169.0,112.524098,37.848676,140109108463.0,0,0,61
太原直送,BWLS013,BWLS013,40,140109113780,太原***刚便利店,112.526818,37.856649,1.0,2.0,111.0,25.0,2.3181987835992404,2.333758082901478,0.1172949617886474,太原直送,0.1172949617886474,山西省,太原市,万柏林区,千峰街道,山西省太原市万柏林区千峰街道大王路中景花园,112.5204553552303,37.85606820443311,171_87,112.51805672513396,37.85752485295879,1.0,7543087902.0,112.5204457,37.8558201,140109113780.0,0,0,61
太原直送,AWLS008,AWLS008,81,140109114378,太原***便民超市,112.529222,37.861846,1.0,1.0,111.0,53.33,2.312500663995145,2.3284541963278937,0.1121135961870802,太原直送,0.1121135961870802,山西省,太原市,万柏林区,千峰街道,山西省太原市万柏林区千峰街道文兴路七美家居商场(文兴路店),112.5228666491344,37.86127252147937,172_88,112.52384965335112,37.862021458165216,1.0,7512781367.0,112.5230796,37.8620191,140109114378.0,0,0,61
太原直送,BWLS013,BWLS013,48,140109114732,太原***湾便利店,112.527073,37.84732,3.0,2.0,111.0,17.0,2.3269292988264554,2.339952051709175,0.1266231911183679,太原直送,0.1266231911183679,山西省,太原市,万柏林区,下元街道,山西省太原市万柏林区下元街道大王路美林湾,112.5207122947612,37.84673835530211,171_85,112.51805672513396,37.84853164254594,1.0,4225827170.0,112.5207052,37.8485999,140109114732.0,0,0,61
太原直送,BWLS013,BWLS013,49,140109115745,太原***生活超市,112.527077,37.847323,1.0,2.0,111.0,58.33,2.326925155844075,2.339947082520664,0.126620184236159,太原直送,0.126620184236159,山西省,太原市,万柏林区,下元街道,山西省太原市万柏林区下元街道大王路美林湾,112.52071630766709,37.84674136658287,171_85,112.51805672513396,37.84853164254594,1.0,4225827170.0,112.5207052,37.8485999,140109115745.0,0,0,61
太原直送,BWLS014,BWLS014,80,140109118541,（金***林金虎便利店,112.523072,37.856417,1.0,2.0,111.0,60.0,2.319650361841844,2.3366545634337985,0.1176017751439133,太原直送,0.1176017751439133,山西省,太原市,万柏林区,千峰街道,山西省太原市万柏林区千峰街道新矿院路山西省会计函授学校小区,112.51669674890633,37.85582589128016,171_87,112.51805672513396,37.85752485295879,1.0,7023514576.0,112.5167293,37.855035,140109118541.0,0,0,61
太原直送,BWLS013,BWLS013,41,140109118622,太原***联便利店,112.526715,37.856901,1.0,2.0,111.0,98.0,2.317994575131702,2.3336612838235555,0.117043427188371,太原直送,0.117043427188371,山西省,太原市,万柏林区,千峰街道,山西省太原市万柏林区千峰街道大王路中景花园,112.52035198336937,37.85631996806772,171_87,112.51805672513396,37.85752485295879,1.0,7543087902.0,112.5204457,37.8558201,140109118622.0,0,0,61
太原直送,BWLS014,BWLS014,90,140109118689,太原***百货商店,112.527628,37.849227,1.0,2.0,111.0,64.0,2.324945651374455,2.3382416627893643,0.1247164499214111,太原直送,0.1247164499214111,山西省,太原市,万柏林区,下元街道,山西省太原市万柏林区下元街道后王南街公园路小学南校区,112.52126890644747,37.8486471597514,172_85,112.52384965335112,37.84853164254594,1.0,4225827170.0,112.5207052,37.8485999,140109118689.0,0,0,61
太原直送,BWLS014,BWLS014,102,140109118894,（金***青金虎便利店,112.530158,37.852368,1.0,2.0,111.0,22.0,2.3211504058035537,2.3342471867574344,0.121608753180024,太原直送,0.121608753180024,山西省,太原市,万柏林区,下元街道,山西省太原市万柏林区下元街道晋祠路中海·寰宇天下,112.52380678932316,37.8517953999595,172_86,112.52384965335112,37.85302824775237,1.0,7686153765.0,112.5237052,37.852724,140109118894.0,0,0,61
太原直送,AWLS008,AWLS008,82,140109118903,太原***用百货店,112.526738,37.860548,1.0,1.0,111.0,32.67,2.314542568811816,2.331156105447468,0.1133963581866689,太原直送,0.1133963581866689,山西省,太原市,万柏林区,千峰街道,山西省太原市万柏林区千峰街道前北屯路文兴苑,112.52037463223763,37.85996764654369,171_88,112.51805672513396,37.862021458165216,1.0,7512781374.0,112.5203351,37.8576765,140109118903.0,0,0,61
太原直送,BWLS013,BWLS013,39,140109118939,太原***食便利店,112.523036,37.855049,1.0,2.0,111.0,40.67,2.320953768632409,2.3376141412440106,0.1189701865384741,太原直送,0.1189701865384741,山西省,太原市,万柏林区,下元街道,山西省太原市万柏林区下元街道新矿院路太原理工大学(虎峪校区),112.51666078633652,37.85445756250611,171_86,112.51805672513396,37.85302824775237,1.0,7023515575.0,112.5167528,37.8544956,140109118939.0,0,0,61
太原直送,BWLS014,BWLS014,72,140109119234,（金***磊金虎便利店,112.530729,37.852625,1.0,2.0,111.0,49.67,2.320721125119516,2.3336550100117632,0.1213666478897673,太原直送,0.1213666478897673,山西省,太原市,万柏林区,下元街道,山西省太原市万柏林区下元街道中海·寰宇天下(西门),112.5243795943224,37.852053939390686,172_86,112.52384965335112,37.85302824775237,1.0,7686153765.0,112.5237052,37.852724,140109119234.0,0,0,61
太原直送,AWLS008,AWLS008,57,140109119305,太原***酒便利店,112.526527,37.8583,1.0,1.0,111.0,49.67,2.316734981892619,2.3328438109676326,0.1156455369004773,太原直送,0.1156455369004773,山西省,太原市,万柏林区,千峰街道,山西省太原市万柏林区千峰街道爱尔眼科(迎西院区)迎西大厦,112.52016319375645,37.85771869432787,171_87,112.51805672513396,37.85752485295879,1.0,7512781374.0,112.5203351,37.8576765,140109119305.0,0,0,61
太原直送,BWLS014,BWLS014,70,140109119381,太原***号便利店,112.530711,37.852613,1.0,2.0,111.0,43.33,2.320738341325882,2.333676345983095,0.1213781348678585,太原直送,0.1213781348678585,山西省,太原市,万柏林区,下元街道,山西省太原市万柏林区下元街道中海·寰宇天下(西门),112.52436153803517,37.85204189033744,172_86,112.52384965335112,37.85302824775237,1.0,7686153765.0,112.5237052,37.852724,140109119381.0,0,0,61
太原直送,AWLS008,AWLS008,54,140109119506,太原***烟酒商行,112.52665,37.861394,1.0,1.0,111.0,83.33,2.313772594077906,2.330643694588469,0.112550836736118,太原直送,0.112550836736118,山西省,太原市,万柏林区,千峰街道,山西省太原市万柏林区千峰街道前北屯路文兴苑,112.52028624037509,37.86081355240975,171_88,112.51805672513396,37.862021458165216,1.0,7215989232.0,112.5201053,37.8625221,140109119506.0,0,0,61
太原直送,AWLS008,AWLS008,85,140109119517,（金***虎副食便利店,112.526597,37.861464,1.0,1.0,111.0,50.67,2.313723930067935,2.3306347566210404,0.1124811533413491,太原直送,0.1124811533413491,山西省,太原市,万柏林区,千峰街道,山西省太原市万柏林区千峰街道前北屯路文兴苑,112.52023305579922,37.860883420803816,171_88,112.51805672513396,37.862021458165216,1.0,7215989232.0,112.5201053,37.8625221,140109119517.0,0,0,61
太原直送,BWLS014,BWLS014,71,140109119614,（唐***久副食便利店,112.530729,37.852625,1.0,2.0,111.0,25.33,2.320721125119516,2.3336550100117632,0.1213666478897673,太原直送,0.1213666478897673,山西省,太原市,万柏林区,下元街道,山西省太原市万柏林区下元街道中海·寰宇天下(西门),112.5243795943224,37.852053939390686,172_86,112.52384965335112,37.85302824775237,1.0,7686153765.0,112.5237052,37.852724,140109119614.0,0,0,61
太原直送,BWLS013,BWLS013,51,140109119781,（金***罗金虎便利店,112.523335,37.848783,1.0,2.0,111.0,34.33,2.3267723837608187,2.341676105270964,0.1252225673111689,太原直送,0.1252225673111689,山西省,太原市,万柏林区,下元街道,山西省太原市万柏林区下元街道美林湾(北门),112.51696154371176,37.84819136007828,171_85,112.51805672513396,37.84853164254594,1.0,7840653442.0,112.5142463,37.8464437,140109119781.0,0,0,61
太原直送,BWLS014,BWLS014,74,140109119977,太原***烟酒商行,112.530504,37.854163,1.0,2.0,111.0,61.67,2.319340809933074,2.3327665316229176,0.1198230316800557,太原直送,0.1198230316800557,山西省,太原市,万柏林区,下元街道,山西省太原市万柏林区下元街道滨宇巷中海·寰宇天下,112.52415369240532,37.85359160536182,172_86,112.52384965335112,37.85302824775237,1.0,7215233331.0,112.5237086,37.8543843,140109119977.0,0,0,61
太原直送,BWLS013,BWLS013,50,140109119992,太原***食便利店,112.525064,37.849053,1.0,2.0,111.0,23.67,2.325949742716081,2.340230155006126,0.1249098896845248,太原直送,0.1249098896845248,山西省,太原市,万柏林区,下元街道,山西省太原市万柏林区下元街道高先生酒店(太原理工大学地铁站店)后王小区,112.51869637689008,37.84846617238441,171_85,112.51805672513396,37.84853164254594,1.0,4225827170.0,112.5207052,37.8485999,140109119992.0,0,0,61
太原直送,BWLS014,BWLS014,84,140109120141,太原***好便利店,112.530215,37.851918,1.0,2.0,111.0,50.33,2.321557152300372,2.334513681879377,0.1220599799647704,太原直送,0.1220599799647704,山西省,太原市,万柏林区,下元街道,山西省太原市万柏林区下元街道晋祠路中海·寰宇天下,112.52386402564744,37.85134547551003,172_86,112.52384965335112,37.85302824775237,1.0,4225827166.0,112.5238702,37.8508092,140109120141.0,0,0,61
太原直送,BWLS014,BWLS014,106,140109120148,太原***刚烟酒店,112.530456,37.848248,1.0,2.0,111.0,54.67,2.3249479678930456,2.3368522385296413,0.1257347907064711,太原直送,0.1257347907064711,山西省,太原市,万柏林区,下元街道,山西省太原市万柏林区下元街道迎泽桥西社区党群服务中心煤气化石油小区,112.52410623053262,37.84767550723494,172_85,112.52384965335112,37.84853164254594,1.0,4225827169.0,112.524098,37.848676,140109120148.0,0,0,61
太原直送,BWLS013,BWLS013,54,140109120187,太原***家便利店,112.523341,37.848704,1.0,2.0,111.0,58.0,2.32684502549031,2.3417257524556527,0.1253013384804812,太原直送,0.1253013384804812,山西省,太原市,万柏林区,下元街道,山西省太原市万柏林区下元街道美林湾(北门),112.51696757346576,37.848112363859535,171_85,112.51805672513396,37.84853164254594,1.0,7840653442.0,112.5142463,37.8464437,140109120187.0,0,0,61
太原直送,BWLS014,BWLS014,75,140109120316,（金***飞金虎便利店,112.531033,37.854193,1.0,2.0,111.0,36.0,2.319139755968147,2.3323602126997893,0.1198083891052669,太原直送,0.1198083891052669,山西省,太原市,万柏林区,下元街道,山西省太原市万柏林区下元街道滨宇巷中海·寰宇天下,112.52468438360684,37.85362299305696,172_86,112.52384965335112,37.85302824775237,1.0,7215233331.0,112.5237086,37.8543843,140109120316.0,0,0,61
太原直送,BWLS013,BWLS013,38,140109120336,太原***货经销部,112.520564,37.85487,1.0,2.0,111.0,29.67,2.321938534170535,2.3395438791852188,0.1192629815575652,太原直送,0.1192629815575652,山西省,太原市,万柏林区,下元街道,山西省太原市万柏林区下元街道东民科技大厦,112.51418027627868,37.85427160516363,170_86,112.5122637969168,37.85302824775237,1.0,7215233361.0,112.5143711,37.8545826,140109120336.0,0,0,61
太原直送,AWLS008,AWLS008,55,140109120429,（唐***翠唐久便利店,112.52664,37.85973,1.0,1.0,111.0,56.67,2.315347304730329,2.331785633660392,0.1142148667118246,太原直送,0.1142148667118246,山西省,太原市,万柏林区,千峰街道,山西省太原市万柏林区千峰街道前北屯路文兴苑,112.520276402225,37.85914924235156,171_87,112.51805672513396,37.85752485295879,1.0,7512781374.0,112.5203351,37.8576765,140109120429.0,0,0,61
太原直送,BWLS014,BWLS014,85,140109120463,太原***烟酒商行,112.530029,37.851406,1.0,2.0,111.0,80.67,2.3221018211200404,2.3349997905288995,0.1225675408295373,太原直送,0.1225675408295373,山西省,太原市,万柏林区,下元街道,山西省太原市万柏林区下元街道后王街,112.52367748595056,37.85083290213113,172_86,112.52384965335112,37.85302824775237,1.0,4225827166.0,112.5238702,37.8508092,140109120463.0,0,0,61
太原直送,AWLS008,AWLS008,84,140109120476,（唐***唐久便利店,112.526775,37.860712,1.0,1.0,111.0,48.0,2.314375523056921,2.33101721375583,0.1132321848460046,太原直送,0.1132321848460046,山西省,太原市,万柏林区,千峰街道,山西省太原市万柏林区千峰街道老四川小火锅(前北屯路)文兴苑,112.52041173599292,37.86013177454608,171_88,112.51805672513396,37.862021458165216,1.0,7215989232.0,112.5201053,37.8625221,140109120476.0,0,0,61
太原直送,BWLS014,BWLS014,73,140109120481,太原***百货商行,112.530699,37.852977,1.0,2.0,111.0,78.33,2.3203981801587386,2.3334359324671823,0.1210139413125568,太原直送,0.1210139413125568,山西省,太原市,万柏林区,下元街道,山西省太原市万柏林区下元街道晋祠路8号中海·寰宇天下,112.52434945696362,37.85240591914885,172_86,112.52384965335112,37.85302824775237,1.0,7686153765.0,112.5237052,37.852724,140109120481.0,0,0,61
太原直送,BWLS013,BWLS013,53,140109120487,太原***鲜便利店,112.522041,37.84944,1.0,2.0,111.0,36.67,2.326577518094978,2.342171345788771,0.1246137252191718,太原直送,0.1246137252191718,山西省,太原市,万柏林区,下元街道,山西省太原市万柏林区下元街道后王南街35号三益东苑,112.5156630283724,37.848844861468855,171_85,112.51805672513396,37.84853164254594,1.0,7840653454.0,112.5140343,37.8505891,140109120487.0,0,0,61
太原直送,BWLS014,BWLS014,76,140109120495,（唐***治唐久便利店,112.531299,37.854193,1.0,2.0,111.0,68.67,2.3190529576609458,2.332166242801952,0.1198169876770365,太原直送,0.1198169876770365,山西省,太原市,万柏林区,下元街道,山西省太原市万柏林区下元街道滨宇巷中海·寰宇天下,112.52495123239883,37.853623685749405,172_86,112.52384965335112,37.85302824775237,1.0,7215233333.0,112.5260863,37.8544862,140109120495.0,0,0,61
太原直送,BWLS014,BWLS014,66,140109120567,太原***鲜便利店,112.530903,37.850576,1.0,2.0,122.0,60.0,2.32260137595004,2.3349313778888705,0.123419807117822,太原直送,0.123419807117822,山西省,太原市,万柏林区,下元街道,山西省太原市万柏林区下元街道粤海宴(幸福里店)幸福里,112.52455439127633,37.85000505666217,172_85,112.52384965335112,37.84853164254594,1.0,7012151158.0,112.5240843,37.8508356,140109120567.0,0,0,61
太原直送,BWLS014,BWLS014,68,140109120825,太原***鲜便利店,112.53066,37.852595,1.0,2.0,111.0,55.0,2.3207719966677027,2.333725845171193,0.1213947024914983,太原直送,0.1213947024914983,山西省,太原市,万柏林区,下元街道,山西省太原市万柏林区下元街道中海·寰宇天下(西门),112.52431037662632,37.85202375395499,172_86,112.52384965335112,37.85302824775237,1.0,7686153765.0,112.5237052,37.852724,140109120825.0,0,0,61
太原直送,BWLS014,BWLS014,69,140109120826,太原***烟酒商行,112.530717,37.85264,1.0,2.0,111.0,71.33,2.320710861254585,2.333653489335982,0.1213513147229949,太原直送,0.1213513147229949,山西省,太原市,万柏林区,下元街道,山西省太原市万柏林区下元街道中海·寰宇天下(西门),112.5243675541067,37.85206891049061,172_86,112.52384965335112,37.85302824775237,1.0,7686153765.0,112.5237052,37.852724,140109120826.0,0,0,61
太原直送,BWLS014,BWLS014,98,140109120981,太原***德隆超市,112.530027,37.854372,1.0,2.0,111.0,37.33,2.3192990955142028,2.3329714859007566,0.1196022524746091,太原直送,0.1196022524746091,山西省,太原市,万柏林区,下元街道,山西省太原市万柏林区下元街道晋祠路外运小区,112.5236751322534,37.85379938753525,172_86,112.52384965335112,37.85302824775237,1.0,7215233331.0,112.5237086,37.8543843,140109120981.0,0,0,61
太原直送,BWLS014,BWLS014,62,140109121107,太原***香烟烟店,112.531068,37.848597,1.0,2.0,111.0,77.0,2.324418669858121,2.336167422181892,0.1254028322686538,太原直送,0.1254028322686538,山西省,太原市,万柏林区,下元街道,山西省太原市万柏林区下元街道晋祠路幸福里,112.52472015028108,37.84802616375195,172_85,112.52384965335112,37.84853164254594,1.0,4225827169.0,112.524098,37.848676,140109121107.0,0,0,61
太原直送,BWLS014,BWLS014,65,140109121159,太原***品正酒行,112.530883,37.849861,1.0,2.0,111.0,82.67,2.32328386100795,2.3354358184769266,0.1241339229380927,太原直送,0.1241339229380927,山西省,太原市,万柏林区,下元街道,山西省太原市万柏林区下元街道晋祠路幸福里,112.52453441095878,37.84928988734924,172_85,112.52384965335112,37.84853164254594,1.0,4225827169.0,112.524098,37.848676,140109121159.0,0,0,61
太原直送,BWLS014,BWLS014,86,140109121273,太原***炜烟酒行,112.529423,37.851372,1.0,2.0,111.0,15.33,2.3223318115043368,2.335464780816448,0.1225895058355328,太原直送,0.1225895058355328,山西省,太原市,万柏林区,下元街道,山西省太原市万柏林区下元街道后王街,112.52306952886929,37.8507972974454,172_86,112.52384965335112,37.85302824775237,1.0,4225827166.0,112.5238702,37.8508092,140109121273.0,0,0,61
太原直送,BWLS014,BWLS014,99,140109121353,太原***烟酒商行,112.530027,37.854372,1.0,2.0,111.0,67.67,2.3192990955142028,2.3329714859007566,0.1196022524746091,太原直送,0.1196022524746091,山西省,太原市,万柏林区,下元街道,山西省太原市万柏林区下元街道晋祠路外运小区,112.5236751322534,37.85379938753525,172_86,112.52384965335112,37.85302824775237,1.0,7215233331.0,112.5237086,37.8543843,140109121353.0,0,0,61
太原直送,BWLS014,BWLS014,89,140109121446,太原***众小吃店,112.527156,37.849212,1.0,2.0,111.0,62.67,2.325114217361801,2.3385959749441483,0.1247310752378863,太原直送,0.1247310752378863,山西省,太原市,万柏林区,下元街道,山西省太原市万柏林区下元街道后王南街公园路小学南校区,112.52079534806462,37.84863088676568,171_85,112.51805672513396,37.84853164254594,1.0,4225827170.0,112.5207052,37.8485999,140109121446.0,0,0,61
太原直送,BWLS013,BWLS013,8,140109121634,太原***宽便利店,112.528208,37.849197,1.0,2.0,111.0,45.0,2.3247844030156863,2.3378395021523573,0.1247493556736886,太原直送,0.1247493556736886,山西省,太原市,万柏林区,下元街道,山西省太原市万柏林区下元街道后王南街煤气化石油小区,112.52185081826129,37.848618709375465,172_85,112.52384965335112,37.84853164254594,1.0,4225827170.0,112.5207052,37.8485999,140109121634.0,0,0,61
太原直送,BWLS013,BWLS013,10,140109121737,太原***扬扬烟店,112.527194,37.846212,1.0,2.0,111.0,33.33,2.327936882734152,2.3406230210670422,0.1277310383657757,太原直送,0.1277310383657757,山西省,太原市,万柏林区,下元街道,山西省太原市万柏林区下元街道大王路美林湾,112.52083382541556,37.84563050264799,171_84,112.51805672513396,37.84403503733952,1.0,4225827183.0,112.520854,37.8445178,140109121737.0,0,0,61
太原直送,BWLS014,BWLS014,6,140109121777,太原***到便利店,112.530533,37.854161,1.0,2.0,111.0,55.0,2.3193332302021625,2.3327467492689773,0.1198258115933299,太原直送,0.1198258115933299,山西省,太原市,万柏林区,下元街道,山西省太原市万柏林区下元街道滨宇巷中海·寰宇天下,112.52418278577376,37.85358968100582,172_86,112.52384965335112,37.85302824775237,1.0,7215233331.0,112.5237086,37.8543843,140109121777.0,0,0,61
太原直送,BWLS014,BWLS014,5,140109121867,太原***烟酒商行,112.530883,37.849861,1.0,2.0,111.0,88.33,2.32328386100795,2.3354358184769266,0.1241339229380927,太原直送,0.1241339229380927,山西省,太原市,万柏林区,下元街道,山西省太原市万柏林区下元街道晋祠路幸福里,112.52453441095878,37.84928988734924,172_85,112.52384965335112,37.84853164254594,1.0,4225827169.0,112.524098,37.848676,140109121867.0,0,0,61
太原直送,BWLS014,BWLS014,12,140109121900,太原***品经销部,112.530615,37.854203,1.0,2.0,111.0,31.67,2.3192667564883536,2.332658209527706,0.1197860729968222,太原直送,0.1197860729968222,山西省,太原市,万柏林区,下元街道,山西省太原市万柏林区下元街道滨宇巷中海·寰宇天下,112.52426504405916,37.85363190270729,172_86,112.52384965335112,37.85302824775237,1.0,7215233331.0,112.5237086,37.8543843,140109121900.0,0,0,61
太原直送,AWLS008,AWLS008,12,140109121925,太原***烟酒商行,112.526698,37.858293,1.0,1.0,111.0,45.33,2.316685400665569,2.3327235867157503,0.1156515305778478,太原直送,0.1156515305778478,山西省,太原市,万柏林区,千峰街道,山西省太原市万柏林区千峰街道前北屯路迎西大厦,112.52033476364022,37.85771215632572,171_87,112.51805672513396,37.85752485295879,1.0,7512781374.0,112.5203351,37.8576765,140109121925.0,0,0,61
太原直送,AWLS008,AWLS008,4,140109121963,太原***族食品店,112.526636,37.861011,1.0,1.0,111.0,14.0,2.314138879750524,2.330915035233162,0.1129339110852013,太原直送,0.1129339110852013,山西省,太原市,万柏林区,千峰街道,山西省太原市万柏林区千峰街道前北屯路文兴苑,112.52027223870708,37.86043044922085,171_88,112.51805672513396,37.862021458165216,1.0,7215989232.0,112.5201053,37.8625221,140109121963.0,0,0,61
太原直送,BWLS013,BWLS013,55,140109122158,太原***烟酒商行,112.523335,37.848783,1.0,2.0,111.0,47.0,2.3267723837608187,2.341676105270964,0.1252225673111689,太原直送,0.1252225673111689,山西省,太原市,万柏林区,下元街道,山西省太原市万柏林区下元街道美林湾(北门),112.51696154371176,37.84819136007828,171_85,112.51805672513396,37.84853164254594,1.0,7840653442.0,112.5142463,37.8464437,140109122158.0,0,0,61
太原直送,BWLS013,BWLS013,19,140109122270,（金***霖金虎便利店,112.526991,37.853262,1.0,2.0,111.0,33.67,2.3213415931941164,2.335945767531859,0.1206813778716477,太原直送,0.1206813778716477,山西省,太原市,万柏林区,下元街道,山西省太原市万柏林区下元街道晋祠路西一巷新兴小区,112.52062932652848,37.85268110733337,171_86,112.51805672513396,37.85302824775237,1.0,7686153763.0,112.5205555,37.852669,140109122270.0,0,0,61
太原直送,BWLS014,BWLS014,29,140109122335,太原***鑫烟酒店,112.52314,37.856707,1.0,2.0,111.0,50.33,2.319354158278765,2.3364070455714687,0.117309535439365,太原直送,0.117309535439365,山西省,太原市,万柏林区,千峰街道,山西省太原市万柏林区千峰街道新矿院路山西省农行宿舍,112.5167649474234,37.85611612886717,171_87,112.51805672513396,37.85752485295879,1.0,7012151143.0,112.5166329,37.8570576,140109122335.0,0,0,61
太原直送,AWLS008,AWLS008,2,140109122358,太原***巍便利店,112.529341,37.861182,1.0,1.0,111.0,55.67,2.313088893344351,2.328820177310817,0.1127795966697867,太原直送,0.1127795966697867,山西省,太原市,万柏林区,千峰街道,山西省太原市万柏林区千峰街道文兴路半导体宿舍,112.52298611368644,37.860608723442034,172_88,112.52384965335112,37.862021458165216,1.0,4209263835.0,112.5230248,37.8598417,140109122358.0,0,0,61
太原直送,BWLS014,BWLS014,17,140109122424,太原***宜便利店,112.532553,37.851459,3.0,2.0,111.0,20.0,2.321229156898563,2.3331245157541467,0.1225968917061111,太原直送,0.1225968917061111,山西省,太原市,万柏林区,下元街道,山西省太原市万柏林区下元街道滨河西路辅路幸福里,112.52620952269037,37.85089247539577,172_86,112.52384965335112,37.85302824775237,1.0,4244971203.0,112.526296,37.8508914,140109122424.0,0,0,61
太原直送,BWLS014,BWLS014,33,140109122425,太原***烟酒商行,112.531298,37.854193,1.0,2.0,111.0,59.0,2.3190532839193185,2.3321669719854885,0.1198169542468809,太原直送,0.1198169542468809,山西省,太原市,万柏林区,下元街道,山西省太原市万柏林区下元街道滨宇巷中海·寰宇天下,112.52495022921214,37.85362368314856,172_86,112.52384965335112,37.85302824775237,1.0,7215233333.0,112.5260863,37.8544862,140109122425.0,0,0,61
太原直送,BWLS014,BWLS014,11,140109122455,太原***副食商店,112.530033,37.852181,1.0,2.0,111.0,65.67,2.3213679681601502,2.3344663147248403,0.1217928250924463,太原直送,0.1217928250924463,山西省,太原市,万柏林区,下元街道,山西省太原市万柏林区下元街道晋祠路山西省棉麻公司-综合办公楼,112.5236814081288,37.85160804034212,172_86,112.52384965335112,37.85302824775237,1.0,4225827166.0,112.5238702,37.8508092,140109122455.0,0,0,61
太原直送,BWLS013,BWLS013,23,140109122499,太原***副食商店,112.530398,37.849728,1.0,2.0,111.0,42.0,2.323567673376868,2.335880209207009,0.1242538017527025,太原直送,0.1242538017527025,山西省,太原市,万柏林区,下元街道,山西省太原市万柏林区下元街道晋祠路幸福里,112.52404787089372,37.84915559639301,172_85,112.52384965335112,37.84853164254594,1.0,4225827169.0,112.524098,37.848676,140109122499.0,0,0,61
太原直送,BWLS014,BWLS014,32,140109122554,太原***红便利店,112.528777,37.84544,1.0,2.0,111.0,19.33,2.328149870542052,2.3399997148739065,0.1285115686037592,太原直送,0.1285115686037592,山西省,太原市,万柏林区,下元街道,山西省太原市万柏林区下元街道大王路35号山西中医药大学宿舍,112.52242212069773,37.844862618647085,172_84,112.52384965335112,37.84403503733952,1.0,4225827183.0,112.520854,37.8445178,140109122554.0,0,0,61
太原直送,BWLS013,BWLS013,22,140109122595,太原***烟酒商行,112.525064,37.849053,1.0,2.0,111.0,63.67,2.325949742716081,2.340230155006126,0.1249098896845248,太原直送,0.1249098896845248,山西省,太原市,万柏林区,下元街道,山西省太原市万柏林区下元街道高先生酒店(太原理工大学地铁站店)后王小区,112.51869637689008,37.84846617238441,171_85,112.51805672513396,37.84853164254594,1.0,4225827170.0,112.5207052,37.8485999,140109122595.0,0,0,61
太原直送,BWLS014,BWLS014,30,140109122599,（金***超金虎便利店,112.528777,37.84544,1.0,2.0,111.0,34.0,2.328149870542052,2.3399997148739065,0.1285115686037592,太原直送,0.1285115686037592,山西省,太原市,万柏林区,下元街道,山西省太原市万柏林区下元街道大王路35号山西中医药大学宿舍,112.52242212069773,37.844862618647085,172_84,112.52384965335112,37.84403503733952,1.0,4225827183.0,112.520854,37.8445178,140109122599.0,0,0,61
太原直送,AWLS008,AWLS008,20,140109122655,太原***烟酒商行,112.526627,37.860282,1.0,1.0,111.0,65.33,2.314830277150573,2.331418682481974,0.1136629512066271,太原直送,0.1136629512066271,山西省,太原市,万柏林区,千峰街道,山西省太原市万柏林区千峰街道前北屯路文兴苑,112.52026329424342,37.85970130083694,171_87,112.51805672513396,37.85752485295879,1.0,7512781374.0,112.5203351,37.8576765,140109122655.0,0,0,61
太原直送,BWLS014,BWLS014,78,140109213334,山西***责任公司,112.531254,37.854194,1.0,2.0,111.0,24.67,2.319066694394534,2.332198371951447,0.1198144921201093,太原直送,0.1198144921201093,,,,,,112.52490608884877,37.85362456885314,172_86,112.52384965335112,37.85302824775237,1.0,7215233331.0,112.5237086,37.8543843,140109213334.0,0,0,61
太原直送,BWLS014,BWLS014,79,140109219390,（唐***工大便利店,112.528618,37.855548,1.0,2.0,111.0,64.67,2.3186487108404346,2.333195639779274,0.1184024140378898,太原直送,0.1184024140378898,山西省,太原市,万柏林区,千峰街道,山西省太原市万柏林区千峰街道虎峪河北沿岸山西焦煤商务酒店,112.52226141736472,37.85497185231356,172_86,112.52384965335112,37.85302824775237,1.0,1920321489.0,112.5234313,37.8550388,140109219390.0,0,0,61
太原直送,BWLS014,BWLS014,105,140109220145,太原***有限公司,112.530422,37.848961,1.0,2.0,111.0,40.0,2.324284960522909,2.3363883018650773,0.1250211620686631,太原直送,0.1250211620686631,山西省,太原市,万柏林区,下元街道,山西省太原市万柏林区下元街道山西省粮油科学研究所山西省粮食局河西高层住宅小区,112.5240720378174,37.84838853413998,172_85,112.52384965335112,37.84853164254594,1.0,4225827169.0,112.524098,37.848676,140109220145.0,0,0,61
太原直送,AWLS008,AWLS008,83,140109220210,太原***有限公司,112.526738,37.860548,1.0,1.0,111.0,49.0,2.314542568811816,2.331156105447468,0.1133963581866689,太原直送,0.1133963581866689,山西省,太原市,万柏林区,千峰街道,山西省太原市万柏林区千峰街道前北屯路文兴苑,112.52037463223763,37.85996764654369,171_88,112.51805672513396,37.862021458165216,1.0,7512781374.0,112.5203351,37.8576765,140109220210.0,0,0,61
太原直送,AWLS008,AWLS008,78,140109220475,（石***滨河加油站,112.532626,37.860173,1.0,1.0,111.0,59.0,2.3129673393857058,2.32710895400194,0.113894924333786,太原直送,0.113894924333786,山西省,太原市,万柏林区,千峰街道,山西省太原市万柏林区千峰街道滨河西路辅路中国石化滨河加油站(滨河西路辅路),112.52628173285376,37.85960811992128,172_87,112.52384965335112,37.85752485295879,1.0,1920321555.0,112.5261782,37.859737,140109220475.0,0,0,61
太原直送,BWLS014,BWLS014,61,140109220770,山西***有限公司,112.531344,37.846554,1.0,2.0,111.0,29.0,2.3262606563431363,2.3373676477852143,0.1274533950979739,太原直送,0.1274533950979739,山西省,太原市,万柏林区,下元街道,山西省太原市万柏林区下元街道陶然居(幸福里店)幸福里,112.52499726957834,37.84598355103746,172_84,112.52384965335112,37.84403503733952,1.0,7012151092.0,112.524992,37.8445804,140109220770.0,0,0,61
太原直送,BWLS014,BWLS014,101,140109220840,山西***有限公司,112.529398,37.853299,1.0,2.0,111.0,41.33,2.32051874364785,2.334164291288853,0.1206623626529817,太原直送,0.1206623626529817,山西省,太原市,万柏林区,下元街道,山西省太原市万柏林区下元街道未知里泛娱酒店(太原理工大学中海寰宇天下店)我的家商业广场,112.52304422207618,37.85272454942055,172_86,112.52384965335112,37.85302824775237,1.0,7686153765.0,112.5237052,37.852724,140109220840.0,0,0,61
太原直送,BWLS013,BWLS013,45,140109221148,山西***有限公司,112.526978,37.852613,1.0,2.0,111.0,48.33,2.321959005765822,2.336398964427951,0.1213304089047757,太原直送,0.1213304089047757,山西省,太原市,万柏林区,下元街道,山西省太原市万柏林区下元街道大王路新兴小区,112.52061635947211,37.85203196483717,171_86,112.51805672513396,37.85302824775237,1.0,7686153763.0,112.5205555,37.852669,140109221148.0,0,0,61
太原直送,BWLS014,BWLS014,63,140109221434,山西***有限公司,112.530921,37.84907,1.0,2.0,111.0,62.33,2.3240193277993613,2.335950224322852,0.1249256919652649,太原直送,0.1249256919652649,山西省,太原市,万柏林区,下元街道,山西省太原市万柏林区下元街道晋祠路幸福里,112.5245726250909,37.84849885738127,172_85,112.52384965335112,37.84853164254594,1.0,4225827169.0,112.524098,37.848676,140109221434.0,0,0,61
太原直送,BWLS014,BWLS014,7,140109221685,太原***有限公司,112.530663,37.854174,1.0,2.0,111.0,80.0,2.3192784945195752,2.332643043574816,0.1198164023036894,太原直送,0.1198164023036894,山西省,太原市,万柏林区,下元街道,山西省太原市万柏林区下元街道滨宇巷中海·寰宇天下,112.52431320142466,37.85360302350096,172_86,112.52384965335112,37.85302824775237,1.0,7215233331.0,112.5237086,37.8543843,140109221685.0,0,0,61
太原直送,BWLS013,BWLS013,7,140109221797,(石***捷商品选购中心,112.52682,37.856162,1.0,2.0,111.0,38.0,2.3186581379949063,2.334089172195655,0.1177819497631117,太原直送,0.1177819497631117,山西省,太原市,万柏林区,千峰街道,山西省太原市万柏林区千峰街道大王路煤博东院,112.52045741896576,37.85558112822941,171_87,112.51805672513396,37.85752485295879,1.0,7543087902.0,112.5204457,37.8558201,140109221797.0,0,0,61
太原直送,BWLS014,BWLS014,13,140109222414,(唐***凯天唐久便利店,112.530895,37.849865,1.0,2.0,111.0,61.0,2.32327616921708,2.3354243375337567,0.1241302722465367,太原直送,0.1241302722465367,山西省,太原市,万柏林区,下元街道,山西省太原市万柏林区下元街道大西集鲜肉活鳗碳烤幸福里,112.52454644888608,37.849293919334194,172_85,112.52384965335112,37.84853164254594,1.0,4225827169.0,112.524098,37.848676,140109222414.0,0,0,61
太原直送,BWLS014,BWLS014,1,140109222631,太原***有限公司,112.531632,37.848572,1.0,2.0,111.0,75.0,2.324258729672324,2.335773984948243,0.1254460623614799,太原直送,0.1254460623614799,山西省,太原市,万柏林区,下元街道,山西省太原市万柏林区下元街道艾视伦视光中心幸福里,112.52528594942645,37.84800262584252,172_85,112.52384965335112,37.84853164254594,1.0,4244971246.0,112.5261782,37.848499,140109222631.0,0,0,61
太原直送,AWLS008,AWLS008,18,140109122663,太原***旺便利店,112.526645,37.859484,1.0,1.0,111.0,55.67,2.3155779852816414,2.331949769992909,0.1144608342840432,太原直送,0.1144608342840432,山西省,太原市,万柏林区,千峰街道,山西省太原市万柏林区千峰街道前北屯路3号文兴苑,112.52028144770512,37.85890321419561,171_87,112.51805672513396,37.85752485295879,1.0,7512781374.0,112.5203351,37.8576765,140109122663.0,0,0,61
太原直送,AWLS008,AWLS008,17,140109122711,（金***畅金虎便利店,112.526638,37.860609,1.0,1.0,111.0,36.67,2.3145178510957747,2.331187658561186,0.1133358927304162,太原直送,0.1133358927304162,山西省,太原市,万柏林区,千峰街道,山西省太原市万柏林区千峰街道前北屯路文兴苑,112.52027429250076,37.86002838621445,171_88,112.51805672513396,37.862021458165216,1.0,7512781374.0,112.5203351,37.8576765,140109122711.0,0,0,61
太原直送,BWLS013,BWLS013,20,140109122735,太原***烟酒商行,112.52793,37.85135,1.0,2.0,111.0,60.0,2.3228406511084683,2.336568390243481,0.1225946549324254,太原直送,0.1225946549324254,山西省,太原市,万柏林区,下元街道,山西省太原市万柏林区下元街道后王街蓝水园温泉度假酒店,112.52157165259088,37.85077131789599,172_85,112.52384965335112,37.84853164254594,1.0,4225827167.0,112.5206273,37.8507367,140109122735.0,0,0,61
太原直送,BWLS013,BWLS013,24,140109122794,太原***元烟酒店,112.525628,37.848817,1.0,2.0,111.0,57.0,2.3259877931719704,2.339980337503717,0.1251370772433191,太原直送,0.1251370772433191,山西省,太原市,万柏林区,下元街道,山西省太原市万柏林区下元街道千峰南路205号后王小区,112.51926230077795,37.84823167649265,171_85,112.51805672513396,37.84853164254594,1.0,4225827170.0,112.5207052,37.8485999,140109122794.0,0,0,61
太原直送,BWLS014,BWLS014,28,140109122857,（唐***浩唐久便利店,112.530855,37.845827,1.0,2.0,111.0,55.67,2.3271071809007835,2.338222191867356,0.1281655074503263,太原直送,0.1281655074503263,山西省,太原市,万柏林区,下元街道,山西省太原市万柏林区下元街道晋祠路太原晋祠路理工大学亚朵酒店,112.52450679338617,37.84525515961976,172_84,112.52384965335112,37.84403503733952,1.0,1920321492.0,112.5245273,37.8445734,140109122857.0,0,0,61
太原直送,BWLS013,BWLS013,21,140109122872,太原***工商户）,112.529632,37.849233,1.0,2.0,111.0,24.0,2.324285422701996,2.3367773220296315,0.1247319326435701,太原直送,0.1247319326435701,山西省,太原市,万柏林区,下元街道,山西省太原市万柏林区下元街道后王南街山西省粮食局河西高层住宅小区,112.52327945691565,37.84865849950125,172_85,112.52384965335112,37.84853164254594,1.0,4225827169.0,112.524098,37.848676,140109122872.0,0,0,61
太原直送,BWLS014,BWLS014,3,140109122876,太原***烟酒商行,112.531694,37.854212,1.0,2.0,111.0,7.33,2.3189061544172085,2.3318652273982297,0.1198118573514341,太原直送,0.1198118573514341,山西省,太原市,万柏林区,下元街道,山西省太原市万柏林区下元街道滨宇巷中海·寰宇天下,112.52534748639324,37.8536437143054,172_86,112.52384965335112,37.85302824775237,1.0,7215233333.0,112.5260863,37.8544862,140109122876.0,0,0,61
太原直送,BWLS014,BWLS014,27,140109122905,太原***沐知商行,112.530558,37.847822,1.0,2.0,111.0,26.0,2.325317506692364,2.3370700238437427,0.1261632548169212,太原直送,0.1261632548169212,山西省,太原市,万柏林区,下元街道,山西省太原市万柏林区下元街道太原市行政执法总队幸福里,112.52420860797352,37.84724970531023,172_85,112.52384965335112,37.84853164254594,1.0,4225827169.0,112.524098,37.848676,140109122905.0,0,0,61
太原直送,BWLS013,BWLS013,18,140109122907,太原***体工商户),112.527069,37.851357,1.0,2.0,111.0,26.33,2.3231158786560773,2.337191561607435,0.1225862046561503,太原直送,0.1225862046561503,山西省,太原市,万柏林区,下元街道,山西省太原市万柏林区下元街道后王街尚优连锁酒店(太原理工大学店),112.52070780843178,37.85077600343652,171_85,112.51805672513396,37.84853164254594,1.0,4225827167.0,112.5206273,37.8507367,140109122907.0,0,0,61
太原直送,AWLS008,AWLS008,10,140109222964,太原***有限公司,112.526629,37.861215,1.0,1.0,111.0,34.33,2.3139485379662164,2.330781082189614,0.1127299555575151,太原直送,0.1127299555575151,山西省,太原市,万柏林区,千峰街道,山西省太原市万柏林区千峰街道前北屯路文兴苑,112.52026519149344,37.86063446502156,171_88,112.51805672513396,37.862021458165216,1.0,7215989232.0,112.5201053,37.8625221,140109222964.0,0,0,61
太原直送,BWLS013,BWLS013,52,140109223052,太原***有限公司,112.527074,37.847299,1.0,2.0,111.0,37.33,2.3269488175989173,2.339965707750436,0.1266441893534785,太原直送,0.1266441893534785,山西省,太原市,万柏林区,下元街道,山西省太原市万柏林区下元街道大王路美林湾,112.52071330053624,37.8467173546001,171_85,112.51805672513396,37.84853164254594,1.0,4225827170.0,112.5207052,37.8485999,140109223052.0,0,0,61
太原直送,BWLS014,BWLS014,48,140109223086,山西***有限公司,112.528122,37.853807,1.0,2.0,111.0,38.0,2.3204561420403933,2.334747772547604,0.1201388602284823,太原直送,0.1201388602284823,山西省,太原市,万柏林区,下元街道,山西省太原市万柏林区下元街道晋祠路西一巷5号外运小区,112.521763995869,37.85322923803373,172_86,112.52384965335112,37.85302824775237,1.0,7686153763.0,112.5205555,37.852669,140109223086.0,0,0,61
太原直送,BWLS013,BWLS013,47,140109123107,(唐***利店(个体工商户),112.528884,37.849563,1.0,2.0,111.0,37.33,2.324217649107108,2.337096249952056,0.1243901751787446,太原直送,0.1243901751787446,山西省,太原市,万柏林区,下元街道,山西省太原市万柏林区下元街道后王街东一巷纺织服装宿舍,112.52252898705646,37.848986571391215,172_85,112.52384965335112,37.84853164254594,1.0,4225827169.0,112.524098,37.848676,140109123107.0,0,0,61
太原直送,BWLS014,BWLS014,108,140109123163,太原***烟酒商行,112.529089,37.849232,1.0,2.0,111.0,90.0,2.3244635734054846,2.3371735892727337,0.1247239316931576,太原直送,0.1247239316931576,山西省,太原市,万柏林区,下元街道,山西省太原市万柏林区下元街道后王南街煤气化石油小区,112.5227346938144,37.848656061834255,172_85,112.52384965335112,37.84853164254594,1.0,4225827169.0,112.524098,37.848676,140109123163.0,0,0,61
