station_name,line_code,line_name,deliver_no,customer_code,customer_name,longitude,latitude,order_cycle_type,order_weekday,city_village_code,avg_order_qty,distance_to_平城直送,distance_to_灵丘中转站,distance_to_太原直送,nearest_station,distance_to_station,province,city,district,township,full_address,lon_84,lat_84,grid_id,LonGridCenter,LatGridCenter,group,customer_osmid_mapping,OSM_X,OSM_Y,BB_RETAIL_CUSTOMER_CODE,kmeans_cluster,dbscan_label,kmeans_label
太原直送,CWLS054,CWLS054,56,140107100056,太原***俊达商行,112.550093,37.893136,1.0,3.0,111.0,42.33,2.276114819868496,2.291865217042657,0.0839619631083038,太原直送,0.0839619631083038,山西省,太原市,杏花岭区,巨轮街道,山西省太原市杏花岭区巨轮街道胜利街新建SOHO,112.5437939928042,37.89261738566014,175_95,112.5412284380026,37.893497694610176,4.0,1881697249.0,112.5439786,37.8926489,140107100056.0,0,0,18
太原直送,CWLS030,CWLS030,81,140107100283,（唐***便利店 唐久094,112.554481,37.888976,1.0,3.0,111.0,55.33,2.2786344358657016,2.291479359266849,0.0892108649941225,太原直送,0.0892108649941225,山西省,太原市,杏花岭区,巨轮街道,山西省太原市杏花岭区巨轮街道沙河堡一条北大街149号院,112.54819273149262,37.888465140193816,176_94,112.54702136621977,37.88900108940375,4.0,11235260671.0,112.5481232,37.8887954,140107100283.0,0,0,18
太原直送,CWLS054,CWLS054,41,140107101636,太原***海便利店,112.550786,37.89663,1.0,3.0,111.0,95.67,2.272584893043599,2.288983963934431,0.0808035953284231,太原直送,0.0808035953284231,山西省,太原市,杏花岭区,巨轮街道,山西省太原市杏花岭区巨轮街道程家村东巷南渣线小区,112.5444882661245,37.896113436984834,176_96,112.54702136621977,37.8979942998166,4.0,4225321458.0,112.5443676,37.8988347,140107101636.0,0,0,18
太原直送,CWLS054,CWLS054,26,140107102335,太原***用百货店,112.555959,37.894041,1.0,3.0,111.0,65.0,2.2733632638370813,2.286948305516542,0.0848885690773474,太原直送,0.0848885690773474,山西省,太原市,杏花岭区,巨轮街道,山西省太原市杏花岭区巨轮街道华苑西巷太矿西苑小区,112.5496733854274,37.89353379432296,176_95,112.54702136621977,37.893497694610176,4.0,10212278557.0,112.5497407,37.8936231,140107102335.0,0,0,18
太原直送,CWLS054,CWLS054,28,140107103089,太原***货便利店,112.555875,37.893279,1.0,3.0,111.0,97.33,2.274111739131566,2.2875284007340744,0.0855781024561762,太原直送,0.0855781024561762,山西省,太原市,杏花岭区,巨轮街道,山西省太原市杏花岭区巨轮街道胜利街棕榈佳园,112.54958929266384,37.89277149971543,176_95,112.54702136621977,37.893497694610176,4.0,11054537453.0,112.5495732,37.8927828,140107103089.0,0,0,18
太原直送,CWLS054,CWLS054,54,140107103263,太原***宏盛商店,112.551017,37.894209,1.0,3.0,111.0,33.33,2.274800298765588,2.2904582334251367,0.0831885745279986,太原直送,0.0831885745279986,山西省,太原市,杏花岭区,巨轮街道,山西省太原市杏花岭区巨轮街道程家村东巷,112.5447201033554,37.89369244196973,176_95,112.54702136621977,37.893497694610176,4.0,1993811303.0,112.5447201,37.892768,140107103263.0,0,0,18
太原直送,CWLS054,CWLS054,45,140107104632,太原***吉庆商店,112.550828,37.896238,1.0,3.0,111.0,23.67,2.272942083046116,2.28921918577165,0.081190906202604,太原直送,0.081190906202604,山西省,太原市,杏花岭区,巨轮街道,山西省太原市杏花岭区巨轮街道程家村东巷南渣线小区,112.54453041292568,37.89572144692637,176_95,112.54702136621977,37.893497694610176,4.0,1881697423.0,112.5440557,37.8929095,140107104632.0,0,0,18
太原直送,CWLS054,CWLS054,69,140107104745,太原***开元商店,112.542474,37.890779,1.0,3.0,111.0,87.67,2.2808233960841835,2.2990599143493395,0.0845382378394496,太原直送,0.0845382378394496,山西省,太原市,杏花岭区,巨轮街道,山西省太原市杏花岭区巨轮街道胜利桥东路西二道巷美特好超市(滨河店-1102),112.53615536774932,37.890243513924695,174_94,112.53543550978544,37.88900108940375,4.0,2010729144.0,112.5363377,37.8902586,140107104745.0,0,0,18
太原直送,BWLS024,BWLS024,224,140107104748,太原***胜钢商店,112.546275,37.890088,1.0,2.0,111.0,67.33,2.2802373758179235,2.2967376022528168,0.0859766093132297,太原直送,0.0859766093132297,山西省,太原市,杏花岭区,三桥街道,山西省太原市杏花岭区三桥街道胜利桥小区,112.53996669529846,37.88956082987761,175_94,112.5412284380026,37.88900108940375,4.0,7217344726.0,112.5388683,37.8901194,140107104748.0,0,0,18
太原直送,CWLS054,CWLS054,59,140107104753,太原***路发烟店,112.547089,37.893411,1.0,3.0,111.0,32.67,2.2768303195987167,2.2938838406608544,0.082929395512084,太原直送,0.082929395512084,山西省,太原市,杏花岭区,巨轮街道,山西省太原市杏花岭区巨轮街道胜利街云泮·沐希酒店(太原胜利街滨河东路店),112.5407824208178,37.89288619546208,175_95,112.5412284380026,37.893497694610176,4.0,2015290526.0,112.5412042,37.8927191,140107104753.0,0,0,18
太原直送,CWLS030,CWLS030,59,140107104776,太原***区便利店,112.553025,37.88956,1.0,3.0,111.0,14.67,2.2785506981362023,2.2921477380679383,0.0882191958306098,太原直送,0.0882191958306098,山西省,太原市,杏花岭区,巨轮街道,山西省太原市杏花岭区巨轮街道沙河堡二条太原市果品茶叶副食总公司果菜农产品综合市场,112.54673336358935,37.88904649774235,176_94,112.54702136621977,37.88900108940375,4.0,11235260666.0,112.5466947,37.8890393,140107104776.0,0,0,18
太原直送,CWLS053,CWLS053,47,140107106907,太原***盛誉商店,112.550145,37.893748,1.0,3.0,111.0,43.33,2.275519014400228,2.2914113283480955,0.0833873607269076,太原直送,0.0833873607269076,山西省,太原市,杏花岭区,巨轮街道,山西省太原市杏花岭区巨轮街道新建路太原市食品三厂,112.54384604836017,37.89322960556596,175_95,112.5412284380026,37.893497694610176,4.0,1881697423.0,112.5440557,37.8929095,140107106907.0,0,0,18
太原直送,CWLS054,CWLS054,73,140107108060,（唐***源唐久便利店,112.544952,37.892768,1.0,3.0,111.0,35.67,2.278134374309386,2.295889976444216,0.0830735872946395,太原直送,0.0830735872946395,山西省,太原市,杏花岭区,巨轮街道,山西省太原市杏花岭区巨轮街道胜利桥东路山西省统计局胜利桥东小区,112.53863988616894,37.89223844457289,175_95,112.5412284380026,37.893497694610176,4.0,1958797096.0,112.5386,37.8926241,140107108060.0,0,0,18
太原直送,CWLS053,CWLS053,79,140107108498,太原***联便利店,112.554984,37.895613,1.0,3.0,111.0,64.33,2.272189340112527,2.286593896222061,0.0830805656035177,太原直送,0.0830805656035177,山西省,太原市,杏花岭区,巨轮街道,山西省太原市杏花岭区巨轮街道西苑社区卫生服务站太矿西苑小区北区,112.54869607500306,37.89510431183884,176_95,112.54702136621977,37.893497694610176,4.0,10212278598.0,112.5498041,37.8949642,140107108498.0,0,0,18
太原直送,CWLS054,CWLS054,55,140107108678,（唐***来唐久便利店,112.551167,37.893304,1.0,3.0,111.0,43.67,2.275607950985622,2.290963057879801,0.0840988477745085,太原直送,0.0840988477745085,山西省,太原市,杏花岭区,巨轮街道,山西省太原市杏花岭区巨轮街道胜利街,112.54487056792206,37.89278757047471,176_95,112.54702136621977,37.893497694610176,4.0,1993811303.0,112.5447201,37.892768,140107108678.0,0,0,18
太原直送,CWLS053,CWLS053,80,140107108712,太原***商店二部,112.554478,37.895569,1.0,3.0,111.0,87.0,2.2723942528005527,2.2869949097074915,0.0829548558012105,太原直送,0.0829548558012105,山西省,太原市,杏花岭区,巨轮街道,山西省太原市杏花岭区巨轮街道胜利街289号太矿西苑小区北区,112.54818895744914,37.89505936639087,176_95,112.54702136621977,37.893497694610176,4.0,10212278598.0,112.5498041,37.8949642,140107108712.0,0,0,18
太原直送,CWLS054,CWLS054,72,140107108764,太原***利小卖部,112.54481,37.891339,1.0,3.0,111.0,17.33,2.27953157993062,2.296963842371053,0.0844409030328272,太原直送,0.0844409030328272,山西省,太原市,杏花岭区,巨轮街道,山西省太原市杏花岭区巨轮街道胜利桥东路胜利桥东小学,112.53849767313103,37.89080886457267,175_94,112.5412284380026,37.88900108940375,4.0,11280918646.0,112.5385214,37.8906469,140107108764.0,0,0,18
太原直送,CWLS054,CWLS054,47,140107108780,太原***斌便利店,112.550828,37.896238,1.0,3.0,111.0,41.67,2.272942083046116,2.28921918577165,0.081190906202604,太原直送,0.081190906202604,山西省,太原市,杏花岭区,巨轮街道,山西省太原市杏花岭区巨轮街道程家村东巷南渣线小区,112.54453041292568,37.89572144692637,176_95,112.54702136621977,37.893497694610176,4.0,1881697423.0,112.5440557,37.8929095,140107108780.0,0,0,18
太原直送,CWLS030,CWLS030,96,140107108803,（唐***航唐久便利店,112.553025,37.88956,1.0,3.0,111.0,29.0,2.2785506981362023,2.2921477380679383,0.0882191958306098,太原直送,0.0882191958306098,山西省,太原市,杏花岭区,巨轮街道,山西省太原市杏花岭区巨轮街道沙河堡二条太原市果品茶叶副食总公司果菜农产品综合市场,112.54673336358935,37.88904649774235,176_94,112.54702136621977,37.88900108940375,4.0,11235260666.0,112.5466947,37.8890393,140107108803.0,0,0,18
太原直送,CWLS054,CWLS054,57,140107109109,太原***国富商店,112.549301,37.8933,1.0,3.0,111.0,60.0,2.27621654814848,2.2923350704454144,0.083592137865945,太原直送,0.083592137865945,山西省,太原市,杏花岭区,巨轮街道,山西省太原市杏花岭区巨轮街道胜利街太原市食品三厂,112.543000025856,37.892779801763695,175_95,112.5412284380026,37.893497694610176,4.0,11262691379.0,112.5439684,37.8928464,140107109109.0,0,0,18
太原直送,CWLS030,CWLS030,88,140107109356,（唐***青唐久便利店,112.552841,37.889546,1.0,3.0,111.0,32.67,2.278623300467408,2.292292040841651,0.0881791013392589,太原直送,0.0881791013392589,山西省,太原市,杏花岭区,巨轮街道,山西省太原市杏花岭区巨轮街道沙河堡太原市果品茶叶副食总公司果菜农产品综合市场,112.54654894086684,37.88903214184479,176_94,112.54702136621977,37.88900108940375,4.0,11235260666.0,112.5466947,37.8890393,140107109356.0,0,0,18
太原直送,CWLS054,CWLS054,63,140107109626,太原***腾飞商店,112.54206,37.893311,1.0,3.0,111.0,91.33,2.2785660754617143,2.297647777213031,0.081973066997645,太原直送,0.081973066997645,山西省,太原市,杏花岭区,巨轮街道,山西省太原市杏花岭区巨轮街道胜利街太钢胜西小区,112.5357399191836,37.89277503861507,174_95,112.53543550978544,37.893497694610176,4.0,5765529095.0,112.5356202,37.892731,140107109626.0,0,0,18
太原直送,CWLS030,CWLS030,84,140107109885,太原***烟酒商行,112.554533,37.888499,1.0,3.0,111.0,35.33,2.279069323183473,2.291766301936775,0.0896810723397058,太原直送,0.0896810723397058,山西省,太原市,杏花岭区,巨轮街道,山西省太原市杏花岭区巨轮街道沙河堡一条北大街149号院,112.54824490293824,37.8879881486317,176_94,112.54702136621977,37.88900108940375,4.0,7843357443.0,112.5481915,37.8877337,140107109885.0,0,0,18
太原直送,CWLS054,CWLS054,48,140107110622,太原***清昌商店,112.552725,37.896304,1.0,3.0,111.0,97.0,2.272265172879477,2.2877816925331858,0.0816982309783963,太原直送,0.0816982309783963,山西省,太原市,杏花岭区,巨轮街道,山西省太原市杏花岭区巨轮街道程东里,112.54643188557311,37.895791183155495,176_96,112.54702136621977,37.8979942998166,4.0,10212278598.0,112.5498041,37.8949642,140107110622.0,0,0,18
太原直送,BWLS024,BWLS024,160,140107111024,（唐***宇洋唐久超市,112.550383,37.8879,1.0,2.0,111.0,54.0,2.280974942053725,2.295213095383084,0.0890872939817976,太原直送,0.0890872939817976,山西省,太原市,杏花岭区,三桥街道,山西省太原市杏花岭区三桥街道新建路柳溪花园,112.54408530875736,37.887380997295246,175_94,112.5412284380026,37.88900108940375,4.0,2004160247.0,112.5441645,37.8875045,140107111024.0,0,0,18
太原直送,CWLS054,CWLS054,49,140107111496,太原***鑫便利店,112.552816,37.896687,1.0,3.0,111.0,87.33,2.2718733311725336,2.2874547834000936,0.0813628481863811,太原直送,0.0813628481863811,山西省,太原市,杏花岭区,巨轮街道,山西省太原市杏花岭区巨轮街道矿机宿舍西区童之梦幼儿园,112.54652305157072,37.896174430746406,176_96,112.54702136621977,37.8979942998166,4.0,10212278569.0,112.5498666,37.8968087,140107111496.0,0,0,18
太原直送,CWLS054,CWLS054,60,140107111719,太原***春便利店,112.547281,37.89337,1.0,3.0,111.0,54.33,2.276806625259381,2.293770652509533,0.0830152303676867,太原直送,0.0830152303676867,山西省,太原市,杏花岭区,巨轮街道,山西省太原市杏花岭区巨轮街道胜利街云泮·沐希酒店(太原胜利街滨河东路店),112.54097491973742,37.89284559617809,175_95,112.5412284380026,37.893497694610176,4.0,2015290526.0,112.5412042,37.8927191,140107111719.0,0,0,18
太原直送,CWLS054,CWLS054,62,140107111827,太原***类经销部,112.543375,37.893197,1.0,3.0,111.0,67.33,2.278243712217812,2.296758104503171,0.0823319332944365,太原直送,0.0823319332944365,山西省,太原市,杏花岭区,巨轮街道,山西省太原市杏花岭区巨轮街道胜利街太钢胜西小区,112.5370585698642,37.89266400994822,174_95,112.53543550978544,37.893497694610176,4.0,2010729095.0,112.5363305,37.892632,140107111827.0,0,0,18
太原直送,CWLS053,CWLS053,77,140107112501,太原***生便利店,112.556109,37.898421,1.0,3.0,111.0,60.67,2.2691685554810577,2.283860237174109,0.0808327553656329,太原直送,0.0808327553656329,山西省,太原市,杏花岭区,巨轮街道,山西省太原市杏花岭区巨轮街道华苑西巷太矿育才苑,112.54982319885973,37.897914890981845,176_96,112.54702136621977,37.8979942998166,4.0,10212278567.0,112.5498678,37.8968468,140107112501.0,0,0,18
太原直送,CWLS054,CWLS054,64,140107112575,太原***汾源商行,112.548993,37.893119,1.0,3.0,111.0,64.67,2.276487708720609,2.2926840698214423,0.0836863727018908,太原直送,0.0836863727018908,山西省,太原市,杏花岭区,巨轮街道,山西省太原市杏花岭区巨轮街道胜利街阳光尚都小区,112.54269128164565,37.89259813390901,175_95,112.5412284380026,37.893497694610176,4.0,1881697249.0,112.5439786,37.8926489,140107112575.0,0,0,18
太原直送,CWLS054,CWLS054,61,140107112684,太原***思清茶园,112.545013,37.89318,1.0,3.0,111.0,68.67,2.2777250074091464,2.295565699477581,0.0826841010654375,太原直送,0.0826841010654375,山西省,太原市,杏花岭区,巨轮街道,山西省太原市杏花岭区巨轮街道胜利街山西省统计局胜利桥东小区,112.53870100097691,37.89265065600218,175_95,112.5412284380026,37.893497694610176,4.0,1958797096.0,112.5386,37.8926241,140107112684.0,0,0,18
太原直送,CWLS030,CWLS030,92,140107113021,太原***晋唐商店,112.552837,37.889551,1.0,3.0,111.0,66.67,2.2786198581571284,2.2922915667333883,0.0881731569129744,太原直送,0.0881731569129744,山西省,太原市,杏花岭区,巨轮街道,山西省太原市杏花岭区巨轮街道新建路438号院太原市果品茶叶副食总公司果菜农产品综合市场,112.54654493104152,37.889037135078006,176_94,112.54702136621977,37.88900108940375,4.0,11235260666.0,112.5466947,37.8890393,140107113021.0,0,0,18
太原直送,CWLS053,CWLS053,50,140107113432,（唐***韩鹏唐久便利店,112.555147,37.892963,1.0,3.0,111.0,54.33,2.274645337990074,2.2882768638687434,0.0856364742151365,太原直送,0.0856364742151365,山西省,太原市,杏花岭区,巨轮街道,山西省太原市杏花岭区巨轮街道六味斋(胜利西店)胜利街煤气化小区,112.5488597423698,37.89245411402911,176_95,112.54702136621977,37.893497694610176,4.0,11054537453.0,112.5495732,37.8927828,140107113432.0,0,0,18
太原直送,CWLS053,CWLS053,49,140107113761,（金***丽金虎便利店,112.554397,37.893062,1.0,3.0,111.0,24.33,2.274793344133265,2.28875912910599,0.0853016000846371,太原直送,0.0853016000846371,山西省,太原市,杏花岭区,巨轮街道,山西省太原市杏花岭区巨轮街道胜利街516号胜利街煤气化小区,112.54810806838034,37.8925517446681,176_95,112.54702136621977,37.893497694610176,4.0,7217344795.0,112.5471194,37.8915477,140107113761.0,0,0,18
太原直送,CWLS053,CWLS053,85,140107113810,（唐***平久唐久便利店,112.557473,37.895833,1.0,3.0,111.0,64.67,2.2711793888532847,2.2846195155484814,0.0837377125314475,太原直送,0.0837377125314475,山西省,太原市,杏花岭区,巨轮街道,山西省太原市杏花岭区巨轮街道富力华庭C区(南门),112.55119038624208,37.89532881920741,177_95,112.55281429443691,37.893497694610176,4.0,10212278600.0,112.552301,37.8948876,140107113810.0,0,0,18
太原直送,CWLS053,CWLS053,41,140107113811,（唐***荣耀唐久便利店,112.546864,37.898605,1.0,3.0,111.0,63.67,2.2719929536776697,2.290527665663085,0.0778385398436996,太原直送,0.0778385398436996,山西省,太原市,杏花岭区,巨轮街道,山西省太原市杏花岭区巨轮街道大同路91号云泮·大菠萝Hotel(太原大同路森林公园店),112.54055623379163,37.89808069472422,175_96,112.5412284380026,37.8979942998166,4.0,1959004653.0,112.5405165,37.8983106,140107113811.0,0,0,18
太原直送,CWLS053,CWLS053,78,140107113988,太原***一家商店,112.556109,37.898421,1.0,3.0,111.0,20.0,2.2691685554810577,2.283860237174109,0.0808327553656329,太原直送,0.0808327553656329,山西省,太原市,杏花岭区,巨轮街道,山西省太原市杏花岭区巨轮街道华苑西巷太矿育才苑,112.54982319885973,37.897914890981845,176_96,112.54702136621977,37.8979942998166,4.0,10212278567.0,112.5498678,37.8968468,140107113988.0,0,0,18
太原直送,CWLS030,CWLS030,82,140107114108,太原***江民商行,112.554501,37.889029,1.0,3.0,111.0,20.67,2.278577818917754,2.291428610777343,0.0891664884359572,太原直送,0.0891664884359572,山西省,太原市,杏花岭区,巨轮街道,山西省太原市杏花岭区巨轮街道沙河堡一条北大街149号院,112.54821276993202,37.888518187238894,176_94,112.54702136621977,37.88900108940375,4.0,11235260671.0,112.5481232,37.8887954,140107114108.0,0,0,18
太原直送,CWLS054,CWLS054,34,140107114265,太原***盛副食店,112.547373,37.898263,1.0,3.0,111.0,59.33,2.2721503098809297,2.29038496084938,0.0782985874712914,太原直送,0.0782985874712914,山西省,太原市,杏花岭区,巨轮街道,山西省太原市杏花岭区巨轮街道大同路92号悦程小旅馆,112.54106658526064,37.89773971369745,175_96,112.5412284380026,37.8979942998166,4.0,1959004664.0,112.5406927,37.8983396,140107114265.0,0,0,18
太原直送,CWLS054,CWLS054,43,140107114909,太原***福便利店,112.550785,37.896733,1.0,3.0,111.0,55.67,2.2724877862888504,2.288914794721941,0.0807047592400866,太原直送,0.0807047592400866,山西省,太原市,杏花岭区,巨轮街道,山西省太原市杏花岭区巨轮街道程家村东巷南渣线小区,112.5444872517139,37.896216454440506,176_96,112.54702136621977,37.8979942998166,4.0,4225321458.0,112.5443676,37.8988347,140107114909.0,0,0,18
太原直送,CWLS030,CWLS030,94,140107115072,（唐***唐久便利店,112.55305,37.889557,1.0,3.0,111.0,64.33,2.278545474890721,2.2921314697625843,0.0882293604476371,太原直送,0.0882293604476371,山西省,太原市,杏花岭区,巨轮街道,山西省太原市杏花岭区巨轮街道沙河堡二条太原市果品茶叶副食总公司果菜农产品综合市场,112.54675842146906,37.88904354509063,176_94,112.54702136621977,37.88900108940375,4.0,11235260666.0,112.5466947,37.8890393,140107115072.0,0,0,18
太原直送,CWLS054,CWLS054,35,140107115499,（唐***隆唐久便利店,112.547027,37.898704,1.0,3.0,111.0,59.33,2.2718462060511464,2.290340696553678,0.0777839178558102,太原直送,0.0777839178558102,山西省,太原市,杏花岭区,巨轮街道,山西省太原市杏花岭区巨轮街道大同路程家村,112.54071964351373,37.89818006157001,175_96,112.5412284380026,37.8979942998166,4.0,1959004664.0,112.5406927,37.8983396,140107115499.0,0,0,18
太原直送,BWLS024,BWLS024,184,140107115528,太原***海平烟店,112.545049,37.888079,1.0,2.0,111.0,57.67,2.2825359520717297,2.299002071180664,0.0876806822053771,太原直送,0.0876806822053771,山西省,太原市,杏花岭区,三桥街道,山西省太原市杏花岭区三桥街道北大街胜利桥小区,112.53873769222996,37.88754878608103,175_94,112.5412284380026,37.88900108940375,4.0,2013620854.0,112.5384745,37.8873923,140107115528.0,0,0,18
太原直送,CWLS053,CWLS053,39,140107115872,太原***脑维修部,112.546876,37.898535,1.0,3.0,111.0,23.33,2.272055211847852,2.290566254532707,0.0779093085131634,太原直送,0.0779093085131634,山西省,太原市,杏花岭区,巨轮街道,山西省太原市杏花岭区巨轮街道大同路91号云泮·大菠萝Hotel(太原大同路森林公园店),112.54056827301194,37.89801070709746,175_96,112.5412284380026,37.8979942998166,4.0,1959004653.0,112.5405165,37.8983106,140107115872.0,0,0,18
太原直送,CWLS030,CWLS030,95,140107116052,太原***源便利店,112.553031,37.889571,1.0,3.0,111.0,73.0,2.2785383508222994,2.292135854259296,0.0882104247127318,太原直送,0.0882104247127318,山西省,太原市,杏花岭区,巨轮街道,山西省太原市杏花岭区巨轮街道沙河堡二条太原市果品茶叶副食总公司果菜农产品综合市场,112.54673937611884,37.88905751128272,176_94,112.54702136621977,37.88900108940375,4.0,11235260666.0,112.5466947,37.8890393,140107116052.0,0,0,18
太原直送,BWLS024,BWLS024,173,140107116196,太原***鼎烟酒店,112.549621,37.888011,1.0,2.0,111.0,45.67,2.2811164137737463,2.295695869426303,0.0887854053772354,太原直送,0.0887854053772354,山西省,太原市,杏花岭区,三桥街道,山西省太原市杏花岭区三桥街道北大街柳溪花园,112.54332143267872,37.88749047269526,175_94,112.5412284380026,37.88900108940375,4.0,2004160247.0,112.5441645,37.8875045,140107116196.0,0,0,18
太原直送,CWLS054,CWLS054,58,140107116480,太原***萍经销部,112.549301,37.8933,1.0,3.0,111.0,24.0,2.27621654814848,2.2923350704454144,0.083592137865945,太原直送,0.083592137865945,山西省,太原市,杏花岭区,巨轮街道,山西省太原市杏花岭区巨轮街道胜利街太原市食品三厂,112.543000025856,37.892779801763695,175_95,112.5412284380026,37.893497694610176,4.0,11262691379.0,112.5439684,37.8928464,140107116480.0,0,0,18
太原直送,CWLS054,CWLS054,46,140107116505,（金***源金虎便利店,112.550828,37.896238,1.0,3.0,111.0,34.67,2.272942083046116,2.28921918577165,0.081190906202604,太原直送,0.081190906202604,山西省,太原市,杏花岭区,巨轮街道,山西省太原市杏花岭区巨轮街道程家村东巷南渣线小区,112.54453041292568,37.89572144692637,176_95,112.54702136621977,37.893497694610176,4.0,1881697423.0,112.5440557,37.8929095,140107116505.0,0,0,18
太原直送,CWLS053,CWLS053,81,140107116612,（金***恩金虎便利店,112.554885,37.895573,1.0,3.0,111.0,29.67,2.2722591372358925,2.286693692687545,0.0830853498758948,太原直送,0.0830853498758948,山西省,太原市,杏花岭区,巨轮街道,山西省太原市杏花岭区巨轮街道太矿西苑小区太矿西苑小区北区,112.5485968609985,37.89506412171689,176_95,112.54702136621977,37.893497694610176,4.0,10212278598.0,112.5498041,37.8949642,140107116612.0,0,0,18
太原直送,CWLS030,CWLS030,89,140107117136,太原***鲜便利店,112.553037,37.88986,1.0,3.0,111.0,60.33,2.278262860932644,2.291934707763287,0.0879357971761222,太原直送,0.0879357971761222,山西省,太原市,杏花岭区,巨轮街道,山西省太原市杏花岭区巨轮街道沙河堡二条金泽苑小区,112.54674535628229,37.88934657642584,176_94,112.54702136621977,37.88900108940375,4.0,11235260666.0,112.5466947,37.8890393,140107117136.0,0,0,18
太原直送,BWLS024,BWLS024,177,140107117215,太原***烟酒商店,112.546504,37.888033,1.0,2.0,111.0,88.0,2.2821063362343565,2.297965988695219,0.0880317591611099,太原直送,0.0880317591611099,山西省,太原市,杏花岭区,三桥街道,山西省太原市杏花岭区三桥街道北大街胜利桥小区,112.5401965323813,37.887505942408254,175_94,112.5412284380026,37.88900108940375,4.0,2015290471.0,112.5410171,37.8874546,140107117215.0,0,0,18
太原直送,CWLS054,CWLS054,52,140107117334,太原***亚便利店,112.55194,37.896261,1.0,3.0,111.0,66.67,2.272559961080231,2.288387114863213,0.0814982682822121,太原直送,0.0814982682822121,山西省,太原市,杏花岭区,巨轮街道,山西省太原市杏花岭区巨轮街道程东里,112.545645057348,37.895746650202575,176_96,112.54702136621977,37.8979942998166,4.0,1993811303.0,112.5447201,37.892768,140107117334.0,0,0,18
太原直送,CWLS054,CWLS054,53,140107118423,太原***怡便利店,112.550934,37.895412,1.0,3.0,111.0,23.0,2.273689101129264,2.2897021275679066,0.0820122847017421,太原直送,0.0820122847017421,山西省,太原市,杏花岭区,巨轮街道,山西省太原市杏花岭区巨轮街道程家村东巷融田小区,112.5446367640169,37.89489550279379,176_95,112.54702136621977,37.893497694610176,4.0,1881697423.0,112.5440557,37.8929095,140107118423.0,0,0,18
太原直送,CWLS054,CWLS054,37,140107118685,太原***杂经销部,112.55078,37.898186,1.0,3.0,111.0,54.67,2.271115020691374,2.287932618679356,0.0793143254273747,太原直送,0.0793143254273747,山西省,太原市,杏花岭区,巨轮街道,山西省太原市杏花岭区巨轮街道程家村东巷观庭小区,112.5444820703558,37.89766971940291,176_96,112.54702136621977,37.8979942998166,4.0,4225321458.0,112.5443676,37.8988347,140107118685.0,0,0,18
太原直送,CWLS054,CWLS054,50,140107118691,太原***张便利店,112.552633,37.896268,1.0,3.0,111.0,51.67,2.272329004069833,2.28787366832393,0.0817038629747693,太原直送,0.0817038629747693,山西省,太原市,杏花岭区,巨轮街道,山西省太原市杏花岭区巨轮街道程东里,112.5463396764447,37.89575499884016,176_96,112.54702136621977,37.8979942998166,4.0,1993811303.0,112.5447201,37.892768,140107118691.0,0,0,18
太原直送,BWLS024,BWLS024,174,140107118737,太原***久便利店,112.549494,37.888085,1.0,2.0,111.0,63.67,2.28108750509949,2.2957385836867443,0.0886819066382771,太原直送,0.0886819066382771,山西省,太原市,杏花岭区,三桥街道,山西省太原市杏花岭区三桥街道北大街梅花苑,112.54319411091387,37.88756422682647,175_94,112.5412284380026,37.88900108940375,4.0,2004160200.0,112.5441597,37.8876013,140107118737.0,0,0,18
太原直送,CWLS053,CWLS053,44,140107118761,太原***鑫便利店,112.54747,37.895164,1.0,3.0,111.0,83.33,2.2750487504548085,2.292414579338776,0.0813218431296274,太原直送,0.0813218431296274,山西省,太原市,杏花岭区,巨轮街道,山西省太原市杏花岭区巨轮街道大同路德祥六院,112.5411641953318,37.89464033382544,175_95,112.5412284380026,37.893497694610176,4.0,1959004699.0,112.5411712,37.8949515,140107118761.0,0,0,18
太原直送,CWLS054,CWLS054,39,140107118805,太原***物购小店,112.550746,37.897518,1.0,3.0,111.0,63.0,2.271757899761768,2.2884107664623907,0.0799426283906166,太原直送,0.0799426283906166,山西省,太原市,杏花岭区,巨轮街道,山西省太原市杏花岭区巨轮街道程家村东巷观庭小区,112.54444806626258,37.89700152486933,176_96,112.54702136621977,37.8979942998166,4.0,4225321458.0,112.5443676,37.8988347,140107118805.0,0,0,18
太原直送,CWLS054,CWLS054,27,140107118916,太原***百货商店,112.555939,37.893592,1.0,3.0,111.0,43.67,2.273794797678324,2.2872684942948904,0.0853046101743613,太原直送,0.0853046101743613,山西省,太原市,杏花岭区,巨轮街道,山西省太原市杏花岭区巨轮街道华苑西巷艾客橙子酒店太原胜利街地铁站店(胜利街分店),112.54965339450584,37.89308467400424,176_95,112.54702136621977,37.893497694610176,4.0,11054537453.0,112.5495732,37.8927828,140107118916.0,0,0,18
太原直送,BWLS024,BWLS024,170,140107119043,太原***烟酒商行,112.550383,37.887987,1.0,2.0,111.0,79.0,2.280892615560844,2.2951538797102464,0.0890032698050983,太原直送,0.0890032698050983,山西省,太原市,杏花岭区,三桥街道,山西省太原市杏花岭区三桥街道北大街柳溪花园,112.54408529862262,37.88746801337013,175_94,112.5412284380026,37.88900108940375,4.0,2004160247.0,112.5441645,37.8875045,140107119043.0,0,0,18
太原直送,CWLS053,CWLS053,45,140107119067,太原***乐便利店,112.547182,37.895184,1.0,3.0,111.0,22.33,2.2751235891164208,2.2926126375480376,0.081231474207969,太原直送,0.081231474207969,山西省,太原市,杏花岭区,巨轮街道,山西省太原市杏花岭区巨轮街道大同路63号德祥六院,112.54087545358992,37.89465972639693,175_95,112.5412284380026,37.893497694610176,4.0,1959004699.0,112.5411712,37.8949515,140107119067.0,0,0,18
太原直送,CWLS030,CWLS030,90,140107119090,太原***副食商店,112.553028,37.889589,1.0,3.0,111.0,62.0,2.278522280286281,2.292125796593197,0.0881923326655977,太原直送,0.0881923326655977,山西省,太原市,杏花岭区,巨轮街道,山西省太原市杏花岭区巨轮街道沙河堡二条太原市果品茶叶副食总公司果菜农产品综合市场,112.5467363671185,37.88907550887328,176_94,112.54702136621977,37.88900108940375,4.0,11235260666.0,112.5466947,37.8890393,140107119090.0,0,0,18
太原直送,CWLS030,CWLS030,93,140107119188,太原***品经销部,112.553001,37.889584,1.0,3.0,111.0,83.33,2.278535721398505,2.2921489767102865,0.0881892405285337,太原直送,0.0881892405285337,山西省,太原市,杏花岭区,巨轮街道,山西省太原市杏花岭区巨轮街道沙河堡二条太原市果品茶叶副食总公司果菜农产品综合市场,112.54670930553768,37.8890704561849,176_94,112.54702136621977,37.88900108940375,4.0,11235260666.0,112.5466947,37.8890393,140107119188.0,0,0,18
太原直送,CWLS030,CWLS030,87,140107119213,太原***洋便利店,112.552696,37.88953,1.0,3.0,111.0,33.33,2.278685224889563,2.2924091434229186,0.0881525211097192,太原直送,0.0881525211097192,山西省,太原市,杏花岭区,三桥街道,山西省太原市杏花岭区三桥街道新建路438号院太原市果品茶叶副食总公司果菜农产品综合市场,112.54640360717148,37.88901585956899,176_94,112.54702136621977,37.88900108940375,4.0,11235260666.0,112.5466947,37.8890393,140107119213.0,0,0,18
太原直送,CWLS030,CWLS030,86,140107119293,太原***兴达商行,112.553125,37.888326,1.0,3.0,111.0,59.67,2.279686556346071,2.292914852261639,0.089429094331764,太原直送,0.089429094331764,山西省,太原市,杏花岭区,巨轮街道,山西省太原市杏花岭区巨轮街道沙河堡二条锦江之星酒店(太原万达广场龙潭公园店),112.5468337371819,37.8878124606224,176_94,112.54702136621977,37.88900108940375,4.0,2109908040.0,112.5467336,37.8876832,140107119293.0,0,0,18
太原直送,BWLS024,BWLS024,91,140107119345,太原***龙便利店,112.546748,37.887968,1.0,2.0,111.0,32.33,2.282088554171814,2.29783122986546,0.0881487246078997,太原直送,0.0881487246078997,山西省,太原市,杏花岭区,三桥街道,山西省太原市杏花岭区三桥街道北大街冶建大厦,112.5404411739465,37.88744145409389,175_94,112.5412284380026,37.88900108940375,4.0,2015290471.0,112.5410171,37.8874546,140107119345.0,0,0,18
太原直送,CWLS030,CWLS030,83,140107119386,太原***烟酒商行,112.554905,37.889361,1.0,3.0,111.0,69.67,2.278133467591393,2.2909066888498475,0.0889749249395572,太原直送,0.0889749249395572,山西省,太原市,杏花岭区,巨轮街道,山西省太原市杏花岭区巨轮街道爱心路安汇公寓,112.5486176281474,37.88885099746378,176_94,112.54702136621977,37.88900108940375,4.0,11235260671.0,112.5481232,37.8887954,140107119386.0,0,0,18
太原直送,CWLS053,CWLS053,82,140107119504,太原***多便利店,112.555267,37.89554,1.0,3.0,111.0,82.67,2.2721671713685607,2.286435997636933,0.0832440693683355,太原直送,0.0832440693683355,山西省,太原市,杏花岭区,巨轮街道,山西省太原市杏花岭区巨轮街道蕲艾艾灸馆太矿西苑小区北区,112.54897970588446,37.89503181795359,176_95,112.54702136621977,37.893497694610176,4.0,10212278598.0,112.5498041,37.8949642,140107119504.0,0,0,18
太原直送,BWLS024,BWLS024,127,140107119564,太原***副食商行,112.547245,37.887275,1.0,2.0,111.0,60.33,2.282582681606951,2.297938040332021,0.088934945482636,太原直送,0.088934945482636,山西省,太原市,杏花岭区,三桥街道,山西省太原市杏花岭区三桥街道金刚堰路柳溪花园,112.54093953792396,37.88674938654307,175_93,112.5412284380026,37.88450448419733,4.0,2015290471.0,112.5410171,37.8874546,140107119564.0,0,0,18
太原直送,BWLS024,BWLS024,168,140107119591,太原***鼎烟酒店,112.549936,37.887976,1.0,2.0,111.0,76.0,2.2810476005243694,2.295488870267285,0.0888989906466856,太原直送,0.0888989906466856,山西省,太原市,杏花岭区,三桥街道,山西省太原市杏花岭区三桥街道北大街柳溪花园,112.5436372102266,37.88745610748746,175_94,112.5412284380026,37.88900108940375,4.0,2004160247.0,112.5441645,37.8875045,140107119591.0,0,0,18
太原直送,BWLS024,BWLS024,131,140107119601,(唐***晋华唐久便利店,112.547223,37.886988,1.0,2.0,111.0,57.0,2.2828612920887204,2.2981493699518265,0.0892097355953901,太原直送,0.0892097355953901,山西省,太原市,杏花岭区,三桥街道,山西省太原市杏花岭区三桥街道金刚堰路尚都酒店(太原万达广场胜利桥东店),112.54091751481802,37.88646228686867,175_93,112.5412284380026,37.88450448419733,4.0,2015290471.0,112.5410171,37.8874546,140107119601.0,0,0,18
太原直送,BWLS024,BWLS024,92,140107119617,（金***金虎便利店,112.544214,37.88789,1.0,2.0,111.0,51.33,2.282986532528391,2.29974318463019,0.0877008497678319,太原直送,0.0877008497678319,山西省,太原市,杏花岭区,三桥街道,山西省太原市杏花岭区三桥街道北大街金刚堰十三冶小区,112.53790047216204,37.88735790290277,174_94,112.53543550978544,37.88900108940375,4.0,7217344652.0,112.5378676,37.8873749,140107119617.0,0,0,18
太原直送,CWLS054,CWLS054,42,140107119702,太原***旅成商店,112.550772,37.896904,1.0,3.0,111.0,83.33,2.272330249940357,2.2888082949659663,0.0805373885968475,太原直送,0.0805373885968475,山西省,太原市,杏花岭区,巨轮街道,山西省太原市杏花岭区巨轮街道程家村东巷南渣线小区,112.54447420047018,37.89638746075543,176_96,112.54702136621977,37.8979942998166,4.0,4225321458.0,112.5443676,37.8988347,140107119702.0,0,0,18
太原直送,CWLS054,CWLS054,38,140107119703,太原***晋仓商店,112.550691,37.897453,1.0,3.0,111.0,34.33,2.2718372297195946,2.288495271588079,0.0799886648469642,太原直送,0.0799886648469642,山西省,太原市,杏花岭区,巨轮街道,山西省太原市杏花岭区巨轮街道程家村东巷观庭小区,112.54439294118096,37.89693640247005,176_96,112.54702136621977,37.8979942998166,4.0,4225321458.0,112.5443676,37.8988347,140107119703.0,0,0,18
太原直送,CWLS053,CWLS053,42,140107119800,太原***生鲜超市,112.547227,37.896565,1.0,3.0,111.0,55.0,2.273803217470671,2.2916431250054976,0.0799044381746072,太原直送,0.0799044381746072,山西省,太原市,杏花岭区,巨轮街道,山西省太原市杏花岭区巨轮街道大同路德祥六院,112.5409204082948,37.89604108243088,175_96,112.5412284380026,37.8979942998166,4.0,1959004527.0,112.5409966,37.895835,140107119800.0,0,0,18
太原直送,CWLS054,CWLS054,36,140107119809,太原***达烟酒店,112.550622,37.899276,1.0,3.0,111.0,84.67,2.27013536770343,2.287309522962945,0.078226613949473,太原直送,0.078226613949473,山西省,太原市,杏花岭区,巨轮街道,山西省太原市杏花岭区巨轮街道北中环街北城建宿舍,112.54432356211132,37.898759609910535,176_96,112.54702136621977,37.8979942998166,4.0,4225321458.0,112.5443676,37.8988347,140107119809.0,0,0,18
太原直送,CWLS054,CWLS054,40,140107119822,太原***齐琪商店,112.550746,37.897518,1.0,3.0,111.0,77.33,2.271757899761768,2.2884107664623907,0.0799426283906166,太原直送,0.0799426283906166,山西省,太原市,杏花岭区,巨轮街道,山西省太原市杏花岭区巨轮街道程家村东巷观庭小区,112.54444806626258,37.89700152486933,176_96,112.54702136621977,37.8979942998166,4.0,4225321458.0,112.5443676,37.8988347,140107119822.0,0,0,18
太原直送,CWLS054,CWLS054,67,140107119866,太原***权副食店,112.542734,37.891438,1.0,3.0,111.0,34.33,2.28011561078512,2.2984219083460298,0.0839374737885258,太原直送,0.0839374737885258,山西省,太原市,杏花岭区,巨轮街道,山西省太原市杏花岭区巨轮街道龙湾巷龙湾国际,112.5364160111877,37.89090322936349,174_94,112.53543550978544,37.88900108940375,4.0,2010729144.0,112.5363377,37.8902586,140107119866.0,0,0,18
太原直送,CWLS053,CWLS053,84,140107119895,太原***鲜便利店,112.556729,37.895537,1.0,3.0,111.0,53.0,2.2716990231419305,2.285366192015841,0.0837495010850835,太原直送,0.0837495010850835,山西省,太原市,杏花岭区,巨轮街道,山西省太原市杏花岭区巨轮街道华苑一巷富力华庭,112.55044485799702,37.89503145378274,177_95,112.55281429443691,37.893497694610176,4.0,10212278599.0,112.5498791,37.894964,140107119895.0,0,0,18
太原直送,CWLS054,CWLS054,65,140107119909,太原***嫣食品店,112.542709,37.892159,1.0,3.0,111.0,66.67,2.279442387098212,2.297951392517472,0.0832242495430261,太原直送,0.0832242495430261,山西省,太原市,杏花岭区,巨轮街道,山西省太原市杏花岭区巨轮街道龙湾巷龙湾国际,112.53639085784816,37.89162430703031,174_95,112.53543550978544,37.893497694610176,4.0,2010729095.0,112.5363305,37.892632,140107119909.0,0,0,18
太原直送,CWLS054,CWLS054,31,140107120011,太原***秀秀商店,112.54764,37.896231,1.0,3.0,111.0,38.67,2.273984521997675,2.2915660061477583,0.0803315339888375,太原直送,0.0803315339888375,山西省,太原市,杏花岭区,巨轮街道,山西省太原市杏花岭区巨轮街道新建路辅路德祥六院,112.54133450561096,37.89570789431306,175_95,112.5412284380026,37.893497694610176,4.0,1959004661.0,112.541244,37.8956272,140107120011.0,0,0,18
太原直送,BWLS024,BWLS024,212,140107120016,太原***君日杂店,112.550613,37.887991,1.0,2.0,111.0,57.0,2.2808144702671456,2.2949826579922123,0.0890593549493804,太原直送,0.0890593549493804,山西省,太原市,杏花岭区,三桥街道,山西省太原市杏花岭区三桥街道新建路柳溪花园,112.54431585520726,37.887472476363065,176_94,112.54702136621977,37.88900108940375,4.0,2015290453.0,112.5443719,37.8875071,140107120016.0,0,0,18
太原直送,CWLS054,CWLS054,32,140107120041,太原***乐生鲜店,112.547591,37.896819,1.0,3.0,111.0,44.33,2.2734445148329434,2.2912033454822383,0.0797503616292711,太原直送,0.0797503616292711,山西省,太原市,杏花岭区,巨轮街道,山西省太原市杏花岭区巨轮街道大同路16号程西小区,112.54128531186691,37.8962959018416,175_96,112.5412284380026,37.8979942998166,4.0,1959004580.0,112.5411118,37.8958484,140107120041.0,0,0,18
太原直送,BWLS024,BWLS024,165,140107120063,（唐***帅唐久便利店,112.548809,37.887841,1.0,2.0,111.0,60.33,2.281540180681458,2.2964066099245075,0.0887496065343372,太原直送,0.0887496065343372,山西省,太原市,杏花岭区,三桥街道,山西省太原市杏花岭区三桥街道金溪巷柳溪花园,112.54250743754936,37.88731877191597,175_94,112.5412284380026,37.88900108940375,4.0,2015290455.0,112.5411656,37.8875732,140107120063.0,0,0,18
太原直送,CWLS054,CWLS054,51,140107120141,太原***人和商店,112.552392,37.896251,1.0,3.0,111.0,96.33,2.272423082723154,2.2880621073852003,0.0816456163244525,太原直送,0.0816456163244525,山西省,太原市,杏花岭区,巨轮街道,山西省太原市杏花岭区巨轮街道程东里,112.5460981176879,37.895737529107095,176_95,112.54702136621977,37.893497694610176,4.0,1993811303.0,112.5447201,37.892768,140107120141.0,0,0,18
太原直送,CWLS054,CWLS054,33,140107120146,太原***东便利店,112.547226,37.897249,1.0,3.0,111.0,50.33,2.2731568613910027,2.291180211821847,0.0792419972299992,太原直送,0.0792419972299992,山西省,太原市,杏花岭区,巨轮街道,山西省太原市杏花岭区巨轮街道大同路德祥六院,112.54091932594125,37.89672520957476,175_96,112.5412284380026,37.8979942998166,4.0,1959004527.0,112.5409966,37.895835,140107120146.0,0,0,18
太原直送,CWLS053,CWLS053,46,140107120184,太原***鲜便利店,112.547537,37.894412,1.0,3.0,111.0,29.67,2.275738023225208,2.2928755183275795,0.082067042696807,太原直送,0.082067042696807,山西省,太原市,杏花岭区,巨轮街道,山西省太原市杏花岭区巨轮街道大同路德祥六院,112.54123145451176,37.8938883342092,175_95,112.5412284380026,37.893497694610176,4.0,1959004699.0,112.5411712,37.8949515,140107120184.0,0,0,18
太原直送,CWLS053,CWLS053,43,140107120186,太原***百货商行,112.547411,37.896389,1.0,3.0,111.0,87.0,2.273909692490888,2.291627191261486,0.0801208889116923,太原直送,0.0801208889116923,山西省,太原市,杏花岭区,巨轮街道,山西省太原市杏花岭区巨轮街道大同路德祥六院,112.5411049012888,37.89586543973152,175_96,112.5412284380026,37.8979942998166,4.0,1959004580.0,112.5411118,37.8958484,140107120186.0,0,0,18
太原直送,BWLS024,BWLS024,126,140107120214,（金***鹏金虎便利店,112.547378,37.887538,1.0,2.0,111.0,44.0,2.28229075616627,2.297661669351041,0.0887086875677892,太原直送,0.0887086875677892,山西省,太原市,杏花岭区,三桥街道,山西省太原市杏花岭区三桥街道金刚堰路柳溪花园,112.54107284877624,37.88701271738962,175_94,112.5412284380026,37.88900108940375,4.0,2015290506.0,112.5411389,37.8874525,140107120214.0,0,0,18
太原直送,CWLS054,CWLS054,80,140107120423,太原***优便利店,112.552369,37.893305,1.0,3.0,111.0,76.33,2.275218134055723,2.290080705842701,0.0844469823025074,太原直送,0.0844469823025074,山西省,太原市,杏花岭区,巨轮街道,山西省太原市杏花岭区巨轮街道胜利街物资局宿舍,112.54607540713126,37.89279093059806,176_95,112.54702136621977,37.893497694610176,4.0,1993811303.0,112.5447201,37.892768,140107120423.0,0,0,18
太原直送,CWLS053,CWLS053,23,140107120441,太原***雪琴奶站,112.556037,37.895493,1.0,3.0,111.0,24.33,2.271963502594173,2.2859033926780405,0.0835501049430798,太原直送,0.0835501049430798,山西省,太原市,杏花岭区,巨轮街道,山西省太原市杏花岭区巨轮街道华苑西巷太矿西苑小区,112.54975138462916,37.89498620795774,176_95,112.54702136621977,37.893497694610176,4.0,10212278598.0,112.5498041,37.8949642,140107120441.0,0,0,18
太原直送,CWLS054,CWLS054,14,140107120454,太原***青平烟行,112.548197,37.893345,1.0,3.0,111.0,67.67,2.276532465606412,2.2931149788671736,0.0832647273459799,太原直送,0.0832647273459799,山西省,太原市,杏花岭区,巨轮街道,山西省太原市杏花岭区巨轮街道胜利街太原市食品三厂,112.5418932573336,37.892822522277534,175_95,112.5412284380026,37.893497694610176,4.0,1102898256.0,112.5413138,37.8927183,140107120454.0,0,0,18
太原直送,CWLS053,CWLS053,3,140107120478,太原***酒副食店,112.54751,37.892841,1.0,3.0,111.0,55.0,2.277232395972138,2.2939615632289905,0.0835838590458726,太原直送,0.0835838590458726,山西省,太原市,杏花岭区,巨轮街道,山西省太原市杏花岭区巨轮街道金刚堰路阳光尚都小区,112.5412045686317,37.89231698256143,175_95,112.5412284380026,37.893497694610176,4.0,2015290465.0,112.5412008,37.8926095,140107120478.0,0,0,18
太原直送,BWLS024,BWLS024,11,140107120495,太原***盛烟酒店,112.547416,37.888136,1.0,2.0,111.0,62.0,2.2817127856980566,2.297227158032263,0.0881349895217509,太原直送,0.0881349895217509,山西省,太原市,杏花岭区,三桥街道,山西省太原市杏花岭区三桥街道金刚堰路胜利桥小区,112.54111087648756,37.88761090840296,175_94,112.5412284380026,37.88900108940375,4.0,2015290455.0,112.5411656,37.8875732,140107120495.0,0,0,18
太原直送,CWLS054,CWLS054,20,140107120511,太原***烟酒商行,112.544855,37.892437,1.0,3.0,111.0,51.33,2.278478911611866,2.296185781778337,0.0833765667319032,太原直送,0.0833765667319032,山西省,太原市,杏花岭区,巨轮街道,山西省太原市杏花岭区巨轮街道胜利桥东路山西省统计局胜利桥东小区,112.53854266544978,37.89190716884201,175_95,112.5412284380026,37.893497694610176,4.0,11280918643.0,112.5385637,37.8926242,140107120511.0,0,0,18
太原直送,CWLS054,CWLS054,15,140107120515,太原***景便利店,112.548303,37.893449,1.0,3.0,111.0,29.33,2.276399667289557,2.2929665448220105,0.0831907695360514,太原直送,0.0831907695360514,山西省,太原市,杏花岭区,巨轮街道,山西省太原市杏花岭区巨轮街道胜利街551号太原市食品三厂,112.54199951293424,37.89292676330368,175_95,112.5412284380026,37.893497694610176,4.0,1102898256.0,112.5413138,37.8927183,140107120515.0,0,0,18
太原直送,BWLS024,BWLS024,29,140107120575,太原***烟酒商行,112.54611,37.888762,1.0,2.0,111.0,42.33,2.281544963170789,2.2977595386334486,0.0872346390489449,太原直送,0.0872346390489449,山西省,太原市,杏花岭区,三桥街道,山西省太原市杏花岭区三桥街道北大街251号胜利桥小区,112.53980141807624,37.8882342273355,175_94,112.5412284380026,37.88900108940375,4.0,2015290498.0,112.5410461,37.8875676,140107120575.0,0,0,18
太原直送,BWLS024,BWLS024,28,140107120585,太原***钰烟酒店,112.545859,37.888172,1.0,2.0,111.0,62.33,2.282184516166258,2.298344618527436,0.0877573973919004,太原直送,0.0877573973919004,山西省,太原市,杏花岭区,三桥街道,山西省太原市杏花岭区三桥街道北大街胜利桥小区,112.53954982762522,37.887643573962514,175_94,112.5412284380026,37.88900108940375,4.0,2013620854.0,112.5384745,37.8873923,140107120585.0,0,0,18
太原直送,CWLS053,CWLS053,97,140107120588,（金***烨彤金虎便利店,112.55024,37.89359,1.0,3.0,111.0,20.33,2.275637683297141,2.291448930197873,0.083565360155984,太原直送,0.083565360155984,山西省,太原市,杏花岭区,巨轮街道,山西省太原市杏花岭区巨轮街道新建路太原市食品三厂,112.54394129822988,37.89307176792123,175_95,112.5412284380026,37.893497694610176,4.0,1881697423.0,112.5440557,37.8929095,140107120588.0,0,0,18
太原直送,CWLS054,CWLS054,21,140107120599,太原***烟酒商行,112.544689,37.891193,1.0,3.0,111.0,72.33,2.279709050018441,2.297151794746044,0.0845587565897211,太原直送,0.0845587565897211,山西省,太原市,杏花岭区,巨轮街道,山西省太原市杏花岭区巨轮街道北沙河北沿岸,112.5383763658588,37.89066257000354,175_94,112.5412284380026,37.88900108940375,4.0,11280918646.0,112.5385214,37.8906469,140107120599.0,0,0,18
太原直送,CWLS054,CWLS054,6,140107120658,太原***宇生鲜店,112.550738,37.899008,1.0,3.0,111.0,36.0,2.2703511740525943,2.2874059870702887,0.078517018855782,太原直送,0.078517018855782,山西省,太原市,杏花岭区,巨轮街道,山西省太原市杏花岭区巨轮街道程家村东巷北城建宿舍,112.5444398733428,37.89849179136211,176_96,112.54702136621977,37.8979942998166,4.0,4225321458.0,112.5443676,37.8988347,140107120658.0,0,0,18
太原直送,CWLS054,CWLS054,8,140107120664,(唐***区华阳唐久便利店,112.550957,37.895436,1.0,3.0,111.0,54.0,2.27365894185408,2.289668946368015,0.0819959385884455,太原直送,0.0819959385884455,山西省,太原市,杏花岭区,巨轮街道,山西省太原市杏花岭区巨轮街道程家村东巷融田小区,112.54465981644806,37.89491955316423,176_95,112.54702136621977,37.893497694610176,4.0,1881697423.0,112.5440557,37.8929095,140107120664.0,0,0,18
太原直送,CWLS030,CWLS030,22,140107120703,太原***族便利店,112.553251,37.890333,1.0,3.0,111.0,77.67,2.277746116058592,2.29145595834635,0.0875468438266062,太原直送,0.0875468438266062,山西省,太原市,杏花岭区,巨轮街道,山西省太原市杏花岭区巨轮街道沙河堡二条金泽苑小区,112.54695979257876,37.88982007352364,176_94,112.54702136621977,37.88900108940375,4.0,11235260666.0,112.5466947,37.8890393,140107120703.0,0,0,18
太原直送,CWLS054,CWLS054,18,140107120709,太原***烟酒商店,112.544962,37.892791,1.0,3.0,111.0,87.0,2.278109370546767,2.295867027314951,0.0830532399428177,太原直送,0.0830532399428177,山西省,太原市,杏花岭区,巨轮街道,山西省太原市杏花岭区巨轮街道胜利桥东路山西省统计局胜利桥东小区,112.53864991019864,37.89226147090265,175_95,112.5412284380026,37.893497694610176,4.0,1958797096.0,112.5386,37.8926241,140107120709.0,0,0,18
太原直送,BWLS024,BWLS024,21,140107120739,太原***宇便利店,112.548474,37.888114,1.0,2.0,111.0,41.0,2.2813904607607154,2.29646644785701,0.088403913951812,太原直送,0.088403913951812,山西省,太原市,杏花岭区,三桥街道,山西省太原市杏花岭区三桥街道北大街梅花苑,112.54217156564256,37.88759112683042,175_94,112.5412284380026,37.88900108940375,4.0,2015290455.0,112.5411656,37.8875732,140107120739.0,0,0,18
太原直送,BWLS024,BWLS024,31,140107120740,太原***坛烟酒店,112.545212,37.8881,1.0,2.0,111.0,63.33,2.2824630511379542,2.2988682081113234,0.0876932791609465,太原直送,0.0876932791609465,山西省,太原市,杏花岭区,三桥街道,山西省太原市杏花岭区三桥街道北大街胜利桥小区,112.5389011239663,37.88757014805562,175_94,112.5412284380026,37.88900108940375,4.0,2013620854.0,112.5384745,37.8873923,140107120740.0,0,0,18
太原直送,CWLS030,CWLS030,19,140107120767,太原***禹烟酒店,112.554475,37.888978,1.0,3.0,111.0,60.67,2.278634473538262,2.2914823887784954,0.0892071317160195,太原直送,0.0892071317160195,山西省,太原市,杏花岭区,巨轮街道,山西省太原市杏花岭区巨轮街道沙河堡一条北大街149号院,112.54818671787392,37.888467129393774,176_94,112.54702136621977,37.88900108940375,4.0,11235260671.0,112.5481232,37.8887954,140107120767.0,0,0,18
太原直送,CWLS030,CWLS030,20,140107120821,（金***芳玲金虎便利店,112.553693,37.888341,1.0,3.0,111.0,30.0,2.2794893425326683,2.292488806320549,0.0895804800389014,太原直送,0.0895804800389014,山西省,太原市,杏花岭区,巨轮街道,山西省太原市杏花岭区巨轮街道北大街锦江之星酒店(太原万达广场龙潭公园店),112.54740303228267,37.88782854387139,176_94,112.54702136621977,37.88900108940375,4.0,2109908040.0,112.5467336,37.8876832,140107120821.0,0,0,18
太原直送,CWLS030,CWLS030,18,140107120845,太原***鑫烟酒行,112.553876,37.889531,1.0,3.0,111.0,50.67,2.2783038274587084,2.291544258188349,0.0884988227774821,太原直送,0.0884988227774821,山西省,太原市,杏花岭区,巨轮街道,山西省太原市杏花岭区巨轮街道沙河堡6号北大街卫生局宿舍,112.54758630825994,37.88901910983432,176_94,112.54702136621977,37.88900108940375,4.0,11235260671.0,112.5481232,37.8887954,140107120845.0,0,0,18
太原直送,CWLS053,CWLS053,12,140107120872,（金***海霞金虎便利店,112.549694,37.894057,1.0,3.0,111.0,25.33,2.2753729890919,2.291532510684497,0.0829673296966968,太原直送,0.0829673296966968,山西省,太原市,杏花岭区,巨轮街道,山西省太原市杏花岭区巨轮街道新建路辅路北方三角洲,112.54339390780328,37.893537747703576,175_95,112.5412284380026,37.893497694610176,4.0,11262691379.0,112.5439684,37.8928464,140107120872.0,0,0,18
太原直送,CWLS054,CWLS054,71,140107120886,太原***行茶叶店,112.544948,37.892825,1.0,3.0,111.0,69.0,2.2780817953043258,2.2958542511509674,0.083017040112254,太原直送,0.083017040112254,山西省,太原市,杏花岭区,巨轮街道,山西省太原市杏花岭区巨轮街道胜利桥东路山西省统计局胜利桥东小区,112.53863586883053,37.8922954464258,175_95,112.5412284380026,37.893497694610176,4.0,1958797096.0,112.5386,37.8926241,140107120886.0,0,0,18
太原直送,CWLS054,CWLS054,16,140107120902,太原***杰便利店,112.545015,37.893153,1.0,3.0,111.0,23.0,2.2777498786416377,2.2955825425318466,0.0827109024494369,太原直送,0.0827109024494369,山西省,太原市,杏花岭区,巨轮街道,山西省太原市杏花岭区巨轮街道胜利街山西省统计局胜利桥东小区,112.5387030094656,37.89262365534743,175_95,112.5412284380026,37.893497694610176,4.0,1958797096.0,112.5386,37.8926241,140107120902.0,0,0,18
太原直送,CWLS054,CWLS054,9,140107120904,太原***鎏金商店,112.550934,37.895412,1.0,3.0,111.0,64.33,2.273689101129264,2.2897021275679066,0.0820122847017421,太原直送,0.0820122847017421,山西省,太原市,杏花岭区,巨轮街道,山西省太原市杏花岭区巨轮街道程家村东巷融田小区,112.5446367640169,37.89489550279379,176_95,112.54702136621977,37.893497694610176,4.0,1881697423.0,112.5440557,37.8929095,140107120904.0,0,0,18
太原直送,CWLS054,CWLS054,7,140107120905,(唐***缘尤唐久便利店,112.550798,37.89647,1.0,3.0,111.0,35.33,2.2727323513696,2.2890837444211143,0.080960180051675,太原直送,0.080960180051675,山西省,太原市,杏花岭区,巨轮街道,山西省太原市杏花岭区巨轮街道程家村东巷南渣线小区,112.54450031366936,37.895953430762354,176_96,112.54702136621977,37.8979942998166,4.0,4225321458.0,112.5443676,37.8988347,140107120905.0,0,0,18
太原直送,CWLS054,CWLS054,17,140107120929,（唐***宏奇唐久便利店,112.542699,37.892591,1.0,3.0,111.0,35.67,2.279037399136746,2.297665876372147,0.0827979029927643,太原直送,0.0827979029927643,山西省,太原市,杏花岭区,巨轮街道,山西省太原市杏花岭区巨轮街道龙湾巷龙湾国际,112.53638077973494,37.892056365009005,174_95,112.53543550978544,37.893497694610176,4.0,2010729095.0,112.5363305,37.892632,140107120929.0,0,0,18
太原直送,CWLS053,CWLS053,11,140107120961,太原***利烟酒店,112.547489,37.894701,1.0,3.0,111.0,78.67,2.2754803651765503,2.292714704420287,0.0817751366859148,太原直送,0.0817751366859148,山西省,太原市,杏花岭区,巨轮街道,山西省太原市杏花岭区巨轮街道大同路德祥六院,112.5411832979772,37.894177286961785,175_95,112.5412284380026,37.893497694610176,4.0,1959004699.0,112.5411712,37.8949515,140107120961.0,0,0,18
太原直送,CWLS054,CWLS054,10,140107120988,太原***家便利店,112.55104,37.894516,1.0,3.0,111.0,17.33,2.274502403395077,2.290232816666677,0.0829009549884637,太原直送,0.0829009549884637,山西省,太原市,杏花岭区,巨轮街道,山西省太原市杏花岭区巨轮街道程家村东巷胜利街省委宿舍,112.54474312272562,37.89399954541168,176_95,112.54702136621977,37.893497694610176,4.0,1993811303.0,112.5447201,37.892768,140107120988.0,0,0,18
太原直送,BWLS024,BWLS024,59,140107120995,太原***烟酒商行,112.546229,37.888015,1.0,2.0,111.0,81.67,2.2822127153173053,2.2981799214798206,0.0879897339466321,太原直送,0.0879897339466321,山西省,太原市,杏花岭区,三桥街道,山西省太原市杏花岭区三桥街道北大街胜利桥小区,112.53992081679588,37.8874873464106,175_94,112.5412284380026,37.88900108940375,4.0,2015290471.0,112.5410171,37.8874546,140107120995.0,0,0,18
太原直送,CWLS053,CWLS053,48,140107214076,太原***有限公司,112.552755,37.893177,1.0,3.0,111.0,47.67,2.275214509733089,2.2898846639603865,0.0846844743739946,太原直送,0.0846844743739946,山西省,太原市,杏花岭区,巨轮街道,山西省太原市杏花岭区巨轮街道胜利街宝佳胜景,112.54646231919244,37.89266365312856,176_95,112.54702136621977,37.893497694610176,4.0,7217344795.0,112.5471194,37.8915477,140107214076.0,0,0,18
太原直送,CWLS054,CWLS054,30,140107219627,太原***路加油站,112.548766,37.895478,1.0,3.0,111.0,28.67,2.274330326291677,2.291249414267465,0.0813501441547599,太原直送,0.0813501441547599,山西省,太原市,杏花岭区,巨轮街道,山西省太原市杏花岭区巨轮街道新建路262号煤气公司加油站,112.54246343981904,37.89495710752004,175_95,112.5412284380026,37.893497694610176,4.0,1959004530.0,112.5415774,37.8950555,140107219627.0,0,0,18
太原直送,CWLS054,CWLS054,70,140107219637,山西***有限公司,112.544546,37.893093,1.0,3.0,111.0,58.0,2.277959602649924,2.2959678888947908,0.0826703605229805,太原直送,0.0826703605229805,山西省,太原市,杏花岭区,巨轮街道,山西省太原市杏花岭区巨轮街道胜利街太钢胜西小区,112.5382327600288,37.89256260830851,174_95,112.53543550978544,37.893497694610176,4.0,11280918643.0,112.5385637,37.8926242,140107219637.0,0,0,18
太原直送,CWLS054,CWLS054,25,140107219668,太原***有限公司,112.555937,37.893472,1.0,3.0,111.0,77.67,2.2739090540109523,2.287351624465724,0.0854169806127523,太原直送,0.0854169806127523,山西省,太原市,杏花岭区,巨轮街道,山西省太原市杏花岭区巨轮街道华苑西巷艾客橙子酒店太原胜利街地铁站店(胜利街分店),112.5496514041507,37.89296464790168,176_95,112.54702136621977,37.893497694610176,4.0,11054537453.0,112.5495732,37.8927828,140107219668.0,0,0,18
太原直送,CWLS030,CWLS030,85,140107219677,太原***责任公司,112.553655,37.888344,1.0,3.0,111.0,4.67,2.279498742386361,2.2925145800386924,0.0895664214145047,太原直送,0.0895664214145047,山西省,太原市,杏花岭区,巨轮街道,山西省太原市杏花岭区巨轮街道北大街锦江之星酒店(太原万达广场龙潭公园店),112.5473649456619,37.88783147252031,176_94,112.54702136621977,37.88900108940375,4.0,2109908040.0,112.5467336,37.8876832,140107219677.0,0,0,18
太原直送,CWLS054,CWLS054,29,140107219847,太原***有限公司,112.551167,37.893304,1.0,3.0,111.0,70.67,2.275607950985622,2.290963057879801,0.0840988477745085,太原直送,0.0840988477745085,山西省,太原市,杏花岭区,巨轮街道,山西省太原市杏花岭区巨轮街道胜利街,112.54487056792206,37.89278757047471,176_95,112.54702136621977,37.893497694610176,4.0,1993811303.0,112.5447201,37.892768,140107219847.0,0,0,18
太原直送,BWLS024,BWLS024,167,140107219978,山西***有限公司,112.548814,37.887354,1.0,2.0,111.0,61.0,2.2819993052255727,2.2967342904509023,0.0892233621984684,太原直送,0.0892233621984684,山西省,太原市,杏花岭区,三桥街道,山西省太原市杏花岭区三桥街道金溪巷柳溪花园,112.54251250680409,37.88683169236593,175_94,112.5412284380026,37.88900108940375,4.0,2015290506.0,112.5411389,37.8874525,140107219978.0,0,0,18
太原直送,CWLS053,CWLS053,83,140107220042,山西***有限公司,112.555267,37.89554,1.0,3.0,111.0,53.0,2.2721671713685607,2.286435997636933,0.0832440693683355,太原直送,0.0832440693683355,山西省,太原市,杏花岭区,巨轮街道,山西省太原市杏花岭区巨轮街道蕲艾艾灸馆太矿西苑小区北区,112.54897970588446,37.89503181795359,176_95,112.54702136621977,37.893497694610176,4.0,10212278598.0,112.5498041,37.8949642,140107220042.0,0,0,18
太原直送,BWLS024,BWLS024,124,140107220048,太原***有限公司,112.547378,37.887538,1.0,2.0,111.0,5.33,2.28229075616627,2.297661669351041,0.0887086875677892,太原直送,0.0887086875677892,山西省,太原市,杏花岭区,三桥街道,山西省太原市杏花岭区三桥街道金刚堰路柳溪花园,112.54107284877624,37.88701271738962,175_94,112.5412284380026,37.88900108940375,4.0,2015290506.0,112.5411389,37.8874525,140107220048.0,0,0,18
太原直送,CWLS054,CWLS054,5,140107220436,山西***有限公司,112.555939,37.893592,1.0,3.0,111.0,34.0,2.273794797678324,2.2872684942948904,0.0853046101743613,太原直送,0.0853046101743613,山西省,太原市,杏花岭区,巨轮街道,山西省太原市杏花岭区巨轮街道华苑西巷艾客橙子酒店太原胜利街地铁站店(胜利街分店),112.54965339450584,37.89308467400424,176_95,112.54702136621977,37.893497694610176,4.0,11054537453.0,112.5495732,37.8927828,140107220436.0,0,0,18
太原直送,BWLS024,BWLS024,8,140107220641,山西***商务酒店,112.550296,37.887122,1.0,2.0,111.0,44.33,2.281739287319654,2.295806434921069,0.0898166134409453,太原直送,0.0898166134409453,山西省,太原市,杏花岭区,三桥街道,山西省太原市杏花岭区三桥街道新建路380号柳溪花园,112.5439981880331,37.88660267835756,175_93,112.5412284380026,37.88450448419733,4.0,2004160247.0,112.5441645,37.8875045,140107220641.0,0,0,18
太原直送,CWLS053,CWLS053,4,140107220665,山西***有限公司,112.549213,37.894413,1.0,3.0,111.0,86.67,2.2751923717593647,2.291643937383164,0.0824954986650755,太原直送,0.0824954986650755,山西省,太原市,杏花岭区,巨轮街道,山西省太原市杏花岭区巨轮街道新建路辅路北方三角洲,112.54291167791148,37.89389282976154,175_95,112.5412284380026,37.893497694610176,4.0,11262691379.0,112.5439684,37.8928464,140107220665.0,0,0,18
太原直送,CWLS055,CWLS055,52,140108101175,（金***虎便利96号店,112.545798,37.903463,1.0,3.0,111.0,34.0,2.2677497977768577,2.2880252368275946,0.0728688234089151,太原直送,0.0728688234089151,山西省,太原市,尖草坪区,古城街道,山西省太原市尖草坪区古城街道大同路程南小区,112.53948688278922,37.90293732311041,175_97,112.5412284380026,37.90249090502302,1.0,7839514427.0,112.5380984,37.9026847,140108101175.0,0,0,18
太原直送,CWLS055,CWLS055,31,140108101692,太原***春梅商店,112.544719,37.900309,1.0,3.0,111.0,57.67,2.2710832344280107,2.2909529834182525,0.0756679022571643,太原直送,0.0756679022571643,山西省,太原市,尖草坪区,古城街道,山西省太原市尖草坪区古城街道森园南街太原市林业科学研究所,112.5384053823032,37.89978035428045,175_96,112.5412284380026,37.8979942998166,4.0,12450602674.0,112.5392042,37.899938,140108101692.0,0,0,18
太原直送,CWLS055,CWLS055,47,140108110213,（唐***得唐久便利店,112.551036,37.893892,1.0,3.0,111.0,61.33,2.2750940540949065,2.290659644212776,0.0834978601522182,太原直送,0.0834978601522182,山西省,太原市,杏花岭区,巨轮街道,山西省太原市杏花岭区巨轮街道程家村东巷,112.54473918583588,37.89337542029771,176_95,112.54702136621977,37.893497694610176,4.0,1993811303.0,112.5447201,37.892768,140108110213.0,0,0,18
太原直送,CWLS055,CWLS055,57,140108112177,（唐***信唐久便利店,112.546121,37.900604,1.0,3.0,111.0,56.0,2.2703460181146378,2.289721039365711,0.0757172536810438,太原直送,0.0757172536810438,山西省,太原市,尖草坪区,古城街道,山西省太原市尖草坪区古城街道森园南街森园南街社区,112.53981106534545,37.90007847686002,175_96,112.5412284380026,37.8979942998166,4.0,1389875676.0,112.5401171,37.9001087,140108112177.0,0,0,18
太原直送,CWLS055,CWLS055,41,140108113408,太原***星便利店,112.555697,37.901491,1.0,3.0,111.0,64.33,2.266395872990419,2.282078104131629,0.0778208167523283,太原直送,0.0778208167523283,山西省,太原市,尖草坪区,尖草坪街道,山西省太原市尖草坪区尖草坪街道解放北路161号恒大名都,112.54940995134211,37.90098473085738,176_97,112.54702136621977,37.90249090502302,2.0,11262691334.0,112.5493254,37.9011054,140108113408.0,0,0,18
太原直送,CWLS055,CWLS055,62,140108115977,（唐***强唐久便利店,112.555559,37.901459,1.0,3.0,111.0,64.0,2.266470744262979,2.282201181353865,0.0778003664001623,太原直送,0.0778003664001623,山西省,太原市,尖草坪区,尖草坪街道,山西省太原市尖草坪区尖草坪街道解放北路161号恒大名都,112.54927165499136,37.90095247391251,176_97,112.54702136621977,37.90249090502302,2.0,11262691349.0,112.5492744,37.901109,140108115977.0,0,0,18
太原直送,CWLS055,CWLS055,39,140108118051,太原***成林商店,112.555714,37.901508,1.0,3.0,111.0,29.67,2.2663742924120025,2.282054081279629,0.0778111975617873,太原直送,0.0778111975617873,山西省,太原市,尖草坪区,尖草坪街道,山西省太原市尖草坪区尖草坪街道解放北路161号恒大名都,112.54942698626354,37.90100176495354,176_97,112.54702136621977,37.90249090502302,2.0,11262691334.0,112.5493254,37.9011054,140108118051.0,0,0,18
太原直送,CWLS055,CWLS055,54,140108118656,（唐***峰唐久便利店,112.54595,37.901907,1.0,3.0,111.0,61.33,2.2691704759768454,2.288965401742886,0.0744128278255822,太原直送,0.0744128278255822,山西省,太原市,尖草坪区,古城街道,山西省太原市尖草坪区古城街道程南巷程南小区,112.53963946444628,37.90138135518431,175_97,112.5412284380026,37.90249090502302,1.0,1389875676.0,112.5401171,37.9001087,140108118656.0,0,0,18
太原直送,CWLS055,CWLS055,36,140108118666,太原***艳便利店,112.555726,37.901426,1.0,3.0,111.0,32.0,2.2664480186887106,2.282100914512977,0.0778919172828609,太原直送,0.0778919172828609,山西省,太原市,尖草坪区,尖草坪街道,山西省太原市尖草坪区尖草坪街道解放北路161号恒大名都,112.54943902184688,37.90091977105966,176_97,112.54702136621977,37.90249090502302,2.0,11262691334.0,112.5493254,37.9011054,140108118666.0,0,0,18
太原直送,CWLS055,CWLS055,32,140108118726,太原***鲜便利店,112.542495,37.898272,1.0,3.0,111.0,36.0,2.2737363148186285,2.293968862340112,0.0771829064301159,太原直送,0.0771829064301159,山西省,太原市,尖草坪区,古城街道,山西省太原市尖草坪区古城街道滨河路南社区龙湾艺术天阶,112.5361755509042,37.89773796978434,174_96,112.53543550978544,37.8979942998166,4.0,4225321447.0,112.5354315,37.8988582,140108118726.0,0,0,18
太原直送,CWLS055,CWLS055,60,140108119007,（唐***宋杰唐久便利店,112.541888,37.898274,1.0,3.0,111.0,57.0,2.273933494644466,2.294414568231511,0.0770636852609558,太原直送,0.0770636852609558,山西省,太原市,尖草坪区,古城街道,山西省太原市尖草坪区古城街道滨河路南社区龙湾艺术天阶,112.53556685835412,37.8977385785552,174_96,112.53543550978544,37.8979942998166,4.0,4225321447.0,112.5354315,37.8988582,140108119007.0,0,0,18
太原直送,CWLS055,CWLS055,58,140108119044,太原***珍便利店,112.545339,37.901302,1.0,3.0,111.0,55.67,2.269942033865401,2.289824646036022,0.0748490013092996,太原直送,0.0748490013092996,山西省,太原市,尖草坪区,古城街道,山西省太原市尖草坪区古城街道林溪路森南小区,112.53902692087824,37.90077490783452,175_97,112.5412284380026,37.90249090502302,1.0,12450602674.0,112.5392042,37.899938,140108119044.0,0,0,18
太原直送,CWLS055,CWLS055,53,140108119168,太原***家源商店,112.54595,37.901907,1.0,3.0,111.0,20.33,2.2691704759768454,2.288965401742886,0.0744128278255822,太原直送,0.0744128278255822,山西省,太原市,尖草坪区,古城街道,山西省太原市尖草坪区古城街道程南巷程南小区,112.53963946444628,37.90138135518431,175_97,112.5412284380026,37.90249090502302,1.0,1389875676.0,112.5401171,37.9001087,140108119168.0,0,0,18
太原直送,CWLS056,CWLS056,142,140108119207,太原***小院饭店,112.542956,37.901401,1.0,3.0,111.0,35.33,2.2706291848104545,2.291513465833439,0.0742136869654102,太原直送,0.0742136869654102,山西省,太原市,尖草坪区,古城街道,山西省太原市尖草坪区古城街道林钢路森南小区,112.53663746053064,37.90086861429844,174_97,112.53543550978544,37.90249090502302,4.0,12450602673.0,112.5365182,37.9008732,140108119207.0,0,0,18
太原直送,CWLS055,CWLS055,61,140108119346,太原***缘便利店,112.542271,37.898272,1.0,3.0,111.0,35.0,2.273809760066352,2.2941338309370702,0.0771390998456681,太原直送,0.0771390998456681,山西省,太原市,尖草坪区,古城街道,山西省太原市尖草坪区古城街道滨河路南社区龙湾艺术天阶,112.5359509281556,37.89773745760318,174_96,112.53543550978544,37.8979942998166,4.0,4225321447.0,112.5354315,37.8988582,140108119346.0,0,0,18
太原直送,CWLS055,CWLS055,40,140108119420,（金***金虎便利店,112.555586,37.901458,1.0,3.0,111.0,34.0,2.2664629664324973,2.2821820280470577,0.0778111115072926,太原直送,0.0778111115072926,山西省,太原市,尖草坪区,尖草坪街道,山西省太原市尖草坪区尖草坪街道解放北路161号恒大名都,112.5492987138928,37.90095152285528,176_97,112.54702136621977,37.90249090502302,2.0,11262691334.0,112.5493254,37.9011054,140108119420.0,0,0,18
太原直送,CWLS055,CWLS055,56,140108119499,太原***昌隆商行,112.546252,37.901106,1.0,3.0,111.0,91.67,2.269828767704297,2.2892848901648333,0.0752640169669397,太原直送,0.0752640169669397,山西省,太原市,尖草坪区,古城街道,山西省太原市尖草坪区古城街道大同路109号太原钢铁(集团)金属回收加工贸易有限公司,112.53994234973908,37.90058085574585,175_97,112.5412284380026,37.90249090502302,1.0,1389875676.0,112.5401171,37.9001087,140108119499.0,0,0,18
太原直送,CWLS055,CWLS055,29,140108119563,太原***友便利店,112.543629,37.906825,1.0,3.0,111.0,50.67,2.2652848970882253,2.287354336860167,0.0690774262693677,太原直送,0.0690774262693677,山西省,太原市,尖草坪区,古城街道,山西省太原市尖草坪区古城街道大同路143号程南小区,112.5373116726473,37.90629517575061,174_98,112.53543550978544,37.90698751022944,1.0,7839514439.0,112.5368972,37.904914,140108119563.0,0,0,18
太原直送,CWLS055,CWLS055,38,140108119683,太原***成生鲜店,112.555553,37.901461,1.0,3.0,111.0,42.0,2.266470790299315,2.282204231287154,0.0777963233321491,太原直送,0.0777963233321491,山西省,太原市,尖草坪区,尖草坪街道,山西省太原市尖草坪区尖草坪街道解放北路161号恒大名都,112.5492656416903,37.90095446337208,176_97,112.54702136621977,37.90249090502302,2.0,11262691349.0,112.5492744,37.901109,140108119683.0,0,0,18
太原直送,CWLS055,CWLS055,34,140108119718,太原***信粮油店,112.555577,37.901357,1.0,3.0,111.0,56.33,2.266561456984568,2.2822571778397376,0.0779019386921797,太原直送,0.0779019386921797,山西省,太原市,尖草坪区,尖草坪街道,山西省太原市尖草坪区尖草坪街道名都街恒大名都,112.54928970605856,37.90085048719117,176_97,112.54702136621977,37.90249090502302,2.0,11262691334.0,112.5493254,37.9011054,140108119718.0,0,0,18
太原直送,CWLS056,CWLS056,139,140108119735,太原***活便利店,112.543083,37.902279,1.0,3.0,111.0,48.0,2.2697581226148307,2.290826528791084,0.0733829203289132,太原直送,0.0733829203289132,山西省,太原市,尖草坪区,古城街道,山西省太原市尖草坪区古城街道林钢路森南小区,112.53676470771026,37.90174706996056,174_97,112.53543550978544,37.90249090502302,4.0,12450602673.0,112.5365182,37.9008732,140108119735.0,0,0,18
太原直送,CWLS055,CWLS055,59,140108119795,太原***酒经销部,112.544719,37.900309,1.0,3.0,111.0,31.0,2.2710832344280107,2.2909529834182525,0.0756679022571643,太原直送,0.0756679022571643,山西省,太原市,尖草坪区,古城街道,山西省太原市尖草坪区古城街道森园南街太原市林业科学研究所,112.5384053823032,37.89978035428045,175_96,112.5412284380026,37.8979942998166,4.0,12450602674.0,112.5392042,37.899938,140108119795.0,0,0,18
太原直送,CWLS055,CWLS055,30,140108119876,太原***便利超市,112.544907,37.905353,1.0,3.0,111.0,24.67,2.2662559087667065,2.287405082974377,0.0708155427572214,太原直送,0.0708155427572214,山西省,太原市,尖草坪区,古城街道,山西省太原市尖草坪区古城街道大同路程南小区,112.53859329685096,37.9048257357628,175_98,112.5412284380026,37.90698751022944,2.0,7839514439.0,112.5368972,37.904914,140108119876.0,0,0,18
太原直送,CWLS055,CWLS055,55,140108119950,太原***鲜便利店,112.546266,37.901064,1.0,3.0,111.0,25.33,2.269863888138229,2.2893030012274456,0.0753081892625241,太原直送,0.0753081892625241,山西省,太原市,尖草坪区,古城街道,山西省太原市尖草坪区古城街道大同路109号森园南街社区,112.53995639124948,37.90053887795339,175_97,112.5412284380026,37.90249090502302,1.0,1389875676.0,112.5401171,37.9001087,140108119950.0,0,0,18
太原直送,CWLS055,CWLS055,33,140108119952,太原***里便利店,112.555577,37.901357,1.0,3.0,111.0,35.0,2.266561456984568,2.2822571778397376,0.0779019386921797,太原直送,0.0779019386921797,山西省,太原市,尖草坪区,尖草坪街道,山西省太原市尖草坪区尖草坪街道名都街恒大名都,112.54928970605856,37.90085048719117,176_97,112.54702136621977,37.90249090502302,2.0,11262691334.0,112.5493254,37.9011054,140108119952.0,0,0,18
太原直送,CWLS055,CWLS055,37,140108119967,太原***陆烟酒店,112.555553,37.901461,1.0,3.0,111.0,56.33,2.266470790299315,2.282204231287154,0.0777963233321491,太原直送,0.0777963233321491,山西省,太原市,尖草坪区,尖草坪街道,山西省太原市尖草坪区尖草坪街道解放北路161号恒大名都,112.5492656416903,37.90095446337208,176_97,112.54702136621977,37.90249090502302,2.0,11262691349.0,112.5492744,37.901109,140108119967.0,0,0,18
太原直送,CWLS056,CWLS056,185,140108120100,太原***钢烟酒店,112.543119,37.900975,1.0,3.0,111.0,59.0,2.2709781469613435,2.2916812839688183,0.0746645250436881,太原直送,0.0746645250436881,山西省,太原市,尖草坪区,古城街道,山西省太原市尖草坪区古城街道林钢路森海湾绿色嘉园,112.53680095904386,37.90044290225996,174_97,112.53543550978544,37.90249090502302,4.0,7023514365.0,112.5365061,37.9008404,140108120100.0,0,0,18
太原直送,CWLS055,CWLS055,16,140108120204,太原***百货商店,112.544113,37.900213,1.0,3.0,111.0,83.33,2.271372320891491,2.2914642371080123,0.075624237516814,太原直送,0.075624237516814,山西省,太原市,尖草坪区,古城街道,山西省太原市尖草坪区古城街道森园南街太原市林业科学研究所,112.53779776043882,37.89968299031313,174_96,112.53543550978544,37.8979942998166,4.0,12450602671.0,112.5371559,37.8995214,140108120204.0,0,0,18
太原直送,CWLS056,CWLS056,54,140108120249,太原***昶烟酒店,112.543251,37.900785,1.0,3.0,111.0,79.67,2.271114355346292,2.291712462445715,0.0748782393489579,太原直送,0.0748782393489579,山西省,太原市,尖草坪区,古城街道,山西省太原市尖草坪区古城街道林钢路,112.53693334382866,37.900253164439896,174_97,112.53543550978544,37.90249090502302,4.0,7023514365.0,112.5365061,37.9008404,140108120249.0,0,0,18
太原直送,CWLS055,CWLS055,11,140108120298,太原***园便利店,112.545339,37.901302,1.0,3.0,111.0,49.67,2.269942033865401,2.289824646036022,0.0748490013092996,太原直送,0.0748490013092996,山西省,太原市,尖草坪区,古城街道,山西省太原市尖草坪区古城街道林溪路森南小区,112.53902692087824,37.90077490783452,175_97,112.5412284380026,37.90249090502302,1.0,12450602674.0,112.5392042,37.899938,140108120298.0,0,0,18
太原直送,CWLS055,CWLS055,17,140108120422,（金***鸿博金虎便利店,112.541757,37.898148,1.0,3.0,111.0,28.33,2.274095500084593,2.294596280455885,0.0771627456808012,太原直送,0.0771627456808012,山西省,太原市,尖草坪区,古城街道,山西省太原市尖草坪区古城街道滨河路南社区龙湾写意,112.53543550586664,37.89761225280761,174_96,112.53543550978544,37.8979942998166,4.0,4225321447.0,112.5354315,37.8988582,140108120422.0,0,0,18
太原直送,CWLS055,CWLS055,10,140108120438,太原***盛烟酒店,112.545339,37.901302,1.0,3.0,111.0,56.33,2.269942033865401,2.289824646036022,0.0748490013092996,太原直送,0.0748490013092996,山西省,太原市,尖草坪区,古城街道,山西省太原市尖草坪区古城街道林溪路森南小区,112.53902692087824,37.90077490783452,175_97,112.5412284380026,37.90249090502302,1.0,12450602674.0,112.5392042,37.899938,140108120438.0,0,0,18
太原直送,CWLS055,CWLS055,14,140108120483,太原***酒便利店,112.544017,37.898428,1.0,3.0,111.0,81.0,2.273090391934511,2.2927426424616426,0.0773447309194313,太原直送,0.0773447309194313,山西省,太原市,尖草坪区,古城街道,山西省太原市尖草坪区古城街道龙湾写意(东北门),112.53770170872043,37.897897436737296,174_96,112.53543550978544,37.8979942998166,4.0,5765529083.0,112.5381078,37.8984845,140108120483.0,0,0,18
太原直送,CWLS055,CWLS055,18,140108120489,太原***航便利店,112.555543,37.901478,1.0,3.0,111.0,44.33,2.266457933559987,2.2822000405683114,0.0777768521155244,太原直送,0.0777768521155244,山西省,太原市,尖草坪区,尖草坪街道,山西省太原市尖草坪区尖草坪街道解放北路161号恒大名都,112.549255617927,37.90097144841212,176_97,112.54702136621977,37.90249090502302,2.0,11262691349.0,112.5492744,37.901109,140108120489.0,0,0,18
太原直送,CWLS055,CWLS055,19,140108120493,太原***庭便利店,112.555705,37.901545,1.0,3.0,111.0,68.33,2.2663421842325566,2.282035583356444,0.077773466863707,太原直送,0.077773466863707,山西省,太原市,尖草坪区,尖草坪街道,山西省太原市尖草坪区尖草坪街道今度烘焙(恒大名都店)恒大名都,112.5494179624231,37.90103875569153,176_97,112.54702136621977,37.90249090502302,2.0,11262691334.0,112.5493254,37.9011054,140108120493.0,0,0,18
太原直送,AWLS017,AWLS017,52,140109121865,太原***烟酒商行,112.540338,37.888902,1.0,1.0,112.0,48.0,2.283295854209432,2.301902589309324,0.0860357118062005,太原直送,0.0860357118062005,山西省,太原市,杏花岭区,巨轮街道,山西省太原市杏花岭区巨轮街道滨河东路太原市汾河景区,112.53401356432956,37.88836121574954,174_94,112.53543550978544,37.88900108940375,4.0,7217344701.0,112.5346844,37.8885167,140109121865.0,0,0,18
太原直送,CWLS055,CWLS055,9,140108120554,太原***合庆烟行,112.544328,37.90025,1.0,3.0,111.0,31.67,2.271266963912874,2.291280856873076,0.075636297331371,太原直送,0.075636297331371,山西省,太原市,尖草坪区,古城街道,山西省太原市尖草坪区古城街道森园南街太原市林业科学研究所,112.53801333730368,37.899720476175375,174_96,112.53543550978544,37.8979942998166,4.0,5316946156.0,112.5374461,37.8990786,140108120554.0,0,0,18
太原直送,CWLS055,CWLS055,7,140108120560,太原***生活超市,112.546053,37.90417,1.0,3.0,111.0,36.67,2.266998278071025,2.287359427903273,0.0722510147264363,太原直送,0.0722510147264363,山西省,太原市,尖草坪区,尖草坪街道,山西省太原市尖草坪区尖草坪街道大同路128号太原交通运输执法局尖草坪区分局(装修中),112.5397424708368,37.90364501226277,175_97,112.5412284380026,37.90249090502302,1.0,7839514427.0,112.5380984,37.9026847,140108120560.0,0,0,18
太原直送,CWLS055,CWLS055,24,140108120586,太原***烟酒商行,112.555543,37.901478,1.0,3.0,111.0,42.33,2.266457933559987,2.2822000405683114,0.0777768521155244,太原直送,0.0777768521155244,山西省,太原市,尖草坪区,尖草坪街道,山西省太原市尖草坪区尖草坪街道解放北路161号恒大名都,112.549255617927,37.90097144841212,176_97,112.54702136621977,37.90249090502302,2.0,11262691349.0,112.5492744,37.901109,140108120586.0,0,0,18
太原直送,CWLS055,CWLS055,23,140108120594,太原***烟酒商行,112.555716,37.901532,1.0,3.0,111.0,60.33,2.266350933270921,2.282036325658505,0.0777895870280819,太原直送,0.0777895870280819,山西省,太原市,尖草坪区,尖草坪街道,山西省太原市尖草坪区尖草坪街道解放北路161号恒大名都,112.54942898781022,37.90102577316685,176_97,112.54702136621977,37.90249090502302,2.0,11262691334.0,112.5493254,37.9011054,140108120594.0,0,0,18
太原直送,CWLS054,CWLS054,19,140107121112,太原***尊烟酒行,112.544532,37.893134,1.0,3.0,111.0,54.33,2.277925415889198,2.295950373232176,0.0826273417338311,太原直送,0.0826273417338311,山西省,太原市,杏花岭区,巨轮街道,山西省太原市杏花岭区巨轮街道胜利街太钢胜西小区,112.53821871759284,37.89260358495394,174_95,112.53543550978544,37.893497694610176,4.0,11280918643.0,112.5385637,37.8926242,140107121112.0,0,0,18
太原直送,CWLS055,CWLS055,13,140108120605,太原***可便利铺,112.543903,37.898345,1.0,3.0,111.0,33.0,2.273206130568014,2.292882740131513,0.0774012254683342,太原直送,0.0774012254683342,山西省,太原市,尖草坪区,古城街道,山西省太原市尖草坪区古城街道龙湾写意(东北门),112.537587408994,37.89781416613725,174_96,112.53543550978544,37.8979942998166,4.0,5765529083.0,112.5381078,37.8984845,140108120605.0,0,0,18
太原直送,CWLS054,CWLS054,11,140107121149,太原***新烟酒店,112.548741,37.893134,1.0,3.0,111.0,35.67,2.276555329538241,2.292858864002309,0.0836068847942529,太原直送,0.0836068847942529,山西省,太原市,杏花岭区,巨轮街道,山西省太原市杏花岭区巨轮街道胜利街阳光尚都小区,112.54243865050236,37.89261261552192,175_95,112.5412284380026,37.893497694610176,4.0,1958797101.0,112.5413144,37.8926086,140107121149.0,0,0,18
太原直送,CWLS054,CWLS054,12,140107121145,太原***来烟酒店,112.547495,37.892598,1.0,3.0,111.0,29.33,2.2774670714188163,2.294137548117375,0.0838160475625027,太原直送,0.0838160475625027,山西省,太原市,杏花岭区,巨轮街道,山西省太原市杏花岭区巨轮街道金刚堰路阳光尚都小区,112.54118955857663,37.8920739053652,175_95,112.5412284380026,37.893497694610176,4.0,2015290465.0,112.5412008,37.8926095,140107121145.0,0,0,18
太原直送,CWLS055,CWLS055,21,140108120651,太原***酒便利店,112.555726,37.901426,1.0,3.0,111.0,24.67,2.2664480186887106,2.282100914512977,0.0778919172828609,太原直送,0.0778919172828609,山西省,太原市,尖草坪区,尖草坪街道,山西省太原市尖草坪区尖草坪街道解放北路161号恒大名都,112.54943902184688,37.90091977105966,176_97,112.54702136621977,37.90249090502302,2.0,11262691334.0,112.5493254,37.9011054,140108120651.0,0,0,18
太原直送,CWLS030,CWLS030,7,140107121190,太原***烟酒商行,112.553726,37.889512,1.0,3.0,111.0,44.33,2.278370145972332,2.2916670380151194,0.088472013936606,太原直送,0.088472013936606,山西省,太原市,杏花岭区,巨轮街道,山西省太原市杏花岭区巨轮街道沙河堡北大街卫生局宿舍,112.54743597084864,37.88899982318996,176_94,112.54702136621977,37.88900108940375,4.0,11235260671.0,112.5481232,37.8887954,140107121190.0,0,0,18
太原直送,CWLS054,CWLS054,13,140107121195,太原***坤烟酒店,112.548993,37.893119,1.0,3.0,111.0,37.67,2.276487708720609,2.2926840698214423,0.0836863727018908,太原直送,0.0836863727018908,山西省,太原市,杏花岭区,巨轮街道,山西省太原市杏花岭区巨轮街道胜利街阳光尚都小区,112.54269128164565,37.89259813390901,175_95,112.5412284380026,37.893497694610176,4.0,1881697249.0,112.5439786,37.8926489,140107121195.0,0,0,18
太原直送,CWLS054,CWLS054,78,140107221200,太原***有限公司,112.550093,37.893136,1.0,3.0,111.0,29.67,2.276114819868496,2.291865217042657,0.0839619631083038,太原直送,0.0839619631083038,山西省,太原市,杏花岭区,巨轮街道,山西省太原市杏花岭区巨轮街道胜利街新建SOHO,112.5437939928042,37.89261738566014,175_95,112.5412284380026,37.893497694610176,4.0,1881697249.0,112.5439786,37.8926489,140107221200.0,0,0,18
太原直送,CWLS055,CWLS055,22,140108120685,太原***烟酒商行,112.555553,37.901461,1.0,3.0,111.0,38.0,2.266470790299315,2.282204231287154,0.0777963233321491,太原直送,0.0777963233321491,山西省,太原市,尖草坪区,尖草坪街道,山西省太原市尖草坪区尖草坪街道解放北路161号恒大名都,112.5492656416903,37.90095446337208,176_97,112.54702136621977,37.90249090502302,2.0,11262691349.0,112.5492744,37.901109,140108120685.0,0,0,18
太原直送,CWLS052,CWLS052,17,140107121222,太原***福安商行,112.55615,37.898499,1.0,3.0,111.0,38.0,2.269081500647561,2.283777158594941,0.0807745231183677,太原直送,0.0807745231183677,山西省,太原市,杏花岭区,巨轮街道,山西省太原市杏花岭区巨轮街道华苑西巷太矿育才苑,112.54986427790558,37.89799297950351,176_96,112.54702136621977,37.8979942998166,4.0,10212278567.0,112.5498678,37.8968468,140107121222.0,0,0,18
太原直送,CWLS053,CWLS053,35,140107121231,太原***锋烟酒店,112.554116,37.89568,1.0,3.0,111.0,26.0,2.272406062835164,2.2871849908673805,0.0827319194628022,太原直送,0.0827319194628022,山西省,太原市,杏花岭区,巨轮街道,山西省太原市杏花岭区巨轮街道金贝壳口腔太矿西苑小区北区,112.54782613362204,37.89516971085394,176_95,112.54702136621977,37.893497694610176,4.0,10212278598.0,112.5498041,37.8949642,140107121231.0,0,0,18
太原直送,CWLS054,CWLS054,24,140107121240,太原***鲜便利店,112.547579,37.896717,1.0,3.0,,27.0,2.273544863055046,2.2912813185222345,0.0798459571424836,太原直送,0.0798459571424836,山西省,太原市,杏花岭区,巨轮街道,山西省太原市杏花岭区巨轮街道大同路16号程西小区,112.5412732930928,37.89619385721248,175_96,112.5412284380026,37.8979942998166,4.0,1959004580.0,112.5411118,37.8958484,140107121240.0,0,0,18
太原直送,BWLS024,BWLS024,26,140107121262,太原***工商户）,112.548697,37.888152,1.0,2.0,111.0,50.33,2.2812822428960864,2.296277136206774,0.0884207379351712,太原直送,0.0884207379351712,山西省,太原市,杏花岭区,三桥街道,山西省太原市杏花岭区三桥街道北大街梅花苑,112.5423951210081,37.88762959729245,175_94,112.5412284380026,37.88900108940375,4.0,2015290455.0,112.5411656,37.8875732,140107121262.0,0,0,18
太原直送,CWLS054,CWLS054,68,140107121276,太原***烟酒商店,112.542749,37.89184,1.0,3.0,111.0,31.0,2.279730786009828,2.2981382818137783,0.0835451407623413,太原直送,0.0835451407623413,山西省,太原市,杏花岭区,巨轮街道,山西省太原市杏花岭区巨轮街道龙湾巷紫薇园,112.53643100572206,37.891305338484486,174_95,112.53543550978544,37.893497694610176,4.0,2010729144.0,112.5363377,37.8902586,140107121276.0,0,0,18
太原直送,BWLS024,BWLS024,16,140107121279,太原***烟酒商行,112.550304,37.887155,1.0,2.0,111.0,35.33,2.2817054730313027,2.295778108508748,0.0897867644199277,太原直送,0.0897867644199277,山西省,太原市,杏花岭区,三桥街道,山西省太原市杏花岭区三桥街道新建路380号柳溪花园,112.54400620363842,37.886635700577685,175_93,112.5412284380026,37.88450448419733,4.0,2004160247.0,112.5441645,37.8875045,140107121279.0,0,0,18
太原直送,CWLS054,CWLS054,52,140107121296,太原***客便利店,112.549165,37.893121,1.0,3.0,111.0,44.33,2.2764299939861954,2.292556462505773,0.0837292067799505,太原直送,0.0837292067799505,山西省,太原市,杏花岭区,巨轮街道,山西省太原市杏花岭区巨轮街道胜利街阳光尚都小区,112.54286370932871,37.89260048872692,175_95,112.5412284380026,37.893497694610176,4.0,1881697249.0,112.5439786,37.8926489,140107121296.0,0,0,18
太原直送,CWLS053,CWLS053,40,140107121306,太原***客便利店,112.540761,37.892262,1.0,3.0,111.0,36.0,2.279982661660606,2.299313910463288,0.0827838920624021,太原直送,0.0827838920624021,山西省,太原市,杏花岭区,巨轮街道,山西省太原市杏花岭区巨轮街道涧河南沿岸龙湾国际,112.5344373790456,37.89172283235252,174_95,112.53543550978544,37.893497694610176,4.0,11262691299.0,112.5341016,37.8911648,140107121306.0,0,0,18
太原直送,BWLS024,BWLS024,69,140107121315,太原***梓便利店,112.547195,37.886715,1.0,2.0,111.0,26.33,2.2831286086753813,2.2983555908181352,0.0894696238284223,太原直送,0.0894696238284223,山西省,太原市,杏花岭区,三桥街道,山西省太原市杏花岭区三桥街道金刚堰路尚都酒店(太原万达广场胜利桥东店),112.54088947462124,37.886189177036506,175_93,112.5412284380026,37.88450448419733,4.0,2015290471.0,112.5410171,37.8874546,140107121315.0,0,0,18
太原直送,CWLS056,CWLS056,48,140108220735,太原***有限公司,112.542935,37.901339,1.0,3.0,111.0,35.0,2.2706946427857697,2.291570846883201,0.0742698658945857,太原直送,0.0742698658945857,山西省,太原市,尖草坪区,古城街道,山西省太原市尖草坪区古城街道林钢路森南小区,112.53661640987748,37.90080655481856,174_97,112.53543550978544,37.90249090502302,4.0,7023514365.0,112.5365061,37.9008404,140108220735.0,0,0,18
太原直送,CWLS055,CWLS055,22,140108120734,太原***远烟酒店,112.539585,37.898281,1.0,3.0,111.0,32.0,2.2746834816299177,2.296106677272856,0.0766539725519835,太原直送,0.0766539725519835,山西省,太原市,尖草坪区,古城街道,山西省太原市尖草坪区古城街道森海湾1期(东门)龙湾艺术天阶,112.53325730127344,37.89774019548088,174_96,112.53543550978544,37.8979942998166,4.0,5316945977.0,112.5337157,37.8988157,140108120734.0,0,0,18
太原直送,CWLS055,CWLS055,2,140108120738,太原***虎便利店,112.542267,37.900089,1.0,3.0,111.0,33.67,2.2720946238579054,2.2929080607789323,0.0753567116586136,太原直送,0.0753567116586136,山西省,太原市,尖草坪区,古城街道,山西省太原市尖草坪区古城街道森园南街社区居民委员会森海湾绿色嘉园,112.53594670474422,37.89955479370511,174_96,112.53543550978544,37.8979942998166,4.0,5316946154.0,112.5358187,37.8990356,140108120738.0,0,0,18
太原直送,CWLS056,CWLS056,34,140108120767,太原***盛烟酒店,112.54315,37.900947,1.0,3.0,111.0,38.33,2.270994431892115,2.291677368037655,0.074698463605347,太原直送,0.074698463605347,山西省,太原市,尖草坪区,古城街道,山西省太原市尖草坪区古城街道林钢路森海湾绿色嘉园,112.53683204753423,37.90041496705288,174_97,112.53543550978544,37.90249090502302,4.0,7023514365.0,112.5365061,37.9008404,140108120767.0,0,0,18
太原直送,CWLS054,CWLS054,82,140107121342,太原***星便利店,112.54481,37.891339,1.0,3.0,111.0,30.67,2.27953157993062,2.296963842371053,0.0844409030328272,太原直送,0.0844409030328272,山西省,太原市,杏花岭区,巨轮街道,山西省太原市杏花岭区巨轮街道胜利桥东路胜利桥东小学,112.53849767313103,37.89080886457267,175_94,112.5412284380026,37.88900108940375,4.0,11280918646.0,112.5385214,37.8906469,140107121342.0,0,0,18
太原直送,CWLS054,CWLS054,33,140107121343,太原***老四商店,112.550785,37.896733,1.0,3.0,111.0,31.0,2.2724877862888504,2.288914794721941,0.0807047592400866,太原直送,0.0807047592400866,山西省,太原市,杏花岭区,巨轮街道,山西省太原市杏花岭区巨轮街道程家村东巷南渣线小区,112.5444872517139,37.896216454440506,176_96,112.54702136621977,37.8979942998166,4.0,4225321458.0,112.5443676,37.8988347,140107121343.0,0,0,18
太原直送,CWLS030,CWLS030,85,140107121360,太原***鲜便利店,112.551812,37.889664,1.0,3.0,111.0,37.0,2.278843781972337,2.29296555312656,0.0877731804254527,太原直送,0.0877731804254527,山西省,太原市,杏花岭区,三桥街道,山西省太原市杏花岭区三桥街道新建路436号鑫汇苑小区,112.54551752399796,37.88914816471199,176_94,112.54702136621977,37.88900108940375,4.0,11235260666.0,112.5466947,37.8890393,140107121360.0,0,0,18
太原直送,BWLS024,BWLS024,27,140107121366,太原***城便利店,112.545544,37.888136,1.0,2.0,111.0,37.0,2.282320999902068,2.2986001692823748,0.0877265082514941,太原直送,0.0877265082514941,山西省,太原市,杏花岭区,三桥街道,山西省太原市杏花岭区三桥街道北大街胜利桥小区,112.53923400056256,37.887606881325794,175_94,112.5412284380026,37.88900108940375,4.0,2013620854.0,112.5384745,37.8873923,140107121366.0,0,0,18
太原直送,CWLS056,CWLS056,34,140108220778,山西***有限公司,112.542909,37.90044,1.0,3.0,111.0,35.0,2.271552428688581,2.292197705019792,0.0751435324229512,太原直送,0.0751435324229512,山西省,太原市,尖草坪区,古城街道,山西省太原市尖草坪区古城街道森林公园森海湾绿色嘉园,112.5365904431849,37.89990732431296,174_96,112.53543550978544,37.8979942998166,4.0,9223571944.0,112.5371194,37.8995211,140108220778.0,0,0,18
