station_name,line_code,line_name,deliver_no,customer_code,customer_name,longitude,latitude,order_cycle_type,order_weekday,city_village_code,avg_order_qty,distance_to_平城直送,distance_to_灵丘中转站,distance_to_太原直送,nearest_station,distance_to_station,province,city,district,township,full_address,lon_84,lat_84,grid_id,LonGridCenter,LatGridCenter,group,customer_osmid_mapping,OSM_X,OSM_Y,BB_RETAIL_CUSTOMER_CODE,kmeans_cluster,dbscan_label,kmeans_label
太原直送,AWLS012,AWLS012,89,140109101359,太原***食便利店,112.510325,37.871798,1.0,1.0,111.0,14.67,2.309395792985042,2.3355709889707947,0.1035447441882021,太原直送,0.1035447441882021,山西省,太原市,万柏林区,和平街道,山西省太原市万柏林区和平街道和平北路玉河苑,112.50390266618082,37.87117286061368,169_90,112.50647086869964,37.87101466857806,4.0,2002383001.0,112.5040926,37.8708935,140109101359.0,0,0,96
太原直送,AWLS012,AWLS012,106,140109109789,太原***食便利店,112.508884,37.877668,1.0,1.0,111.0,32.0,2.304356142263172,2.3326723276159065,0.0980192170240097,太原直送,0.0980192170240097,山西省,太原市,万柏林区,万柏林街道,山西省太原市万柏林区万柏林街道和平北路109-7号和平苑小区,112.5024556936354,37.87703964090158,168_91,112.50067794048248,37.87551127378448,4.0,7840653470.0,112.5038495,37.8766342,140109109789.0,0,0,96
太原直送,AWLS007,AWLS007,55,140109109975,（金***虎副食便利店,112.512615,37.864908,1.0,1.0,111.0,31.33,2.315116762264271,2.338548560231753,0.1100185207544612,太原直送,0.1100185207544612,山西省,太原市,万柏林区,千峰街道,山西省太原市万柏林区千峰街道瓦窑街金域阅山,112.50620181602883,37.864288398069824,169_89,112.50647086869964,37.86651806337164,4.0,2004160212.0,112.5043425,37.8642149,140109109975.0,0,0,96
太原直送,AWLS009,AWLS009,106,140109110347,（唐***亮唐久便利店,112.51816,37.877167,1.0,1.0,111.0,64.67,2.301708946006207,2.326167910868864,0.0972059970629374,太原直送,0.0972059970629374,山西省,太原市,万柏林区,兴华街道,山西省太原市万柏林区兴华街道千峰北路漪汾苑小区红叶里,112.51176522598344,37.87656563080263,170_91,112.5122637969168,37.87551127378448,4.0,5725738480.0,112.5116913,37.8768398,140109110347.0,0,0,96
太原直送,AWLS007,AWLS007,114,140109111081,太原***烟酒商行,112.514531,37.866104,1.0,1.0,111.0,73.67,2.3133486098962663,2.336329256357925,0.1085915216073499,太原直送,0.1085915216073499,山西省,太原市,万柏林区,千峰街道,山西省太原市万柏林区千峰街道公园路金域阅山,112.5081245932204,37.86549020262209,169_89,112.50647086869964,37.86651806337164,4.0,7840653462.0,112.5080777,37.866542,140109111081.0,0,0,96
太原直送,AWLS012,AWLS012,120,140109114936,(金***晋华金虎便利店,112.510237,37.875287,1.0,1.0,111.0,35.67,2.306140487357175,2.333279530793724,0.1001194959635712,太原直送,0.1001194959635712,山西省,太原市,万柏林区,和平街道,山西省太原市万柏林区和平街道和平北路山西三针脑血管病医院,112.50381393247196,37.874662219643696,169_91,112.50647086869964,37.87551127378448,4.0,7840653465.0,112.5039155,37.8747461,140109114936.0,0,0,96
太原直送,AWLS008,AWLS008,43,140109115552,太原***食便利店,112.515472,37.868981,1.0,1.0,122.0,63.33,2.3103225589499403,2.333687422846511,0.1056255531819835,太原直送,0.1056255531819835,山西省,太原市,万柏林区,兴华街道,山西省太原市万柏林区兴华街道后北屯街露泽园小区,112.50906863072017,37.86837043693215,169_89,112.50647086869964,37.86651806337164,4.0,2002382933.0,112.5085479,37.8684274,140109115552.0,0,0,96
太原直送,AWLS008,AWLS008,45,140109115708,太原***睿百货店,112.514993,37.871582,1.0,1.0,122.0,24.67,2.308031769136856,2.332278526187211,0.1030973536081324,太原直送,0.1030973536081324,山西省,太原市,万柏林区,兴华街道,山西省太原市万柏林区兴华街道彭村路和平北路新屯巷3号院,112.50858760727652,37.87097050368657,169_90,112.50647086869964,37.87101466857806,4.0,2002383055.0,112.5085183,37.8709408,140109115708.0,0,0,96
太原直送,AWLS008,AWLS008,41,140109115709,太原***德音烟店,112.515237,37.869904,1.0,1.0,111.0,80.67,2.3095313069125094,2.333235048298821,0.1047351930203027,太原直送,0.1047351930203027,山西省,太原市,万柏林区,兴华街道,山西省太原市万柏林区兴华街道青胜药店滨汾苑,112.50883268011282,37.86929291700082,169_90,112.50647086869964,37.87101466857806,4.0,7215989195.0,112.5086105,37.8691784,140109115709.0,0,0,96
太原直送,AWLS008,AWLS008,44,140109115776,太原***副食商行,112.515107,37.869246,1.0,1.0,122.0,97.33,2.310194884379456,2.3337763717293054,0.1054037969192776,太原直送,0.1054037969192776,山西省,太原市,万柏林区,兴华街道,山西省太原市万柏林区兴华街道彭村路露泽园小区,112.50870229153388,37.86863442434248,169_89,112.50647086869964,37.86651806337164,4.0,2002382933.0,112.5085479,37.8684274,140109115776.0,0,0,96
太原直送,AWLS014,AWLS014,25,140109116840,太原***烟酒商行,112.510591,37.864342,1.0,1.0,111.0,74.67,2.316328521858025,2.340420439418946,0.1108662978772149,太原直送,0.1108662978772149,山西省,太原市,万柏林区,和平街道,山西省太原市万柏林区和平街道和平北路熙馨苑,112.50417051815916,37.863716345761816,169_88,112.50647086869964,37.862021458165216,1.0,2004160251.0,112.5041587,37.8642149,140109116840.0,0,0,96
太原直送,AWLS007,AWLS007,74,140109117176,（金***泽金虎便利店,112.511536,37.872149,1.0,1.0,111.0,24.67,2.308657764834144,2.334441227305577,0.103006317694593,太原直送,0.103006317694593,山西省,太原市,万柏林区,兴华街道,山西省太原市万柏林区兴华街道惠泽巷大唐世家惠泽苑,112.50511804218806,37.87152749310232,169_90,112.50647086869964,37.87101466857806,4.0,2002383001.0,112.5040926,37.8708935,140109117176.0,0,0,96
太原直送,AWLS007,AWLS007,98,140109118602,太原***食便利店,112.516588,37.865033,1.0,1.0,111.0,45.67,2.3136714496438366,2.3355443934466344,0.1094348441996441,太原直送,0.1094348441996441,山西省,太原市,万柏林区,千峰街道,山西省太原市万柏林区千峰街道瓦窑街瓦窑街-道路停车位,112.51018908036592,37.86442497792627,170_89,112.5122637969168,37.86651806337164,4.0,2004160236.0,112.5120859,37.8644231,140109118602.0,0,0,96
太原直送,AWLS007,AWLS007,111,140109118789,太原***酒便利店,112.514246,37.865088,1.0,1.0,111.0,43.0,2.3144014318371813,2.3372276631301863,0.1096340970410193,太原直送,0.1096340970410193,山西省,太原市,万柏林区,千峰街道,山西省太原市万柏林区千峰街道瓦窑街金域阅山,112.507838687478,37.86447319686184,169_89,112.50647086869964,37.86651806337164,4.0,2002383023.0,112.5081555,37.8643175,140109118789.0,0,0,96
太原直送,AWLS012,AWLS012,111,140109118908,（唐***久副食便利店,112.509628,37.877704,1.0,1.0,111.0,20.5,2.3040708433088555,2.3320985641676826,0.0978468054971608,太原直送,0.0978468054971608,山西省,太原市,万柏林区,万柏林街道,山西省太原市万柏林区万柏林街道同仁眼耳鼻堂和平苑小区,112.503202418049,37.877077851426286,168_91,112.50067794048248,37.87551127378448,4.0,7840653470.0,112.5038495,37.8766342,140109118908.0,0,0,96
太原直送,AWLS007,AWLS007,54,140109118976,太原***天泉茶行,112.511388,37.867027,1.0,1.0,111.0,56.0,2.313531768341425,2.33801544696437,0.1080925533096509,太原直送,0.1080925533096509,山西省,太原市,万柏林区,千峰街道,山西省太原市万柏林区千峰街道瓦窑北街金域阅山,112.50497010776677,37.866404159874826,169_89,112.50647086869964,37.86651806337164,4.0,7840653460.0,112.5042563,37.8664553,140109118976.0,0,0,96
太原直送,AWLS013,AWLS013,77,140109119007,太原***食便利店,112.507312,37.870037,1.0,1.0,111.0,34.0,2.312069548640997,2.3389820435599726,0.1058097216563724,太原直送,0.1058097216563724,山西省,太原市,万柏林区,和平街道,山西省太原市万柏林区和平街道玉河小区(建八四宿舍)玉河小区十九号院,112.50087881206288,37.86940261582283,168_90,112.50067794048248,37.87101466857806,4.0,7543286144.0,112.4993813,37.8699713,140109119007.0,0,0,96
太原直送,AWLS012,AWLS012,118,140109119022,(唐***唐久副食便利店,112.510164,37.875812,1.0,1.0,111.0,67.0,2.305670868401207,2.3329790861833657,0.0996147368716041,太原直送,0.0996147368716041,山西省,太原市,万柏林区,万柏林街道,山西省太原市万柏林区万柏林街道和平北路山西三针脑血管病医院,112.50374060351992,37.875187097649686,169_91,112.50647086869964,37.87551127378448,4.0,7840653465.0,112.5039155,37.8747461,140109119022.0,0,0,96
太原直送,AWLS007,AWLS007,73,140109119050,（寸***寸草心便利店,112.511613,37.871634,1.0,1.0,111.0,33.67,2.30911688981762,2.334732642119436,0.1035035935656329,太原直送,0.1035035935656329,山西省,太原市,万柏林区,兴华街道,山西省太原市万柏林区兴华街道惠泽巷大唐世家惠泽苑,112.50519538321126,37.87101262876565,169_90,112.50647086869964,37.87101466857806,4.0,2002383001.0,112.5040926,37.8708935,140109119050.0,0,0,96
太原直送,AWLS012,AWLS012,91,140109119065,（唐***久副食便利店,112.510279,37.87088,1.0,1.0,111.0,24.0,2.3102756949898864,2.3362253535260686,0.1044579253335995,太原直送,0.1044579253335995,山西省,太原市,万柏林区,和平街道,山西省太原市万柏林区和平街道和平北路玉河苑,112.50385660642075,37.87025456296588,169_90,112.50647086869964,37.87101466857806,4.0,2002383001.0,112.5040926,37.8708935,140109119065.0,0,0,96
太原直送,AWLS012,AWLS012,92,140109119162,太原***龙星茶行,112.510576,37.870088,1.0,1.0,111.0,49.33,2.3109215765598763,2.3365420031321893,0.1051918205660455,太原直送,0.1051918205660455,山西省,太原市,万柏林区,兴华街道,山西省太原市万柏林区兴华街道和平北路七星公馆,112.50415478513656,37.86946330078991,169_90,112.50647086869964,37.87101466857806,4.0,7840653464.0,112.5041565,37.8691849,140109119162.0,0,0,96
太原直送,AWLS008,AWLS008,47,140109119213,太原***福烟酒店,112.516668,37.869836,1.0,1.0,111.0,91.33,2.30911704321154,2.3322284909212927,0.104647781027597,太原直送,0.104647781027597,山西省,太原市,万柏林区,兴华街道,山西省太原市万柏林区兴华街道玉河东街智诚天和园,112.51026879959214,37.86922904448542,170_90,112.5122637969168,37.87101466857806,4.0,10304726260.0,112.5118744,37.8692601,140109119213.0,0,0,96
太原直送,AWLS013,AWLS013,80,140109119359,太原***食便利店,112.507429,37.869638,1.0,1.0,111.0,67.33,2.3124056322196123,2.339165352173715,0.1061796191413362,太原直送,0.1061796191413362,山西省,太原市,万柏林区,和平街道,山西省太原市万柏林区和平街道玉河街玉河小区十九号院,112.50099629045027,37.86900389397572,168_90,112.50067794048248,37.87101466857806,4.0,7543286144.0,112.4993813,37.8699713,140109119359.0,0,0,96
太原直送,AWLS012,AWLS012,93,140109119431,太原***货便利店,112.510656,37.866657,1.0,1.0,111.0,43.67,2.3141260641704493,2.3388046516971044,0.1085682990794298,太原直送,0.1085682990794298,山西省,太原市,万柏林区,和平街道,山西省太原市万柏林区和平街道和平北路金域阅山,112.50423548226156,37.8660319379534,169_89,112.50647086869964,37.86651806337164,4.0,7840653460.0,112.5042563,37.8664553,140109119431.0,0,0,96
太原直送,AWLS009,AWLS009,105,140109119497,太原***赵副食店,112.518182,37.876195,1.0,1.0,111.0,67.33,2.302617649164748,2.326809090793656,0.0981716956408477,太原直送,0.0981716956408477,山西省,太原市,万柏林区,兴华街道,山西省太原市万柏林区兴华街道千峰北路漪汾苑小区红叶里,112.511787418091,37.87559351968954,170_91,112.5122637969168,37.87551127378448,4.0,5725738499.0,112.511773,37.874724,140109119497.0,0,0,96
太原直送,AWLS007,AWLS007,72,140109119503,太原***食便利店,112.511687,37.871614,1.0,1.0,111.0,79.67,2.3091108491168195,2.3346916407204628,0.1035121803315901,太原直送,0.1035121803315901,山西省,太原市,万柏林区,兴华街道,山西省太原市万柏林区兴华街道新屯巷大唐世家惠泽苑,112.505269654824,37.87099284292593,169_90,112.50647086869964,37.87101466857806,4.0,2002383001.0,112.5040926,37.8708935,140109119503.0,0,0,96
太原直送,AWLS012,AWLS012,115,140109119594,太原***食经销部,112.510148,37.875998,1.0,1.0,111.0,26.0,2.3055011681458724,2.3328653834512143,0.0994342699978188,太原直送,0.0994342699978188,山西省,太原市,万柏林区,万柏林街道,山西省太原市万柏林区万柏林街道和平北路山西三针脑血管病医院,112.50372452303452,37.87537308360139,169_91,112.50647086869964,37.87551127378448,4.0,7840653465.0,112.5039155,37.8747461,140109119594.0,0,0,96
太原直送,AWLS008,AWLS008,48,140109119633,太原***副食商行,112.517146,37.869949,1.0,1.0,111.0,67.0,2.308850918134172,2.3318003963126883,0.1044878636253995,太原直送,0.1044878636253995,山西省,太原市,万柏林区,兴华街道,山西省太原市万柏林区兴华街道玉河东街智诚天和园,112.5107484854606,37.86934344087413,170_90,112.5122637969168,37.87101466857806,4.0,10304726260.0,112.5118744,37.8692601,140109119633.0,0,0,96
太原直送,AWLS012,AWLS012,113,140109119664,太原***生鲜超市,112.510146,37.877296,1.0,1.0,111.0,67.67,2.304279974520888,2.3319912101423044,0.0981563152221968,太原直送,0.0981563152221968,山西省,太原市,万柏林区,万柏林街道,山西省太原市万柏林区万柏林街道和平北路太和佳苑,112.50372236241611,37.87667131013328,169_91,112.50647086869964,37.87551127378448,4.0,7840653470.0,112.5038495,37.8766342,140109119664.0,0,0,96
太原直送,AWLS008,AWLS008,50,140109119681,太原***百货商行,112.51835,37.869697,1.0,1.0,111.0,99.33,2.3086868526469737,2.3310860014757053,0.1046288954591381,太原直送,0.1046288954591381,山西省,太原市,万柏林区,兴华街道,山西省太原市万柏林区兴华街道千峰北路智诚天和园,112.5119567757506,37.86909484958414,170_90,112.5122637969168,37.87101466857806,4.0,10304726260.0,112.5118744,37.8692601,140109119681.0,0,0,96
太原直送,AWLS012,AWLS012,108,140109119701,太原***生鲜超市,112.509421,37.877729,1.0,1.0,111.0,32.67,2.3041172432287342,2.3322345820026285,0.0978598088083109,太原直送,0.0978598088083109,山西省,太原市,万柏林区,万柏林街道,山西省太原市万柏林区万柏林街道同仁眼耳鼻堂和平苑小区,112.50299465651126,37.87710224312113,168_91,112.50067794048248,37.87551127378448,4.0,7840653470.0,112.5038495,37.8766342,140109119701.0,0,0,96
太原直送,AWLS013,AWLS013,78,140109119716,太原***蔬便利店,112.507307,37.870175,1.0,1.0,111.0,87.0,2.311941340233352,2.338892506551977,0.1056751532764401,太原直送,0.1056751532764401,山西省,太原市,万柏林区,和平街道,山西省太原市万柏林区和平街道玉河小区(建八四宿舍)玉河小区十九号院,112.50087377731866,37.86954062516778,168_90,112.50067794048248,37.87101466857806,4.0,7543286144.0,112.4993813,37.8699713,140109119716.0,0,0,96
太原直送,AWLS007,AWLS007,52,140109119789,太原***德百货店,112.512878,37.864998,1.0,1.0,111.0,57.67,2.3149438948194825,2.3382942016189903,0.1098945187441105,太原直送,0.1098945187441105,山西省,太原市,万柏林区,千峰街道,山西省太原市万柏林区千峰街道瓦窑街金域阅山,112.5064657582886,37.864379184372126,169_89,112.50647086869964,37.86651806337164,4.0,2002383023.0,112.5081555,37.8643175,140109119789.0,0,0,96
太原直送,AWLS007,AWLS007,89,140109119973,太原***福源茶庄,112.510742,37.868444,1.0,1.0,111.0,26.67,2.3124140491949143,2.3375318162979144,0.106789393677465,太原直送,0.106789393677465,山西省,太原市,万柏林区,千峰街道,山西省太原市万柏林区千峰街道和平北路玉门河公园,112.50432158527626,37.867819502826805,169_89,112.50647086869964,37.86651806337164,4.0,7215989148.0,112.5041913,37.8682554,140109119973.0,0,0,96
太原直送,AWLS007,AWLS007,77,140109120010,太原***发副食店,112.512708,37.873138,1.0,1.0,111.0,85.33,2.307332364641471,2.332909011990178,0.1018546525692377,太原直送,0.1018546525692377,山西省,太原市,万柏林区,兴华街道,山西省太原市万柏林区兴华街道太原客源来宾馆大唐世家惠泽苑,112.50629418240258,37.87252011028536,169_90,112.50647086869964,37.87101466857806,4.0,4209263834.0,112.5084249,37.8726611,140109120010.0,0,0,96
太原直送,AWLS012,AWLS012,149,140109120067,太原***烟酒商行,112.51008,37.877556,1.0,1.0,111.0,52.0,2.3040575144926394,2.331864590231815,0.0979119049860635,太原直送,0.0979119049860635,山西省,太原市,万柏林区,万柏林街道,山西省太原市万柏林区万柏林街道和平北路105号汉庭优佳酒店(太原和平北路店),112.5036560902811,37.87693116173247,169_91,112.50647086869964,37.87551127378448,4.0,7840653470.0,112.5038495,37.8766342,140109120067.0,0,0,96
太原直送,AWLS013,AWLS013,65,140109120273,（唐***源唐久便利店,112.507003,37.869456,1.0,1.0,111.0,54.67,2.312720760118913,2.339602378587012,0.1064387958828916,太原直送,0.1064387958828916,山西省,太原市,万柏林区,和平街道,山西省太原市万柏林区和平街道玉河街玉河小区十九号院,112.5005687413063,37.86882059412488,168_90,112.50067794048248,37.87101466857806,4.0,7543286144.0,112.4993813,37.8699713,140109120273.0,0,0,96
太原直送,AWLS013,AWLS013,74,140109120329,太原***副食商店,112.518126,37.875867,1.0,1.0,111.0,28.67,2.302945500747468,2.327072215338409,0.0985034804715035,太原直送,0.0985034804715035,山西省,太原市,万柏林区,兴华街道,山西省太原市万柏林区兴华街道千峰北路山西省农机监理站,112.51173125896216,37.87526530079492,170_91,112.5122637969168,37.87551127378448,4.0,5725738499.0,112.511773,37.874724,140109120329.0,0,0,96
太原直送,AWLS007,AWLS007,68,140109120351,(唐***唐久副食便利店,112.510912,37.870124,1.0,1.0,111.0,59.33,2.3107746728389595,2.336270140515644,0.1051033868245935,太原直送,0.1051033868245935,山西省,太原市,万柏林区,兴华街道,山西省太原市万柏林区兴华街道和平北路47号七星公馆,112.504492007302,37.86950029835158,169_90,112.50647086869964,37.87101466857806,4.0,7840653464.0,112.5041565,37.8691849,140109120351.0,0,0,96
太原直送,AWLS012,AWLS012,94,140109120368,太原***酒经销部,112.510558,37.866738,1.0,1.0,111.0,46.33,2.314082688350181,2.338821936429746,0.1085033282899653,太原直送,0.1085033282899653,山西省,太原市,万柏林区,和平街道,山西省太原市万柏林区和平街道和平北路聚馨苑,112.5041371148478,37.86611266278502,169_89,112.50647086869964,37.86651806337164,4.0,7840653460.0,112.5042563,37.8664553,140109120368.0,0,0,96
太原直送,AWLS007,AWLS007,103,140109120435,太原***龙烟酒店,112.513314,37.864951,1.0,1.0,111.0,33.0,2.3148422513054783,2.33800556082316,0.1098847965143509,太原直送,0.1098847965143509,山西省,太原市,万柏林区,千峰街道,山西省太原市万柏林区千峰街道瓦窑街金域阅山,112.50690334127964,37.8643334524005,169_89,112.50647086869964,37.86651806337164,4.0,2002383023.0,112.5081555,37.8643175,140109120435.0,0,0,96
太原直送,AWLS008,AWLS008,46,140109120459,太原***茂冷饮店,112.516076,37.869973,1.0,1.0,111.0,70.67,2.309185716495101,2.3325710936423767,0.1045733330682319,太原直送,0.1045733330682319,山西省,太原市,万柏林区,兴华街道,山西省太原市万柏林区兴华街道玉河东街滨汾苑,112.50967467324388,37.86936435932164,170_90,112.5122637969168,37.87101466857806,4.0,7215989195.0,112.5086105,37.8691784,140109120459.0,0,0,96
太原直送,AWLS007,AWLS007,91,140109120534,太原***闽创茶行,112.512897,37.869811,1.0,1.0,111.0,72.0,2.3104028362145006,2.335020143107338,0.1051223964719227,太原直送,0.1051223964719227,山西省,太原市,万柏林区,兴华街道,山西省太原市万柏林区兴华街道玉河东街后北屯中奥小区,112.50648425950332,37.869193077573534,169_90,112.50647086869964,37.87101466857806,4.0,7215989139.0,112.5063878,37.8681905,140109120534.0,0,0,96
太原直送,AWLS007,AWLS007,94,140109120549,太原***副食商行,112.511462,37.873034,1.0,1.0,111.0,35.33,2.30784922233538,2.3338976421439352,0.1021432662587234,太原直送,0.1021432662587234,山西省,太原市,万柏林区,兴华街道,山西省太原市万柏林区兴华街道惠泽巷大唐世家惠泽苑,112.5050436683361,37.8724124318619,169_90,112.50647086869964,37.87101466857806,4.0,4209263825.0,112.5039946,37.8725374,140109120549.0,0,0,96
太原直送,AWLS012,AWLS012,100,140109120600,太原***乐美超市,112.51029,37.876229,1.0,1.0,111.0,22.33,2.3052358064981098,2.332604713160804,0.0991822958244028,太原直送,0.0991822958244028,山西省,太原市,万柏林区,兴华街道,山西省太原市万柏林区兴华街道和平北路佳境观邸,112.50386701499863,37.87560454446793,169_91,112.50647086869964,37.87551127378448,4.0,7840653465.0,112.5039155,37.8747461,140109120600.0,0,0,96
太原直送,AWLS013,AWLS013,66,140109120682,太原***酒便利店,112.506312,37.869233,1.0,1.0,111.0,54.67,2.313164055544916,2.3402625013685983,0.1067913220303956,太原直送,0.1067913220303956,山西省,太原市,万柏林区,和平街道,山西省太原市万柏林区和平街道玉河街和平北路派出所,112.49987521675284,37.86859549614015,168_89,112.50067794048248,37.86651806337164,4.0,7543286144.0,112.4993813,37.8699713,140109120682.0,0,0,96
太原直送,AWLS007,AWLS007,81,140109120704,（金***针金虎便利店,112.515444,37.873228,1.0,1.0,111.0,35.33,2.306329780596436,2.330832641976895,0.1014096150569567,太原直送,0.1014096150569567,山西省,太原市,万柏林区,兴华街道,山西省太原市万柏林区兴华街道漪汾街122号海唐·居业100城,112.5090400300586,37.8726181035486,169_90,112.50647086869964,37.87101466857806,4.0,4209263834.0,112.5084249,37.8726611,140109120704.0,0,0,96
太原直送,AWLS012,AWLS012,96,140109120754,太原***生鲜超市,112.510317,37.874989,1.0,1.0,111.0,17.67,2.306394061747471,2.3334216533633594,0.1003995950788637,太原直送,0.1003995950788637,山西省,太原市,万柏林区,和平街道,山西省太原市万柏林区和平街道和平北路丽珠花园,112.50389426013798,37.87436440285339,169_91,112.50647086869964,37.87551127378448,4.0,7840653465.0,112.5039155,37.8747461,140109120754.0,0,0,96
太原直送,AWLS013,AWLS013,73,140109120808,太原***百货商店,112.512078,37.8773,1.0,1.0,111.0,14.33,2.3036248186199937,2.330562462019199,0.0978333566530351,太原直送,0.0978333566530351,山西省,太原市,万柏林区,兴华街道,山西省太原市万柏林区兴华街道彭西四巷建机小区,112.50566140531345,37.87668100379977,169_91,112.50647086869964,37.87551127378448,4.0,7840653470.0,112.5038495,37.8766342,140109120808.0,0,0,96
太原直送,AWLS007,AWLS007,93,140109120860,太原***百货商行,112.510961,37.872548,1.0,1.0,111.0,37.0,2.3084754671221863,2.3345953589746564,0.1027018999288693,太原直送,0.1027018999288693,山西省,太原市,万柏林区,兴华街道,山西省太原市万柏林区兴华街道和平北路19号大唐世家惠泽苑,112.5045408999067,37.87192486995805,169_90,112.50647086869964,37.87101466857806,4.0,7543286173.0,112.5038657,37.8723469,140109120860.0,0,0,96
太原直送,AWLS007,AWLS007,88,140109120874,太原***雨林茶行,112.510735,37.868469,1.0,1.0,111.0,53.67,2.3123928560424183,2.3375200542679866,0.1067657812222638,太原直送,0.1067657812222638,山西省,太原市,万柏林区,千峰街道,山西省太原市万柏林区千峰街道和平北路玉门河公园,112.50431455677509,37.86784448654091,169_89,112.50647086869964,37.86651806337164,4.0,7215989148.0,112.5041913,37.8682554,140109120874.0,0,0,96
太原直送,AWLS012,AWLS012,90,140109120887,太原***小英烟店,112.510279,37.870842,1.0,1.0,111.0,16.67,2.3103114776906133,2.336251041184143,0.1044954180670096,太原直送,0.1044954180670096,山西省,太原市,万柏林区,和平街道,山西省太原市万柏林区和平街道和平北路大唐世家,112.50385661090746,37.87021655627973,169_90,112.50647086869964,37.87101466857806,4.0,2002383001.0,112.5040926,37.8708935,140109120887.0,0,0,96
太原直送,AWLS007,AWLS007,49,140109120888,太原***烟酒商行,112.511426,37.864746,3.0,1.0,111.0,42.0,2.315667830000238,2.339532608317525,0.1103437651070525,太原直送,0.1103437651070525,山西省,太原市,万柏林区,千峰街道,山西省太原市万柏林区千峰街道瓦窑街景鸿大厦,112.50500851528014,37.86412287676488,169_88,112.50647086869964,37.862021458165216,1.0,2004160212.0,112.5043425,37.8642149,140109120888.0,0,0,96
太原直送,AWLS007,AWLS007,113,140109120941,太原***酒便利店,112.515518,37.865367,1.0,1.0,111.0,32.0,2.313713539141136,2.3361037513483844,0.1092126293108991,太原直送,0.1092126293108991,山西省,太原市,万柏林区,千峰街道,山西省太原市万柏林区千峰街道瓦窑街22号九润万里茶城,112.5091152211339,37.86475594184807,169_89,112.50647086869964,37.86651806337164,4.0,2002383023.0,112.5081555,37.8643175,140109120941.0,0,0,96
太原直送,AWLS012,AWLS012,121,140109121052,太原***展便利店,112.509609,37.873016,1.0,1.0,111.0,21.67,2.308490246652344,2.335276058184557,0.1024645459903074,太原直送,0.1024645459903074,山西省,太原市,万柏林区,万柏林街道,山西省太原市万柏林区万柏林街道东门路太原市万柏林区人民法院,112.50318390221844,37.87238895889937,168_90,112.50067794048248,37.87101466857806,4.0,7543286173.0,112.5038657,37.8723469,140109121052.0,0,0,96
太原直送,AWLS007,AWLS007,80,140109121055,太原***鲜便利店,112.514966,37.872709,1.0,1.0,111.0,62.67,2.306978918596569,2.331535769248241,0.1019817517254904,太原直送,0.1019817517254904,山西省,太原市,万柏林区,兴华街道,山西省太原市万柏林区兴华街道彭村路海唐·居业100城,112.5085603775583,37.87209762433203,169_90,112.50647086869964,37.87101466857806,4.0,4209263834.0,112.5084249,37.8726611,140109121055.0,0,0,96
太原直送,AWLS013,AWLS013,71,140109121117,太原***便利商店,112.516345,37.877427,1.0,1.0,111.0,57.33,2.302071599273143,2.327329662093662,0.097134942013676,太原直送,0.097134942013676,山西省,太原市,万柏林区,兴华街道,山西省太原市万柏林区兴华街道彭西四巷茂华小区,112.50994375483756,37.87682045951322,170_91,112.5122637969168,37.87551127378448,4.0,7840653473.0,112.5083255,37.8767125,140109121117.0,0,0,96
太原直送,AWLS007,AWLS007,100,140109121126,太原***吉烟酒店,112.518262,37.865058,1.0,1.0,111.0,84.33,2.313090342224016,2.3342982622700608,0.1092588769208264,太原直送,0.1092588769208264,山西省,太原市,万柏林区,千峰街道,山西省太原市万柏林区千峰街道瓦窑街中海学仕里(建设中),112.51186901119549,37.864454790769344,170_89,112.5122637969168,37.86651806337164,4.0,2004160236.0,112.5120859,37.8644231,140109121126.0,0,0,96
太原直送,AWLS007,AWLS007,78,140109121154,太原***百货商行,112.513412,37.87256,1.0,1.0,111.0,65.33,2.307640400827216,2.332781110654188,0.1023288563895816,太原直送,0.1023288563895816,山西省,太原市,万柏林区,兴华街道,山西省太原市万柏林区兴华街道漪汾街64号漪鑫雅园,112.50700079827914,37.87194406877803,169_90,112.50647086869964,37.87101466857806,4.0,4209263834.0,112.5084249,37.8726611,140109121154.0,0,0,96
太原直送,AWLS007,AWLS007,70,140109121209,太原***鲜便利店,112.512135,37.871591,1.0,1.0,111.0,53.67,2.308981952644928,2.3343771291710738,0.1034683375144261,太原直送,0.1034683375144261,山西省,太原市,万柏林区,兴华街道,山西省太原市万柏林区兴华街道新屯巷大唐世家惠泽苑,112.50571928603938,37.870971155619486,169_90,112.50647086869964,37.87101466857806,4.0,2002383001.0,112.5040926,37.8708935,140109121209.0,0,0,96
太原直送,AWLS007,AWLS007,71,140109121239,（唐***佳唐久便利店,112.512135,37.871591,1.0,1.0,111.0,55.67,2.308981952644928,2.3343771291710738,0.1034683375144261,太原直送,0.1034683375144261,山西省,太原市,万柏林区,兴华街道,山西省太原市万柏林区兴华街道新屯巷大唐世家惠泽苑,112.50571928603938,37.870971155619486,169_90,112.50647086869964,37.87101466857806,4.0,2002383001.0,112.5040926,37.8708935,140109121239.0,0,0,96
太原直送,AWLS007,AWLS007,99,140109121251,（金***锋金虎便利店,112.517329,37.865241,1.0,1.0,111.0,59.0,2.3132284029174466,2.33485904200339,0.1091577120500431,太原直送,0.1091577120500431,山西省,太原市,万柏林区,千峰街道,山西省太原市万柏林区千峰街道民政局宿舍瓦窑街-道路停车位,112.51093268906992,37.86463514728846,170_89,112.5122637969168,37.86651806337164,4.0,2004160236.0,112.5120859,37.8644231,140109121251.0,0,0,96
太原直送,AWLS007,AWLS007,95,140109121284,太原***食便利店,112.512165,37.871604,1.0,1.0,111.0,69.0,2.3089596290453005,2.3343462373028583,0.1034510865336863,太原直送,0.1034510865336863,山西省,太原市,万柏林区,兴华街道,山西省太原市万柏林区兴华街道新屯巷大唐世家惠泽苑,112.50574939345952,37.870984246016114,169_90,112.50647086869964,37.87101466857806,4.0,2002383001.0,112.5040926,37.8708935,140109121284.0,0,0,96
太原直送,AWLS012,AWLS012,99,140109121394,太原***鲜便利店,112.512446,37.875813,3.0,1.0,111.0,20.5,2.3049011674397226,2.3312948294619456,0.0992468151075873,太原直送,0.0992468151075873,山西省,太原市,万柏林区,兴华街道,山西省太原市万柏林区兴华街道和平北路95号和佳·世纪柏林,112.5060309168048,37.87519481790998,169_91,112.50647086869964,37.87551127378448,4.0,7840653465.0,112.5039155,37.8747461,140109121394.0,0,0,96
太原直送,AWLS007,AWLS007,79,140109121493,太原***货经销部,112.514737,37.873202,1.0,1.0,111.0,25.67,2.3065911699286903,2.3313709141931938,0.1015204522103795,太原直送,0.1015204522103795,山西省,太原市,万柏林区,兴华街道,山西省太原市万柏林区兴华街道漪汾街101号漪鑫雅园,112.5083304971187,37.8725900460061,169_90,112.50647086869964,37.87101466857806,4.0,4209263834.0,112.5084249,37.8726611,140109121493.0,0,0,96
太原直送,AWLS012,AWLS012,24,140109121625,太原***生活超市,112.512555,37.875493,1.0,1.0,111.0,54.0,2.305165850443736,2.3314305539254168,0.0995470298100338,太原直送,0.0995470298100338,山西省,太原市,万柏林区,兴华街道,山西省太原市万柏林区兴华街道和平北路95号和佳·世纪柏林,112.50614034991604,37.87487508049647,169_91,112.50647086869964,37.87551127378448,4.0,7840653465.0,112.5039155,37.8747461,140109121625.0,0,0,96
太原直送,AWLS012,AWLS012,26,140109121645,（唐***峰唐久便利店,112.510332,37.876474,1.0,1.0,111.0,55.33,2.3049909992349167,2.3324084079562417,0.0989337226733088,太原直送,0.0989337226733088,山西省,太原市,万柏林区,兴华街道,山西省太原市万柏林区兴华街道和平北路佳境观邸,112.5039091395992,37.87584971236734,169_91,112.50647086869964,37.87551127378448,4.0,7840653470.0,112.5038495,37.8766342,140109121645.0,0,0,96
太原直送,AWLS007,AWLS007,17,140109121667,（金***委金虎便利店,112.513544,37.867142,1.0,1.0,111.0,23.33,2.3127006512028307,2.336351435946442,0.1076823504665436,太原直送,0.1076823504665436,山西省,太原市,万柏林区,千峰街道,山西省太原市万柏林区千峰街道瓦窑北街金域阅山,112.50713391398462,37.86652550434938,169_89,112.50647086869964,37.86651806337164,4.0,7840653462.0,112.5080777,37.866542,140109121667.0,0,0,96
太原直送,AWLS013,AWLS013,16,140109121742,太原***百货商行,112.517749,37.877439,1.0,1.0,111.0,29.67,2.301590105492286,2.326286820521709,0.0969747902910819,太原直送,0.0969747902910819,山西省,太原市,万柏林区,兴华街道,山西省太原市万柏林区兴华街道彭西四巷茂华小区,112.51135274103312,37.87683650214096,170_91,112.5122637969168,37.87551127378448,4.0,7012631130.0,112.5115704,37.8768369,140109121742.0,0,0,96
太原直送,AWLS007,AWLS007,16,140109121763,太原***威生鲜店,112.511388,37.866227,1.0,1.0,111.0,49.33,2.3142853752994665,2.3385572146612104,0.1088839091923105,太原直送,0.1088839091923105,山西省,太原市,万柏林区,千峰街道,山西省太原市万柏林区千峰街道新精武少儿武术散打培训(万柏林校区)金域阅山,112.50497020216348,37.86560402100774,169_89,112.50647086869964,37.86651806337164,4.0,7840653460.0,112.5042563,37.8664553,140109121763.0,0,0,96
太原直送,AWLS007,AWLS007,18,140109121821,太原***荣便利店,112.514549,37.865775,1.0,1.0,111.0,69.33,2.313652666040431,2.336539101314803,0.1089161409525684,太原直送,0.1089161409525684,山西省,太原市,万柏林区,千峰街道,山西省太原市万柏林区千峰街道公园路金域阅山,112.5081426967136,37.86516119803135,169_89,112.50647086869964,37.86651806337164,4.0,2002383023.0,112.5081555,37.8643175,140109121821.0,0,0,96
太原直送,AWLS007,AWLS007,12,140109121853,（唐***杰唐久便利店,112.513001,37.864966,1.0,1.0,111.0,50.33,2.314932871845959,2.3382254734875283,0.109910180570314,太原直送,0.109910180570314,山西省,太原市,万柏林区,千峰街道,山西省太原市万柏林区千峰街道瓦窑街金域阅山,112.50658920735906,37.86434753906793,169_89,112.50647086869964,37.86651806337164,4.0,2002383023.0,112.5081555,37.8643175,140109121853.0,0,0,96
太原直送,AWLS012,AWLS012,40,140109121934,太原***兴烟酒店,112.508685,37.873109,1.0,1.0,111.0,28.33,2.30871439112247,2.335894803980906,0.10253659454068,太原直送,0.10253659454068,山西省,太原市,万柏林区,和平街道,山西省太原市万柏林区和平街道和平北路83号太重青年公寓,112.50225650154304,37.87247923731104,168_90,112.50067794048248,37.87101466857806,4.0,4209263837.0,112.5038598,37.8725374,140109121934.0,0,0,96
太原直送,AWLS007,AWLS007,22,140109121951,太原***化熟食店,112.512718,37.871639,1.0,1.0,111.0,23.67,2.308740927557914,2.333915200894832,0.1033370167993982,太原直送,0.1033370167993982,山西省,太原市,万柏林区,兴华街道,山西省太原市万柏林区兴华街道新屯巷大唐世家惠泽苑,112.50630439546698,37.87102087459498,169_90,112.50647086869964,37.87101466857806,4.0,2002383055.0,112.5085183,37.8709408,140109121951.0,0,0,96
太原直送,AWLS007,AWLS007,14,140109121960,太原***烟酒商行,112.510747,37.86845,1.0,1.0,111.0,60.33,2.312406717782361,2.337524074872813,0.1067826913174567,太原直送,0.1067826913174567,山西省,太原市,万柏林区,千峰街道,山西省太原市万柏林区千峰街道和平北路玉门河公园,112.50432660281788,37.86782551862511,169_89,112.50647086869964,37.86651806337164,4.0,7215989148.0,112.5041913,37.8682554,140109121960.0,0,0,96
太原直送,AWLS013,AWLS013,54,140109122013,太原***烟酒商行,112.513002,37.877288,1.0,1.0,111.0,64.67,2.3033250922025736,2.32988879663322,0.0977057915683593,太原直送,0.0977057915683593,山西省,太原市,万柏林区,兴华街道,山西省太原市万柏林区兴华街道彭西四巷太原恒大书院(建设中),112.50658875770056,37.876671711537966,169_91,112.50647086869964,37.87551127378448,4.0,7840653473.0,112.5083255,37.8767125,140109122013.0,0,0,96
太原直送,AWLS007,AWLS007,19,140109122037,太原***锦烟酒店,112.517016,37.865035,1.0,1.0,111.0,48.0,2.31352691448468,2.335228718991783,0.109391815018309,太原直送,0.109391815018309,山西省,太原市,万柏林区,千峰街道,山西省太原市万柏林区千峰街道瓦窑街瓦窑街-道路停车位,112.51061860230256,37.86442821147216,170_89,112.5122637969168,37.86651806337164,4.0,2004160236.0,112.5120859,37.8644231,140109122037.0,0,0,96
太原直送,AWLS007,AWLS007,26,140109122038,太原***客便利店,112.516547,37.873241,1.0,1.0,111.0,35.33,2.305948333052584,2.330011710927004,0.1012737346008312,太原直送,0.1012737346008312,山西省,太原市,万柏林区,兴华街道,山西省太原市万柏林区兴华街道漪汾街太原大东海浴场酒店,112.51014696777138,37.872634295870725,170_90,112.5122637969168,37.87101466857806,4.0,7012633288.0,112.5117094,37.8727798,140109122038.0,0,0,96
太原直送,AWLS007,AWLS007,9,140109122052,太原***景烟酒店,112.510951,37.863893,1.0,1.0,111.0,68.0,2.31663072709053,2.3404599725611592,0.1112567457011037,太原直送,0.1112567457011037,山西省,太原市,万柏林区,千峰街道,山西省太原市万柏林区千峰街道和平北路景鸿大厦,112.50453188493908,37.8632683304274,169_88,112.50647086869964,37.862021458165216,1.0,2004160212.0,112.5043425,37.8642149,140109122052.0,0,0,96
太原直送,AWLS012,AWLS012,42,140109122120,太原***将便利店,112.509203,37.877293,1.0,1.0,111.0,16.67,2.3046012595614,2.332689544981284,0.0983283814572344,太原直送,0.0983283814572344,山西省,太原市,万柏林区,万柏林街道,山西省太原市万柏林区万柏林街道太和佳苑,112.50277590862572,37.8766655191214,168_91,112.50067794048248,37.87551127378448,4.0,7840653470.0,112.5038495,37.8766342,140109122120.0,0,0,96
太原直送,AWLS009,AWLS009,154,140109122195,太原***烟酒商行,112.5183,37.874379,1.0,1.0,111.0,46.67,2.3042898458703087,2.327951026619764,0.0999693160174673,太原直送,0.0999693160174673,山西省,太原市,万柏林区,兴华街道,山西省太原市万柏林区兴华街道千峰北路漪汾苑小区叠翠坊,112.51190604832578,37.87377753337496,170_91,112.5122637969168,37.87551127378448,4.0,1108618398.0,112.5118654,37.8729705,140109122195.0,0,0,96
太原直送,AWLS008,AWLS008,16,140109122243,太原***烟酒商行,112.516334,37.868914,1.0,1.0,111.0,59.0,2.310097651583156,2.3330989112107963,0.1055991975443013,太原直送,0.1055991975443013,山西省,太原市,万柏林区,兴华街道,山西省太原市万柏林区兴华街道后北屯街露泽园小区,112.50993371839888,37.86830591929432,170_89,112.5122637969168,37.86651806337164,4.0,7215989174.0,112.509615,37.8673575,140109122243.0,0,0,96
太原直送,AWLS007,AWLS007,40,140109122253,太原***鲜便利店,112.513683,37.869796,1.0,1.0,111.0,67.33,2.310153427996718,2.334451726108293,0.1050325173886615,太原直送,0.1050325173886615,山西省,太原市,万柏林区,兴华街道,山西省太原市万柏林区兴华街道玉河东街后北屯中奥小区,112.50727310292972,37.86918037383354,169_90,112.50647086869964,37.87101466857806,4.0,7215989139.0,112.5063878,37.8681905,140109122253.0,0,0,96
太原直送,AWLS007,AWLS007,34,140109122254,太原***乐便利店,112.518113,37.865069,1.0,1.0,111.0,60.33,2.313129551066261,2.334400176660591,0.1092603325823239,太原直送,0.1092603325823239,山西省,太原市,万柏林区,千峰街道,山西省太原市万柏林区千峰街道瓦窑街瓦窑街-道路停车位,112.51171948394096,37.86446536631348,170_89,112.5122637969168,37.86651806337164,4.0,2004160236.0,112.5120859,37.8644231,140109122254.0,0,0,96
太原直送,AWLS007,AWLS007,38,140109122256,（金***晋锦金虎便利,112.513695,37.869795,1.0,1.0,111.0,45.67,2.310150348508076,2.3344435709018514,0.1050319546995056,太原直送,0.1050319546995056,山西省,太原市,万柏林区,兴华街道,山西省太原市万柏林区兴华街道玉河东街后北屯中奥小区,112.5072851463596,37.86917940870267,169_90,112.50647086869964,37.87101466857806,4.0,7215989195.0,112.5086105,37.8691784,140109122256.0,0,0,96
太原直送,AWLS007,AWLS007,36,140109122282,太原***春沐茶行,112.51075,37.868425,1.0,1.0,111.0,20.0,2.3124292553626336,2.3375387823135645,0.10680692474273,太原直送,0.10680692474273,山西省,太原市,万柏林区,千峰街道,山西省太原市万柏林区千峰街道和平北路玉门河公园,112.50432961671852,37.86780052311027,169_89,112.50647086869964,37.86651806337164,4.0,7215989148.0,112.5041913,37.8682554,140109122282.0,0,0,96
太原直送,AWLS007,AWLS007,32,140109122290,太原***鲜便利店,112.518113,37.865069,1.0,1.0,111.0,36.67,2.313129551066261,2.334400176660591,0.1092603325823239,太原直送,0.1092603325823239,山西省,太原市,万柏林区,千峰街道,山西省太原市万柏林区千峰街道瓦窑街瓦窑街-道路停车位,112.51171948394096,37.86446536631348,170_89,112.5122637969168,37.86651806337164,4.0,2004160236.0,112.5120859,37.8644231,140109122290.0,0,0,96
太原直送,AWLS008,AWLS008,15,140109122307,太原***烟酒商行,112.518206,37.868724,1.0,1.0,111.0,78.0,2.309652213826572,2.331851613089686,0.1056106601153477,太原直送,0.1056106601153477,山西省,太原市,万柏林区,兴华街道,山西省太原市万柏林区兴华街道西安泡馍馆智诚天和园,112.51181238217698,37.86812126743138,170_89,112.5122637969168,37.86651806337164,4.0,7012633307.0,112.5119326,37.8680185,140109122307.0,0,0,96
太原直送,AWLS008,AWLS008,9,140109122333,（金***硕金虎便利店,112.517802,37.868736,1.0,1.0,111.0,49.67,2.3097755668501643,2.33214039034467,0.1056342365428933,太原直送,0.1056342365428933,山西省,太原市,万柏林区,兴华街道,山西省太原市万柏林区兴华街道和泽苑社区居委会智诚天和园,112.51140695313951,37.86813211241003,170_89,112.5122637969168,37.86651806337164,4.0,7012633307.0,112.5119326,37.8680185,140109122333.0,0,0,96
太原直送,AWLS007,AWLS007,41,140109122354,太原***烟酒商行,112.512827,37.8716,1.0,1.0,111.0,60.0,2.3087410681418974,2.333861290816141,0.1033603154261802,太原直送,0.1033603154261802,山西省,太原市,万柏林区,兴华街道,山西省太原市万柏林区兴华街道新屯巷大唐世家惠泽苑,112.50641379497834,37.870982187128895,169_90,112.50647086869964,37.87101466857806,4.0,2002383055.0,112.5085183,37.8709408,140109122354.0,0,0,96
太原直送,AWLS013,AWLS013,76,140109122374,太原***酒便利店,112.50906,37.869791,1.0,1.0,111.0,67.33,2.311711593639006,2.3378598010941496,0.1057359039919725,太原直送,0.1057359039919725,山西省,太原市,万柏林区,和平街道,山西省太原市万柏林区和平街道玉河街大唐世家,112.5026332702889,37.86916176443646,168_90,112.50067794048248,37.87101466857806,4.0,5271771087.0,112.5039646,37.8691383,140109122374.0,0,0,96
太原直送,AWLS007,AWLS007,37,140109122377,太原***新闽茶行,112.51358,37.869798,1.0,1.0,111.0,63.0,2.310186065199506,2.334526182876724,0.105043930781359,太原直送,0.105043930781359,山西省,太原市,万柏林区,兴华街道,山西省太原市万柏林区兴华街道玉河东街后北屯中奥小区,112.50716973084218,37.86918207331899,169_90,112.50647086869964,37.87101466857806,4.0,7215989139.0,112.5063878,37.8681905,140109122377.0,0,0,96
太原直送,AWLS012,AWLS012,54,140109122390,太原***烟酒商行,112.512555,37.875493,1.0,1.0,111.0,48.67,2.305165850443736,2.3314305539254168,0.0995470298100338,太原直送,0.0995470298100338,山西省,太原市,万柏林区,兴华街道,山西省太原市万柏林区兴华街道和平北路95号和佳·世纪柏林,112.50614034991604,37.87487508049647,169_91,112.50647086869964,37.87551127378448,4.0,7840653465.0,112.5039155,37.8747461,140109122390.0,0,0,96
太原直送,AWLS013,AWLS013,37,140109122396,太原***顺烟酒店,112.50655,37.869284,1.0,1.0,111.0,54.0,2.313035646311139,2.340052566479005,0.1066947905476149,太原直送,0.1066947905476149,山西省,太原市,万柏林区,和平街道,山西省太原市万柏林区和平街道玉河街和平北路派出所,112.5001140897633,37.86864721452094,168_89,112.50067794048248,37.86651806337164,4.0,7543286144.0,112.4993813,37.8699713,140109122396.0,0,0,96
太原直送,AWLS012,AWLS012,52,140109122439,太原***食便利店,112.510317,37.874989,1.0,1.0,111.0,26.33,2.306394061747471,2.3334216533633594,0.1003995950788637,太原直送,0.1003995950788637,山西省,太原市,万柏林区,和平街道,山西省太原市万柏林区和平街道和平北路丽珠花园,112.50389426013798,37.87436440285339,169_91,112.50647086869964,37.87551127378448,4.0,7840653465.0,112.5039155,37.8747461,140109122439.0,0,0,96
太原直送,AWLS012,AWLS012,53,140109122440,（金***莲金虎便利店,112.512555,37.875493,1.0,1.0,111.0,34.33,2.305165850443736,2.3314305539254168,0.0995470298100338,太原直送,0.0995470298100338,山西省,太原市,万柏林区,兴华街道,山西省太原市万柏林区兴华街道和平北路95号和佳·世纪柏林,112.50614034991604,37.87487508049647,169_91,112.50647086869964,37.87551127378448,4.0,7840653465.0,112.5039155,37.8747461,140109122440.0,0,0,96
太原直送,AWLS008,AWLS008,27,140109122457,太原***烟酒商行,112.515409,37.869933,1.0,1.0,111.0,42.67,2.3094464390966016,2.3330888632250946,0.1046867210108278,太原直送,0.1046867210108278,山西省,太原市,万柏林区,兴华街道,山西省太原市万柏林区兴华街道青胜药店滨汾苑,112.50900529296072,37.86932242103185,169_90,112.50647086869964,37.87101466857806,4.0,7215989195.0,112.5086105,37.8691784,140109122457.0,0,0,96
太原直送,AWLS012,AWLS012,51,140109122508,（唐***琴唐久便利店,112.510651,37.86503,1.0,1.0,111.0,61.67,2.3156602899227283,2.3399101910274283,0.1101771198253085,太原直送,0.1101771198253085,山西省,太原市,万柏林区,和平街道,山西省太原市万柏林区和平街道和平北路西三巷小区,112.5042306560371,37.86440464150059,169_89,112.50647086869964,37.86651806337164,4.0,2004160251.0,112.5041587,37.8642149,140109122508.0,0,0,96
太原直送,AWLS007,AWLS007,42,140109122591,(唐***唐久副食便利店,112.514996,37.872824,1.0,1.0,111.0,63.33,2.306860514030702,2.331435873956005,0.1018639699304886,太原直送,0.1018639699304886,山西省,太原市,万柏林区,兴华街道,山西省太原市万柏林区兴华街道圣贝口腔(漪汾店)海唐·居业100城,112.50859047166948,37.87221273183862,169_90,112.50647086869964,37.87101466857806,4.0,4209263834.0,112.5084249,37.8726611,140109122591.0,0,0,96
太原直送,AWLS007,AWLS007,86,140109210177,（天***门河加油站,112.511181,37.867766,1.0,1.0,111.0,29.33,2.312905158858225,2.337667483767956,0.1073925131142726,太原直送,0.1073925131142726,山西省,太原市,万柏林区,千峰街道,山西省太原市万柏林区千峰街道和平北路86号中国石油玉门河加油站,112.5047622664365,37.86714267881833,169_89,112.50647086869964,37.86651806337164,4.0,7840653460.0,112.5042563,37.8664553,140109210177.0,0,0,96
太原直送,AWLS007,AWLS007,53,140109214598,山西***瓦窑街店,112.511563,37.865791,3.0,1.0,111.0,71.5,2.314637402074026,2.338723811330659,0.1092899263610305,太原直送,0.1092899263610305,山西省,太原市,万柏林区,千峰街道,山西省太原市万柏林区千峰街道诚泰大厦和平茶城,112.50514589070664,37.86516846057361,169_89,112.50647086869964,37.86651806337164,4.0,2004160212.0,112.5043425,37.8642149,140109214598.0,0,0,96
太原直送,AWLS012,AWLS012,95,140109218885,太原***烟酒商行,112.510666,37.865009,1.0,1.0,111.0,93.67,2.31567503692746,2.339913383115706,0.1101956146359714,太原直送,0.1101956146359714,山西省,太原市,万柏林区,和平街道,山西省太原市万柏林区和平街道和平北路西三巷小区,112.50424571327838,37.86438368213797,169_89,112.50647086869964,37.86651806337164,4.0,2004160251.0,112.5041587,37.8642149,140109218885.0,0,0,96
太原直送,AWLS007,AWLS007,107,140109219456,太原***有限公司,112.514646,37.865346,1.0,1.0,111.0,11.0,2.3140245792078327,2.3367587352101604,0.1093309426374764,太原直送,0.1093309426374764,山西省,太原市,万柏林区,千峰街道,山西省太原市万柏林区千峰街道公园路金域阅山,112.50824009595992,37.86473240607473,169_89,112.50647086869964,37.86651806337164,4.0,2002383023.0,112.5081555,37.8643175,140109219456.0,0,0,96
太原直送,AWLS007,AWLS007,82,140109220274,（石***汾街加油站,112.515655,37.873105,1.0,1.0,111.0,30.67,2.306375018086172,2.330760487451467,0.1015073656834779,太原直送,0.1015073656834779,山西省,太原市,万柏林区,兴华街道,山西省太原市万柏林区兴华街道漪汾街603号中国石化漪汾街加油站,112.50925179976616,37.87249569322063,169_90,112.50647086869964,37.87101466857806,4.0,4209263834.0,112.5084249,37.8726611,140109220274.0,0,0,96
太原直送,AWLS007,AWLS007,65,140109220382,太原***有限公司,112.513657,37.869787,1.0,1.0,111.0,59.0,2.310170621263285,2.334476955221662,0.1050448134464493,太原直送,0.1050448134464493,山西省,太原市,万柏林区,兴华街道,山西省太原市万柏林区兴华街道玉河东街后北屯中奥小区,112.50724701014066,37.86917129632004,169_90,112.50647086869964,37.87101466857806,4.0,7215989139.0,112.5063878,37.8681905,140109220382.0,0,0,96
太原直送,AWLS007,AWLS007,97,140109220692,山西***有限公司,112.516588,37.865033,1.0,1.0,111.0,50.0,2.3136714496438366,2.3355443934466344,0.1094348441996441,太原直送,0.1094348441996441,山西省,太原市,万柏林区,千峰街道,山西省太原市万柏林区千峰街道瓦窑街瓦窑街-道路停车位,112.51018908036592,37.86442497792627,170_89,112.5122637969168,37.86651806337164,4.0,2004160236.0,112.5120859,37.8644231,140109220692.0,0,0,96
太原直送,AWLS007,AWLS007,64,140109220749,太原***便利店,112.513655,37.869781,1.0,1.0,111.0,64.0,2.310176944552079,2.334482489027704,0.1050510223082051,太原直送,0.1050510223082051,山西省,太原市,万柏林区,兴华街道,山西省太原市万柏林区兴华街道玉河东街后北屯中奥小区,112.5072450036284,37.86916528942644,169_90,112.50647086869964,37.87101466857806,4.0,7215989139.0,112.5063878,37.8681905,140109220749.0,0,0,96
太原直送,AWLS007,AWLS007,75,140109221051,山西***汾街分店,112.512731,37.873139,1.0,1.0,111.0,70.0,2.3073236954931104,2.3328913868907355,0.1018503719188066,太原直送,0.1018503719188066,山西省,太原市,万柏林区,兴华街道,山西省太原市万柏林区兴华街道太原客源来宾馆大唐世家惠泽苑,112.50631726563368,37.87252117787425,169_90,112.50647086869964,37.87101466857806,4.0,4209263834.0,112.5084249,37.8726611,140109221051.0,0,0,96
太原直送,AWLS007,AWLS007,24,140109221829,太原***有限公司,112.51641,37.873212,1.0,1.0,111.0,25.0,2.306021493345193,2.3301321964174067,0.10131719523358,太原直送,0.10131719523358,山西省,太原市,万柏林区,兴华街道,山西省太原市万柏林区兴华街道漪汾街613号太原大东海浴场酒店,112.5100094830847,37.87260489538671,170_90,112.5122637969168,37.87101466857806,4.0,4209263834.0,112.5084249,37.8726611,140109221829.0,0,0,96
太原直送,AWLS007,AWLS007,20,140109222019,太原***有限公司,112.510696,37.869987,1.0,1.0,111.0,23.33,2.3109763309936766,2.336521905503991,0.1052725526668724,太原直送,0.1052725526668724,山西省,太原市,万柏林区,兴华街道,山西省太原市万柏林区兴华街道和平北路七星公馆,112.50427523522386,37.869362637195245,169_90,112.50647086869964,37.87101466857806,4.0,7840653464.0,112.5041565,37.8691849,140109222019.0,0,0,96
太原直送,AWLS013,AWLS013,34,140109222466,太原***有限公司,112.513521,37.87728,1.0,1.0,111.0,50.33,2.3031580712806066,2.3295113325489547,0.0976391496941671,太原直送,0.0976391496941671,山西省,太原市,万柏林区,兴华街道,山西省太原市万柏林区兴华街道彭西四巷47号皆利苑,112.50710963541944,37.87666522823517,169_91,112.50647086869964,37.87551127378448,4.0,7840653473.0,112.5083255,37.8767125,140109222466.0,0,0,96
太原直送,AWLS012,AWLS012,47,140109222664,山西***有限公司,112.510481,37.877994,1.0,1.0,111.0,28.33,2.3035098656634823,2.331273119665303,0.0974107486112264,太原直送,0.0974107486112264,山西省,太原市,万柏林区,万柏林街道,山西省太原市万柏林区万柏林街道和平北路童乐双语小学,112.50405850460912,37.87737042504452,169_91,112.50647086869964,37.87551127378448,4.0,7840653470.0,112.5038495,37.8766342,140109222664.0,0,0,96
太原直送,AWLS007,AWLS007,28,140109122668,太原***品销售店,112.512179,37.865042,1.0,1.0,111.0,59.0,2.3151365534561843,2.3387782987777985,0.1099448079583525,太原直送,0.1099448079583525,山西省,太原市,万柏林区,千峰街道,山西省太原市万柏林区千峰街道瓦窑街金域阅山,112.5057642183978,37.86442114185044,169_89,112.50647086869964,37.86651806337164,4.0,2004160212.0,112.5043425,37.8642149,140109122668.0,0,0,96
太原直送,AWLS012,AWLS012,19,140109222673,山西***有限公司,112.510343,37.871426,1.0,1.0,111.0,49.33,2.309740015734452,2.335809129961173,0.1039087955324262,太原直送,0.1039087955324262,山西省,太原市,万柏林区,和平街道,山西省太原市万柏林区和平街道和平北路玉河苑,112.50392077589522,37.87080084817308,169_90,112.50647086869964,37.87101466857806,4.0,2002383001.0,112.5040926,37.8708935,140109222673.0,0,0,96
太原直送,AWLS007,AWLS007,33,140109122692,（唐***久副食便利店,112.511257,37.865942,1.0,1.0,111.0,35.33,2.314597808422234,2.3388466262638943,0.1091850232266327,太原直送,0.1091850232266327,山西省,太原市,万柏林区,千峰街道,山西省太原市万柏林区千峰街道金域阅山(西门),112.50483875861671,37.865318585849046,169_89,112.50647086869964,37.86651806337164,4.0,2004160212.0,112.5043425,37.8642149,140109122692.0,0,0,96
太原直送,AWLS008,AWLS008,33,140109122738,太原***莱烟酒店,112.517194,37.869881,1.0,1.0,111.0,69.0,2.308898994380004,2.3318111816054023,0.104550894998559,太原直送,0.104550894998559,山西省,太原市,万柏林区,兴华街道,山西省太原市万柏林区兴华街道玉河东街智诚天和园,112.5107966638595,37.86927556700228,170_90,112.5122637969168,37.87101466857806,4.0,10304726260.0,112.5118744,37.8692601,140109122738.0,0,0,96
太原直送,AWLS008,AWLS008,31,140109122746,太原***中禾商行,112.518382,37.869804,1.0,1.0,111.0,58.0,2.3085753054111064,2.330989935397615,0.10451955435228,太原直送,0.10451955435228,山西省,太原市,万柏林区,兴华街道,山西省太原市万柏林区兴华街道千峰北路智诚天和园,112.51198887600968,37.86920195982464,170_90,112.5122637969168,37.87101466857806,4.0,10304726260.0,112.5118744,37.8692601,140109122746.0,0,0,96
太原直送,AWLS008,AWLS008,29,140109122751,太原***帆阁茶行,112.518373,37.868903,1.0,1.0,111.0,43.0,2.3094277945439186,2.331607491359769,0.1054180629683503,太原直送,0.1054180629683503,山西省,太原市,万柏林区,兴华街道,山西省太原市万柏林区兴华街道千峰北路智诚天和园,112.5119799503013,37.86830077632759,170_89,112.5122637969168,37.86651806337164,4.0,7012633307.0,112.5119326,37.8680185,140109122751.0,0,0,96
太原直送,AWLS013,AWLS013,32,140109122764,太原***烟酒商行,112.506286,37.869187,1.0,1.0,111.0,73.0,2.3132161352482834,2.340312746322592,0.1068415349243929,太原直送,0.1068415349243929,山西省,太原市,万柏林区,和平街道,山西省太原市万柏林区和平街道玉河街和平北路派出所,112.49984912613628,37.86854941056678,168_89,112.50067794048248,37.86651806337164,4.0,7543286144.0,112.4993813,37.8699713,140109122764.0,0,0,96
太原直送,AWLS007,AWLS007,29,140109122758,太原***思益茶行,112.511325,37.865414,1.0,1.0,111.0,35.0,2.3150723926652903,2.339154276726952,0.1096974059173662,太原直送,0.1096974059173662,山西省,太原市,万柏林区,千峰街道,山西省太原市万柏林区千峰街道和平北路65号和平茶城,112.504907068639,37.86479069475114,169_89,112.50647086869964,37.86651806337164,4.0,2004160212.0,112.5043425,37.8642149,140109122758.0,0,0,96
太原直送,AWLS013,AWLS013,24,140109122763,太原***烟酒商店,112.514856,37.873434,1.0,1.0,111.0,36.33,2.3063327032399275,2.331126343767965,0.1012755550466112,太原直送,0.1012755550466112,山西省,太原市,万柏林区,兴华街道,山西省太原市万柏林区兴华街道漪汾街龙凤苑,112.50844989720946,37.8728224331128,169_90,112.50647086869964,37.87101466857806,4.0,2002382958.0,112.5084228,37.8728706,140109122763.0,0,0,96
太原直送,AWLS013,AWLS013,18,140109122883,太原***货便利店,112.512078,37.8773,1.0,1.0,111.0,19.67,2.3036248186199937,2.330562462019199,0.0978333566530351,太原直送,0.0978333566530351,山西省,太原市,万柏林区,兴华街道,山西省太原市万柏林区兴华街道彭西四巷建机小区,112.50566140531345,37.87668100379977,169_91,112.50647086869964,37.87551127378448,4.0,7840653470.0,112.5038495,37.8766342,140109122883.0,0,0,96
太原直送,AWLS012,AWLS012,49,140109122891,太原***烟酒商行,112.510342,37.870951,1.0,1.0,111.0,84.67,2.3101876326162367,2.336130932921359,0.1043776243502422,太原直送,0.1043776243502422,山西省,太原市,万柏林区,和平街道,山西省太原市万柏林区和平街道和平北路玉河苑,112.5039198283234,37.87032576155702,169_90,112.50647086869964,37.87101466857806,4.0,2002383001.0,112.5040926,37.8708935,140109122891.0,0,0,96
太原直送,AWLS008,AWLS008,26,140109122908,太原***秀便利店,112.517566,37.868767,1.0,1.0,111.0,30.0,2.3098250376106413,2.332292831743045,0.1056248337513484,太原直送,0.1056248337513484,山西省,太原市,万柏林区,兴华街道,山西省太原市万柏林区兴华街道后北屯街智诚天和园,112.51117011405644,37.86816244078272,170_89,112.5122637969168,37.86651806337164,4.0,7012633307.0,112.5119326,37.8680185,140109122908.0,0,0,96
太原直送,AWLS012,AWLS012,97,140109122977,（唐***远达唐久便利,112.512642,37.875472,1.0,1.0,111.0,35.33,2.3051563657196854,2.331380580038572,0.0995549578976321,太原直送,0.0995549578976321,山西省,太原市,万柏林区,兴华街道,山西省太原市万柏林区兴华街道建机巷和佳·世纪柏林,112.50622766783064,37.87485433185083,169_91,112.50647086869964,37.87551127378448,4.0,7840653469.0,112.5083738,37.8748053,140109122977.0,0,0,96
太原直送,AWLS007,AWLS007,59,140109123076,太原***折扣超市,112.511924,37.86984,1.0,1.0,111.0,28.0,2.310702089691787,2.335716911467013,0.1052313678044677,太原直送,0.1052313678044677,山西省,太原市,万柏林区,兴华街道,山西省太原市万柏林区兴华街道玉河东街后北屯中奥小区,112.50550772598493,37.869219227755,169_90,112.50647086869964,37.87101466857806,4.0,7840653464.0,112.5041565,37.8691849,140109123076.0,0,0,96
太原直送,AWLS008,AWLS008,30,140109123109,太原***烟酒商行,112.518492,37.866754,1.0,1.0,111.0,31.33,2.311414476876444,2.3329780230737303,0.1075497062850462,太原直送,0.1075497062850462,山西省,太原市,万柏林区,千峰街道,山西省太原市万柏林区千峰街道千峰北路北国名宅,112.51209962266616,37.86615174193594,170_89,112.5122637969168,37.86651806337164,4.0,7215989160.0,112.5121512,37.8661534,140109123109.0,0,0,96
太原直送,AWLS007,AWLS007,45,140109123178,太原***货经营部,112.517121,37.865047,1.0,1.0,111.0,37.0,2.3134806150361413,2.3351434684243686,0.1093700525738204,太原直送,0.1093700525738204,山西省,太原市,万柏林区,千峰街道,山西省太原市万柏林区千峰街道瓦窑街瓦窑街-道路停车位,112.5107239738002,37.864440515693445,170_89,112.5122637969168,37.86651806337164,4.0,2004160236.0,112.5120859,37.8644231,140109123178.0,0,0,96
