station_name,line_code,line_name,deliver_no,customer_code,customer_name,longitude,latitude,order_cycle_type,order_weekday,city_village_code,avg_order_qty,distance_to_平城直送,distance_to_灵丘中转站,distance_to_太原直送,nearest_station,distance_to_station,province,city,district,township,full_address,lon_84,lat_84,grid_id,LonGridCenter,LatGridCenter,group,customer_osmid_mapping,OSM_X,OSM_Y,BB_RETAIL_CUSTOMER_CODE,kmeans_cluster,dbscan_label,kmeans_label
太原直送,CWLS028,CWLS028,154,140106100168,太原***烟酒商店,112.568235,37.86449,1.0,3.0,111.0,79.67,2.2974854432959915,2.2982553786492,0.1168597731171808,太原直送,0.1168597731171808,山西省,太原市,迎泽区,柳巷街道,山西省太原市迎泽区柳巷街道开化寺街山西叙庭柳巷酒店,112.5619753880331,37.86399658559744,179_88,112.56440015087122,37.862021458165216,1.0,4209678009.0,112.5621887,37.8640307,140106100168.0,0,0,111
太原直送,CWLS028,CWLS028,62,140106100224,太原***桃副食店,112.566819,37.871056,1.0,3.0,111.0,22.0,2.291695971098477,2.294757420253827,0.1102181448083693,太原直送,0.1102181448083693,山西省,太原市,迎泽区,柳巷街道,山西省太原市迎泽区柳巷街道鼓楼街中昌大厦,112.56055643496585,37.87056184355588,178_90,112.55860722265408,37.87101466857806,1.0,11644788094.0,112.5607307,37.8705511,140106100224.0,0,0,111
太原直送,CWLS028,CWLS028,108,140106100960,太原***副食商店,112.567718,37.8629,1.0,3.0,111.0,23.0,2.299157370012323,2.299726754015134,0.1181724522636254,太原直送,0.1181724522636254,山西省,太原市,迎泽区,柳巷街道,山西省太原市迎泽区柳巷街道云路街文瀛公园,112.5614577849164,37.862405633890106,178_88,112.55860722265408,37.862021458165216,1.0,1513044633.0,112.560615,37.8624206,140106100960.0,0,0,111
太原直送,CWLS028,CWLS028,109,140106101023,太原***酒副食店,112.567951,37.862752,1.0,3.0,111.0,56.0,2.2992249520594985,2.299660310535017,0.1183913486915282,太原直送,0.1183913486915282,山西省,太原市,迎泽区,柳巷街道,山西省太原市迎泽区柳巷街道云路街文瀛公园,112.56169115876456,37.862257915732165,179_88,112.56440015087122,37.862021458165216,1.0,1513044633.0,112.560615,37.8624206,140106101023.0,0,0,111
太原直送,CWLS028,CWLS028,139,140106102364,太原***酒副食店,112.572246,37.867049,1.0,3.0,111.0,49.67,2.2938007802703746,2.293586569685994,0.1159616291925908,太原直送,0.1159616291925908,山西省,太原市,迎泽区,柳巷街道,山西省太原市迎泽区柳巷街道郭家巷郭家巷18号院小区,112.56599169619372,37.86656089982405,179_89,112.56440015087122,37.86651806337164,1.0,7543095209.0,112.5666255,37.866559,140106102364.0,0,0,111
太原直送,CWLS028,CWLS028,103,140106102856,太原***酒副食店,112.570188,37.86154,1.0,3.0,111.0,21.67,2.299676890417869,2.2988796048843,0.1203096647572431,太原直送,0.1203096647572431,山西省,太原市,迎泽区,柳巷街道,山西省太原市迎泽区柳巷街道起凤街太原铁路海子边小区,112.56393157092346,37.86104853905959,179_88,112.56440015087122,37.862021458165216,1.0,11449105234.0,112.5640293,37.8610061,140106102856.0,0,0,111
太原直送,CWLS028,CWLS028,104,140106104921,（唐***便利店唐久631,112.570226,37.861545,1.0,3.0,111.0,67.67,2.299660280759962,2.298848682485208,0.1203185475851507,太原直送,0.1203185475851507,山西省,太原市,迎泽区,柳巷街道,山西省太原市迎泽区柳巷街道起凤街太原铁路海子边小区,112.5639696235182,37.86105358612565,179_88,112.56440015087122,37.862021458165216,1.0,11449105234.0,112.5640293,37.8610061,140106104921.0,0,0,111
太原直送,CWLS028,CWLS028,151,140106105045,太原***门便利店,112.566546,37.86548,1.0,3.0,111.0,23.67,2.297075134367616,2.2987957318015426,0.1153473899921461,太原直送,0.1153473899921461,山西省,太原市,迎泽区,柳巷街道,山西省太原市迎泽区柳巷街道南校尉营太原茂业百货,112.56028364636714,37.8649844975627,178_89,112.55860722265408,37.86651806337164,1.0,4209677995.0,112.5600518,37.8649226,140106105045.0,0,0,111
太原直送,CWLS028,CWLS028,93,140106106458,太原***芳小卖部,112.572323,37.867889,1.0,3.0,111.0,16.67,2.2929786948412776,2.2929511319068725,0.1152178450414682,太原直送,0.1152178450414682,山西省,太原市,迎泽区,柳巷街道,山西省太原市迎泽区柳巷街道桥头街新月大厦(桥头街),112.56606869765864,37.867401132631606,179_89,112.56440015087122,37.86651806337164,1.0,11304152263.0,112.5661746,37.8673849,140106106458.0,0,0,111
太原直送,CWLS028,CWLS028,90,140106108100,太原***顺副食店,112.570309,37.869807,1.0,3.0,111.0,79.67,2.2917863857183542,2.293086959622117,0.1126706827528744,太原直送,0.1126706827528744,山西省,太原市,迎泽区,柳巷街道,山西省太原市迎泽区柳巷街道大濮府宝地住宅小区,112.564051781961,37.869317115821794,179_90,112.56440015087122,37.87101466857806,1.0,1108624752.0,112.5640183,37.8698905,140106108100.0,0,0,111
太原直送,CWLS028,CWLS028,158,140106109043,（语***金虎便利店,112.568931,37.866423,1.0,3.0,111.0,78.0,2.295431708842586,2.296418103660782,0.1153007955046308,太原直送,0.1153007955046308,山西省,太原市,迎泽区,柳巷街道,山西省太原市迎泽区柳巷街道三圣庵湖景酒店(太原柳巷钟楼街店),112.56267220073804,37.8659308149779,179_89,112.56440015087122,37.86651806337164,1.0,2001349098.0,112.5628504,37.8659281,140106109043.0,0,0,111
太原直送,CWLS028,CWLS028,157,140106109429,（唐***成唐久便利店,112.569053,37.866449,1.0,3.0,111.0,64.0,2.29536880669229,2.296311827838936,0.1153206730642808,太原直送,0.1153206730642808,山西省,太原市,迎泽区,柳巷街道,山西省太原市迎泽区柳巷街道三圣庵湖景酒店(太原柳巷钟楼街店),112.56279437669602,37.86595697426757,179_89,112.56440015087122,37.86651806337164,1.0,2001349098.0,112.5628504,37.8659281,140106109429.0,0,0,111
太原直送,CWLS027,CWLS027,110,140106110874,（唐***荣唐久便利店,112.572702,37.865384,1.0,3.0,111.0,60.67,2.29524059394086,2.29440633569666,0.1176734199469043,太原直送,0.1176734199469043,山西省,太原市,迎泽区,柳巷街道,山西省太原市迎泽区柳巷街道皇华馆皇华馆住宅小区,112.56644846921724,37.864896120759575,179_89,112.56440015087122,37.86651806337164,1.0,1108624725.0,112.5658884,37.8648472,140106110874.0,0,0,111
太原直送,CWLS028,CWLS028,156,140106111404,太原***头便利店,112.567616,37.865403,1.0,3.0,111.0,52.67,2.2968124565939187,2.298073801764423,0.1157880647087583,太原直送,0.1157880647087583,山西省,太原市,迎泽区,柳巷街道,山西省太原市迎泽区柳巷街道东校尉营圣美精品酒店(云泮联盟柳巷店),112.5613553376665,37.86490892943477,178_89,112.55860722265408,37.86651806337164,1.0,4209678002.0,112.5609427,37.8649338,140106111404.0,0,0,111
太原直送,CWLS028,CWLS028,160,140106111599,（唐***达唐久便利店,112.569346,37.867032,1.0,3.0,111.0,68.0,2.294723375803278,2.295697593744656,0.1148843624258711,太原直送,0.1148843624258711,山西省,太原市,迎泽区,柳巷街道,山西省太原市迎泽区柳巷街道海子边西街YUNIK酒店(太原柳巷钟楼街铜锣湾广场店),112.56308773557608,37.86654044456616,179_89,112.56440015087122,37.86651806337164,1.0,1108624798.0,112.5636676,37.866841,140106111599.0,0,0,111
太原直送,CWLS028,CWLS028,107,140106112008,太原***古便利店,112.567924,37.861849,1.0,3.0,111.0,46.0,2.300091009117898,2.300303247236759,0.1192306294414324,太原直送,0.1192306294414324,山西省,太原市,迎泽区,柳巷街道,山西省太原市迎泽区柳巷街道云路街柳南商城,112.56166422225076,37.861354725817016,179_88,112.56440015087122,37.862021458165216,1.0,2012475090.0,112.5617527,37.8608833,140106112008.0,0,0,111
太原直送,CWLS028,CWLS028,74,140106112904,太原***果店二部,112.569355,37.870386,1.0,3.0,111.0,51.67,2.291535473931176,2.293379449075529,0.1117732709237726,太原直送,0.1117732709237726,山西省,太原市,迎泽区,柳巷街道,山西省太原市迎泽区柳巷街道南肖墙宝地住宅小区,112.5630963598213,37.86989504171927,179_90,112.56440015087122,37.87101466857806,1.0,9141343496.0,112.5640115,37.8699299,140106112904.0,0,0,111
太原直送,CWLS028,CWLS028,88,140106116101,（金***洁金虎便利店,112.570309,37.869807,1.0,3.0,111.0,56.67,2.2917863857183542,2.293086959622117,0.1126706827528744,太原直送,0.1126706827528744,山西省,太原市,迎泽区,柳巷街道,山西省太原市迎泽区柳巷街道大濮府宝地住宅小区,112.564051781961,37.869317115821794,179_90,112.56440015087122,37.87101466857806,1.0,1108624752.0,112.5640183,37.8698905,140106116101.0,0,0,111
太原直送,CWLS028,CWLS028,77,140106116229,太原***香食品店,112.568238,37.869484,1.0,3.0,111.0,69.0,2.292742370277569,2.294810515370062,0.1121970396489994,太原直送,0.1121970396489994,山西省,太原市,迎泽区,柳巷街道,山西省太原市迎泽区柳巷街道小海子潮流汇购物城(柳巷),112.5619778136185,37.86899145701148,179_90,112.56440015087122,37.87101466857806,1.0,1108624753.0,112.5614869,37.8689433,140106116229.0,0,0,111
太原直送,CWLS028,CWLS028,17,140106116260,太原***宏便利店,112.566906,37.87099,1.0,3.0,111.0,59.33,2.2917312462175827,2.2947397125837576,0.1103109694364078,太原直送,0.1103109694364078,山西省,太原市,迎泽区,柳巷街道,山西省太原市迎泽区柳巷街道鼓楼街中昌大厦,112.56064358046385,37.87049595025783,178_90,112.55860722265408,37.87101466857806,1.0,11644788093.0,112.5607289,37.8704983,140106116260.0,0,0,111
太原直送,CWLS028,CWLS028,71,140106116338,（唐***文唐久便利店,112.567794,37.870097,1.0,3.0,111.0,67.67,2.292299801668399,2.294710287666826,0.111464445977181,太原直送,0.111464445977181,山西省,太原市,迎泽区,柳巷街道,山西省太原市迎泽区柳巷街道柳巷宝地住宅小区,112.56153306721832,37.869603982526485,179_90,112.56440015087122,37.87101466857806,1.0,4202938997.0,112.5615453,37.8699307,140106116338.0,0,0,111
太原直送,CWLS028,CWLS028,79,140106116339,（唐***文唐久便利店,112.570355,37.8685,1.0,3.0,111.0,67.67,2.2930133034321885,2.293954583946679,0.1138971557722174,太原直送,0.1138971557722174,山西省,太原市,迎泽区,柳巷街道,山西省太原市迎泽区柳巷街道大濮府铜锣湾城市福邸,112.56409799749562,37.86800994288354,179_89,112.56440015087122,37.86651806337164,1.0,1108624739.0,112.5635762,37.8674043,140106116339.0,0,0,111
太原直送,CWLS029,CWLS029,134,140106117257,太原***家便利店,112.566115,37.870781,1.0,3.0,111.0,56.67,2.2921785927497003,2.295457489011069,0.1102249786935755,太原直送,0.1102249786935755,山西省,太原市,迎泽区,柳巷街道,山西省太原市迎泽区柳巷街道捂嘴炸冷面卷臭豆腐和刘啧啧拌粉(金湾小区店)金湾小区,112.5598513362173,37.87028582593963,178_90,112.55860722265408,37.87101466857806,1.0,1108624809.0,112.559829,37.8704822,140106117257.0,0,0,111
太原直送,CWLS028,CWLS028,76,140106118067,(唐***三唐久便利店,112.572877,37.870409,1.0,3.0,111.0,49.67,2.290411675796292,2.2908116980635853,0.1131246666823805,太原直送,0.1131246666823805,山西省,太原市,迎泽区,[],山西省太原市迎泽区南肖墙奥星幼儿园,112.56662310659034,37.86992218928743,179_90,112.56440015087122,37.87101466857806,1.0,7843319390.0,112.5658215,37.8698687,140106118067.0,0,0,111
太原直送,CWLS028,CWLS028,163,140106118351,（唐***戎唐久便利店,112.573433,37.867067,1.0,3.0,111.0,64.67,2.293413610777613,2.2927153790100103,0.1164103903266345,太原直送,0.1164103903266345,山西省,太原市,迎泽区,柳巷街道,山西省太原市迎泽区柳巷街道郭家巷铜锣湾E座,112.56718017976333,37.86658020998299,179_89,112.56440015087122,37.86651806337164,1.0,7543095209.0,112.5666255,37.866559,140106118351.0,0,0,111
太原直送,CWLS028,CWLS028,149,140106118610,太原***荣便利店,112.566393,37.866491,1.0,3.0,111.0,53.0,2.2961633736343705,2.2982097982135934,0.1143448394288054,太原直送,0.1143448394288054,山西省,太原市,迎泽区,柳巷街道,山西省太原市迎泽区柳巷街道四岔楼长风广场,112.56013028344724,37.86599546198548,178_89,112.55860722265408,37.86651806337164,1.0,2001349118.0,112.5600548,37.8659832,140106118610.0,0,0,111
太原直送,CWLS028,CWLS028,152,140106118733,（唐***盛唐久便利店,112.566395,37.865585,1.0,3.0,111.0,67.67,2.2970228723049284,2.298832747736334,0.1151973201424365,太原直送,0.1151973201424365,山西省,太原市,迎泽区,柳巷街道,山西省太原市迎泽区柳巷街道四岔楼太原茂业百货,112.56013239172616,37.865089307845714,178_89,112.55860722265408,37.86651806337164,1.0,4209677995.0,112.5600518,37.8649226,140106118733.0,0,0,111
太原直送,CWLS028,CWLS028,64,140106118893,太原***花小吃店,112.566906,37.87099,1.0,3.0,111.0,58.0,2.2917312462175827,2.2947397125837576,0.1103109694364078,太原直送,0.1103109694364078,山西省,太原市,迎泽区,柳巷街道,山西省太原市迎泽区柳巷街道鼓楼街中昌大厦,112.56064358046385,37.87049595025783,178_90,112.55860722265408,37.87101466857806,1.0,11644788093.0,112.5607289,37.8704983,140106118893.0,0,0,111
太原直送,CWLS028,CWLS028,162,140106118928,太原***娥便利店,112.57239,37.867066,1.0,3.0,111.0,90.67,2.293739704816131,2.293470639715493,0.1160018643729455,太原直送,0.1160018643729455,山西省,太原市,迎泽区,柳巷街道,山西省太原市迎泽区柳巷街道郭家巷郭家巷18号院小区,112.5661358786933,37.8665780646372,179_89,112.56440015087122,37.86651806337164,1.0,7543095209.0,112.5666255,37.866559,140106118928.0,0,0,111
太原直送,CWLS028,CWLS028,80,140106118983,太原***烟酒商店,112.573515,37.870395,1.0,3.0,111.0,55.33,2.290225883477869,2.290359358896543,0.1133960386786032,太原直送,0.1133960386786032,山西省,太原市,迎泽区,[],山西省太原市迎泽区南肖墙奥星幼儿园,112.56726189392214,37.86990887934472,179_90,112.56440015087122,37.87101466857806,1.0,9141343494.0,112.567689,37.8699112,140106118983.0,0,0,111
太原直送,CWLS029,CWLS029,70,140106119162,太原***粮油商行,112.578746,37.867702,1.0,3.0,111.0,73.0,2.291160167072132,2.288436000006337,0.1180447427461252,太原直送,0.1180447427461252,山西省,太原市,迎泽区,文庙街道,山西省太原市迎泽区文庙街道上马街文杏苑,112.57249877400436,37.86722040637052,180_89,112.57019307908838,37.86651806337164,1.0,1108624759.0,112.572346,37.8671628,140106119162.0,0,0,111
太原直送,CWLS028,CWLS028,70,140106119183,太原***强便利店,112.568458,37.869906,1.0,3.0,111.0,57.33,2.292272643829696,2.294360358811355,0.1118850061178894,太原直送,0.1118850061178894,山西省,太原市,迎泽区,柳巷街道,山西省太原市迎泽区柳巷街道小水巷宝地住宅小区西区,112.56219809528216,37.86941381617036,179_90,112.56440015087122,37.87101466857806,1.0,4202938997.0,112.5615453,37.8699307,140106119183.0,0,0,111
太原直送,CWLS029,CWLS029,76,140106119185,太原***鲜便利店,112.575904,37.867829,1.0,3.0,111.0,48.33,2.291920703345778,2.290402120075864,0.1167185088878323,太原直送,0.1167185088878323,山西省,太原市,迎泽区,文庙街道,山西省太原市迎泽区文庙街道东安路东巷18号永安里,112.56965392801736,37.86734486401501,180_89,112.57019307908838,37.86651806337164,1.0,6947180969.0,112.5700296,37.8672222,140106119185.0,0,0,111
太原直送,CWLS027,CWLS027,107,140106119259,（唐***唐久便利店,112.57539,37.865246,1.0,3.0,111.0,49.33,2.2945356005017663,2.2925586906504707,0.1188627747362466,太原直送,0.1188627747362466,山西省,太原市,迎泽区,文庙街道,山西省太原市迎泽区文庙街道上官巷山西省五一路集中办公区,112.56913966573416,37.86476091376976,180_89,112.57019307908838,37.86651806337164,1.0,6947180967.0,112.5698875,37.8656676,140106119259.0,0,0,111
太原直送,CWLS028,CWLS028,72,140106119372,太原***泰便利店,112.570309,37.869885,1.0,3.0,111.0,92.67,2.291712308143415,2.2930332049477657,0.1125985951066883,太原直送,0.1125985951066883,山西省,太原市,迎泽区,柳巷街道,山西省太原市迎泽区柳巷街道大濮府宝地住宅小区,112.56405177292056,37.869395129496205,179_90,112.56440015087122,37.87101466857806,1.0,1108624752.0,112.5640183,37.8698905,140106119372.0,0,0,111
太原直送,CWLS029,CWLS029,75,140106119398,（金***跃金虎便利店,112.576026,37.867813,1.0,3.0,111.0,29.33,2.2918980145252985,2.290324968967505,0.1167839123723808,太原直送,0.1167839123723808,山西省,太原市,迎泽区,文庙街道,山西省太原市迎泽区文庙街道上马街永安里,112.56977606090948,37.86732897870906,180_89,112.57019307908838,37.86651806337164,1.0,6947180969.0,112.5700296,37.8672222,140106119398.0,0,0,111
太原直送,CWLS028,CWLS028,94,140106119688,（唐***昱唐久便利店,112.568396,37.868454,1.0,3.0,111.0,78.0,2.2936707671751817,2.295405590062238,0.1132138937145095,太原直送,0.1132138937145095,山西省,太原市,迎泽区,柳巷街道,山西省太原市迎泽区柳巷街道小濮府老鼠街尚品购物中心(铜锣湾店),112.56213617072434,37.86796148198367,179_89,112.56440015087122,37.86651806337164,1.0,1108624753.0,112.5614869,37.8689433,140106119688.0,0,0,111
太原直送,CWLS028,CWLS028,81,140106119713,太原***明食品店,112.572388,37.868561,1.0,3.0,111.0,58.33,2.292319976439806,2.2924404170926627,0.1146251497229122,太原直送,0.1146251497229122,山西省,太原市,迎泽区,柳巷街道,山西省太原市迎泽区柳巷街道小濮府铜锣湾国际购物中心,112.56613370293152,37.868073322787446,179_89,112.56440015087122,37.86651806337164,1.0,11304152264.0,112.5661993,37.8680263,140106119713.0,0,0,111
太原直送,CWLS028,CWLS028,155,140106119728,太原***尊烟酒店,112.568454,37.864557,1.0,3.0,111.0,93.33,2.297353222360245,2.298050627484954,0.1168739702286199,太原直送,0.1168739702286199,山西省,太原市,迎泽区,柳巷街道,山西省太原市迎泽区柳巷街道开化寺街文瀛公园,112.56219470937472,37.86406388109131,179_88,112.56440015087122,37.862021458165216,1.0,4209678009.0,112.5621887,37.8640307,140106119728.0,0,0,111
太原直送,CWLS027,CWLS027,108,140106119730,太原***饮经销部,112.574432,37.865239,1.0,3.0,111.0,61.67,2.294839920697952,2.293255826012436,0.1184847877872904,太原直送,0.1184847877872904,山西省,太原市,迎泽区,文庙街道,山西省太原市迎泽区文庙街道上官巷山西省五一路集中办公区,112.5681805800422,37.86475294524509,180_89,112.57019307908838,37.86651806337164,1.0,1881727417.0,112.5677413,37.8648065,140106119730.0,0,0,111
太原直送,CWLS028,CWLS028,106,140106119762,太原***闲食品店,112.567947,37.861595,1.0,3.0,111.0,32.33,2.3003250470226995,2.3004619976876333,0.1194772816061684,太原直送,0.1194772816061684,山西省,太原市,迎泽区,柳巷街道,山西省太原市迎泽区柳巷街道云路街豪生国际公寓,112.5616872867726,37.86110071268709,179_88,112.56440015087122,37.862021458165216,1.0,2012475090.0,112.5617527,37.8608833,140106119762.0,0,0,111
太原直送,CWLS028,CWLS028,89,140106119936,太原***玉烟酒店,112.573099,37.867883,1.0,3.0,111.0,58.0,2.2927423425356808,2.2923936957348747,0.1155288415764642,太原直送,0.1155288415764642,山西省,太原市,迎泽区,柳巷街道,山西省太原市迎泽区柳巷街道桥头街铜锣湾国际购物中心,112.5668456752448,37.86739599044158,179_89,112.56440015087122,37.86651806337164,1.0,11304202372.0,112.5675024,37.8673868,140106119936.0,0,0,111
太原直送,CWLS028,CWLS028,84,140106119949,太原***食品商行,112.572569,37.868406,1.0,3.0,111.0,29.0,2.2924107456668827,2.292416340155075,0.1148389069305334,太原直送,0.1148389069305334,山西省,太原市,迎泽区,柳巷街道,山西省太原市迎泽区柳巷街道宁化府铜锣湾国际购物中心,112.56631495112389,37.8679184979058,179_89,112.56440015087122,37.86651806337164,1.0,11304152264.0,112.5661993,37.8680263,140106119949.0,0,0,111
太原直送,CWLS028,CWLS028,82,140106119971,太原***毛烟酒店,112.572506,37.868571,1.0,3.0,111.0,55.33,2.292273646337404,2.292348099494484,0.1146624339223593,太原直送,0.1146624339223593,山西省,太原市,迎泽区,柳巷街道,山西省太原市迎泽区柳巷街道宁化府铜锣湾国际购物中心,112.56625185208,37.86808345650043,179_89,112.56440015087122,37.86651806337164,1.0,11304152264.0,112.5661993,37.8680263,140106119971.0,0,0,111
太原直送,CWLS028,CWLS028,87,140106119994,（唐***小刚唐久便利店,112.572885,37.868566,1.0,3.0,111.0,67.67,2.292160141801831,2.292077216439706,0.1148169960981358,太原直送,0.1148169960981358,山西省,太原市,迎泽区,柳巷街道,山西省太原市迎泽区柳巷街道小濮府国际公寓,112.56663133011224,37.86807887535319,179_89,112.56440015087122,37.86651806337164,1.0,11304152264.0,112.5661993,37.8680263,140106119994.0,0,0,111
太原直送,CWLS027,CWLS027,112,140106119996,太原***特产商行,112.572434,37.863496,1.0,3.0,111.0,95.67,2.2971181282715967,2.2959044871782006,0.1193157562520567,太原直送,0.1193157562520567,山西省,太原市,迎泽区,柳巷街道,山西省太原市迎泽区柳巷街道纯阳宫57号山西饭店,112.56618034839067,37.86300749723753,179_88,112.56440015087122,37.862021458165216,1.0,1102895935.0,112.5663339,37.8622141,140106119996.0,0,0,111
太原直送,CWLS029,CWLS029,56,140106120015,太原***荣便利店,112.575413,37.869481,1.0,3.0,111.0,52.0,2.290503184769669,2.289616356664365,0.1150123638744953,太原直送,0.1150123638744953,山西省,太原市,迎泽区,文庙街道,山西省太原市迎泽区文庙街道上马街65号景观新贵豪庭,112.56916220071956,37.86899667302886,180_90,112.57019307908838,37.87101466857806,1.0,5768910328.0,112.5679503,37.8698753,140106120015.0,0,0,111
太原直送,CWLS028,CWLS028,146,140106120137,太原***娥便利店,112.565394,37.865599,1.0,3.0,111.0,18.33,2.2973242017018376,2.299548418661366,0.114848197796042,太原直送,0.114848197796042,山西省,太原市,迎泽区,柳巷街道,山西省太原市迎泽区柳巷街道西校尉营开化寺古玩市场,112.55912975134837,37.8651019078377,178_89,112.55860722265408,37.86651806337164,1.0,2001349108.0,112.5590865,37.8649187,140106120137.0,0,0,111
太原直送,CWLS028,CWLS028,73,140106120156,太原***民烟酒店,112.569315,37.870399,1.0,3.0,111.0,68.33,2.2915356727173144,2.293399491446047,0.1117461785476359,太原直送,0.1117461785476359,山西省,太原市,迎泽区,柳巷街道,山西省太原市迎泽区柳巷街道南肖墙宝地住宅小区,112.56305630039346,37.86990799384672,179_90,112.56440015087122,37.87101466857806,1.0,9141343496.0,112.5640115,37.8699299,140106120156.0,0,0,111
太原直送,CWLS029,CWLS029,135,140106120201,太原***胜小卖部,112.566736,37.869842,1.0,3.0,111.0,58.0,2.29287444422454,2.295653176467425,0.1113228119030436,太原直送,0.1113228119030436,山西省,太原市,迎泽区,柳巷街道,山西省太原市迎泽区柳巷街道大水巷迎泽区校尉营华育幼儿园,112.56047344386664,37.86934751713983,178_90,112.55860722265408,37.87101466857806,1.0,1108624753.0,112.5614869,37.8689433,140106120201.0,0,0,111
太原直送,CWLS028,CWLS028,91,140106120220,太原***旺角烟店,112.57316,37.867849,1.0,3.0,111.0,78.67,2.292755630895058,2.292373024531564,0.1155842486024798,太原直送,0.1155842486024798,山西省,太原市,迎泽区,柳巷街道,山西省太原市迎泽区柳巷街道桥头街铜锣湾国际购物中心,112.5669067545335,37.86736205090982,179_89,112.56440015087122,37.86651806337164,1.0,11304202372.0,112.5675024,37.8673868,140106120220.0,0,0,111
太原直送,CWLS028,CWLS028,159,140106120225,太原***棠粮油店,112.569129,37.866457,1.0,3.0,111.0,62.33,2.295337408762381,2.2962512772797736,0.1153407607569874,太原直送,0.1153407607569874,山西省,太原市,迎泽区,柳巷街道,山西省太原市迎泽区柳巷街道海子边西街湖景酒店(太原柳巷钟楼街店),112.5628704868421,37.8659650717514,179_89,112.56440015087122,37.86651806337164,1.0,2001349098.0,112.5628504,37.8659281,140106120225.0,0,0,111
太原直送,CWLS028,CWLS028,148,140106120255,太原***海烟酒店,112.566172,37.866517,1.0,3.0,111.0,58.0,2.296208145049789,2.298352044403991,0.1142450091557563,太原直送,0.1142450091557563,山西省,太原市,迎泽区,柳巷街道,山西省太原市迎泽区柳巷街道中校尉营长风广场,112.5599089232932,37.86602116049772,178_89,112.55860722265408,37.86651806337164,1.0,2001349118.0,112.5600548,37.8659832,140106120255.0,0,0,111
太原直送,CWLS028,CWLS028,75,140106120296,（唐***凯唐久便利店,112.570969,37.870341,1.0,3.0,111.0,56.33,2.291072626449012,2.29224070818598,0.1124320567276051,太原直送,0.1124320567276051,山西省,太原市,迎泽区,柳巷街道,山西省太原市迎泽区柳巷街道南肖墙8号宝地住宅小区,112.56471262779162,37.86985199975735,179_90,112.56440015087122,37.87101466857806,1.0,1108624752.0,112.5640183,37.8698905,140106120296.0,0,0,111
太原直送,CWLS027,CWLS027,109,140106120307,（唐***源唐久便利店,112.573911,37.865498,1.0,3.0,111.0,80.33,2.294755810147344,2.293453444381638,0.1180404843644701,太原直送,0.1180404843644701,山西省,太原市,迎泽区,柳巷街道,山西省太原市迎泽区柳巷街道五一路中移铁通山西分公司,112.56765893725874,37.865011446885525,180_89,112.57019307908838,37.86651806337164,1.0,4178372368.0,112.5676825,37.864807,140106120307.0,0,0,111
太原直送,CWLS027,CWLS027,111,140106120330,太原***利食品店,112.572256,37.864357,1.0,3.0,111.0,98.33,2.2963554394894987,2.29543824852685,0.1184515207373871,太原直送,0.1184515207373871,山西省,太原市,迎泽区,柳巷街道,山西省太原市迎泽区柳巷街道海子边东街山西饭店,112.56600202090873,37.86386844543137,179_88,112.56440015087122,37.862021458165216,1.0,1108624725.0,112.5658884,37.8648472,140106120330.0,0,0,111
太原直送,CWLS027,CWLS027,44,140106120412,（唐***瑞唐久便利店,112.573036,37.862687,1.0,3.0,111.0,64.67,2.2976995313515185,2.2960286688323346,0.1202926414416092,太原直送,0.1202926414416092,山西省,太原市,迎泽区,柳巷街道,山西省太原市迎泽区柳巷街道海子边东街五一大楼,112.56678319908212,37.86219902415698,179_88,112.56440015087122,37.862021458165216,1.0,1881727402.0,112.5669993,37.8620638,140106120412.0,0,0,111
太原直送,CWLS029,CWLS029,24,140106120420,太原***桂烟酒店,112.566697,37.869848,1.0,3.0,111.0,77.0,2.292881015653669,2.295677334810357,0.111303388272777,太原直送,0.111303388272777,山西省,太原市,迎泽区,柳巷街道,山西省太原市迎泽区柳巷街道大水巷迎泽区校尉营华育幼儿园,112.56043438106812,37.869353464911256,178_90,112.55860722265408,37.87101466857806,1.0,1108624753.0,112.5614869,37.8689433,140106120420.0,0,0,111
太原直送,CWLS028,CWLS028,20,140106120439,（金***楠金虎便利店,112.573507,37.869481,1.0,3.0,111.0,53.67,2.2910967912831586,2.2909956635700928,0.1142280317610356,太原直送,0.1142280317610356,山西省,太原市,迎泽区,柳巷街道,山西省太原市迎泽区柳巷街道小海子艾特电竞酒店(太原柳巷店),112.56725399010053,37.86899471049272,179_90,112.56440015087122,37.87101466857806,1.0,4178372362.0,112.5672117,37.8689185,140106120439.0,0,0,111
太原直送,CWLS029,CWLS029,35,140106120444,太原***飞便利店,112.575424,37.868579,1.0,3.0,111.0,59.0,2.291357032006363,2.2902311969903844,0.1158368061412266,太原直送,0.1158368061412266,山西省,太原市,迎泽区,文庙街道,山西省太原市迎泽区文庙街道百年吴越专业祛痘(上马街店)御庭华府小区,112.5691733173463,37.86809452617057,180_89,112.57019307908838,37.86651806337164,1.0,6947180969.0,112.5700296,37.8672222,140106120444.0,0,0,111
太原直送,CWLS028,CWLS028,11,140106120454,（金***便利铜锣湾店,112.56975,37.869485,1.0,3.0,111.0,66.33,2.292267267091036,2.2937139283223624,0.1127566876641918,太原直送,0.1127566876641918,山西省,太原市,迎泽区,柳巷街道,山西省太原市迎泽区柳巷街道小海子宝地住宅小区,112.5634920314524,37.86899437528863,179_90,112.56440015087122,37.87101466857806,1.0,1108624752.0,112.5640183,37.8698905,140106120454.0,0,0,111
太原直送,CWLS028,CWLS028,13,140106120538,（唐***瑞唐久便利店,112.568228,37.869488,1.0,3.0,111.0,77.67,2.2927417113757063,2.294815009778563,0.112189666413626,太原直送,0.112189666413626,山西省,太原市,迎泽区,柳巷街道,山西省太原市迎泽区柳巷街道小海子潮流汇购物城(柳巷),112.56196779806449,37.86899544469839,179_90,112.56440015087122,37.87101466857806,1.0,1108624753.0,112.5614869,37.8689433,140106120538.0,0,0,111
太原直送,CWLS027,CWLS027,36,140106120558,太原***来烟酒店,112.572256,37.864357,1.0,3.0,111.0,68.0,2.2963554394894987,2.29543824852685,0.1184515207373871,太原直送,0.1184515207373871,山西省,太原市,迎泽区,柳巷街道,山西省太原市迎泽区柳巷街道海子边东街山西饭店,112.56600202090873,37.86386844543137,179_88,112.56440015087122,37.862021458165216,1.0,1108624725.0,112.5658884,37.8648472,140106120558.0,0,0,111
太原直送,CWLS029,CWLS029,34,140106120606,太原***全副食店,112.575328,37.870395,1.0,3.0,111.0,57.33,2.289660999291596,2.289046976990204,0.1141470522133582,太原直送,0.1141470522133582,山西省,太原市,杏花岭区,杏花岭街道,山西省太原市杏花岭区杏花岭街道杏花岭香榭舍公寓,112.56907700067308,37.86991074921117,180_90,112.57019307908838,37.87101466857806,1.0,9141343493.0,112.5679551,37.8699249,140106120606.0,0,0,111
太原直送,CWLS028,CWLS028,43,140106120609,太原***途烟酒店,112.569095,37.866498,1.0,3.0,111.0,76.67,2.2953091183535586,2.2962476208549414,0.1152902217406142,太原直送,0.1152902217406142,山西省,太原市,迎泽区,柳巷街道,山西省太原市迎泽区柳巷街道湖景布丁快捷酒店湖景酒店(太原柳巷钟楼街店),112.56283643243876,37.86600603590207,179_89,112.56440015087122,37.86651806337164,1.0,2001349098.0,112.5628504,37.8659281,140106120609.0,0,0,111
太原直送,CWLS028,CWLS028,52,140106120672,太原***品经销部,112.569053,37.866449,1.0,3.0,111.0,68.33,2.29536880669229,2.296311827838936,0.1153206730642808,太原直送,0.1153206730642808,山西省,太原市,迎泽区,柳巷街道,山西省太原市迎泽区柳巷街道三圣庵湖景酒店(太原柳巷钟楼街店),112.56279437669602,37.86595697426757,179_89,112.56440015087122,37.86651806337164,1.0,2001349098.0,112.5628504,37.8659281,140106120672.0,0,0,111
太原直送,CWLS029,CWLS029,31,140106120695,太原***酒经销部,112.578904,37.867696,1.0,3.0,111.0,56.33,2.291116973101547,2.2883260150741207,0.1181190938417603,太原直送,0.1181190938417603,山西省,太原市,迎泽区,文庙街道,山西省太原市迎泽区文庙街道上马街文杏苑,112.5726569185012,37.867214537308136,180_89,112.57019307908838,37.86651806337164,1.0,1108624759.0,112.572346,37.8671628,140106120695.0,0,0,111
太原直送,CWLS028,CWLS028,35,140106120724,太原***羽烟酒店,112.566996,37.862364,1.0,3.0,111.0,57.0,2.299892613535248,2.300619158819857,0.1184322652405163,太原直送,0.1184322652405163,山西省,太原市,迎泽区,柳巷街道,山西省太原市迎泽区柳巷街道柳巷南路154号嘉豪快捷酒店(云路街),112.56073472281084,37.86186857545312,178_88,112.55860722265408,37.862021458165216,1.0,1513044633.0,112.560615,37.8624206,140106120724.0,0,0,111
太原直送,CWLS028,CWLS028,27,140106120737,太原***汇悦歌厅,112.570369,37.868493,1.0,3.0,111.0,4.0,2.293015570888256,2.2939492700984023,0.1139089297465278,太原直送,0.1139089297465278,山西省,太原市,迎泽区,柳巷街道,山西省太原市迎泽区柳巷街道大濮府铜锣湾城市福邸,112.56411201777794,37.86800295859317,179_89,112.56440015087122,37.86651806337164,1.0,1108624739.0,112.5635762,37.8674043,140106120737.0,0,0,111
太原直送,CWLS028,CWLS028,53,140106120765,太原***盛烟酒店,112.569109,37.866492,1.0,3.0,111.0,84.0,2.295310432261614,2.296241621065606,0.1153008900963007,太原直送,0.1153008900963007,山西省,太原市,迎泽区,柳巷街道,山西省太原市迎泽区柳巷街道海子边西街湖景酒店(太原柳巷钟楼街店),112.56285045358656,37.866000052556814,179_89,112.56440015087122,37.86651806337164,1.0,2001349098.0,112.5628504,37.8659281,140106120765.0,0,0,111
太原直送,CWLS028,CWLS028,55,140106120776,太原***胜烟酒店,112.569928,37.867834,1.0,3.0,111.0,38.0,2.293779484079928,2.2947230635771656,0.1143541127638162,太原直送,0.1143541127638162,山西省,太原市,迎泽区,柳巷街道,山西省太原市迎泽区柳巷街道桥头街124号三江大厦(桥头街),112.5636704755654,37.8673433062489,179_89,112.56440015087122,37.86651806337164,1.0,1108624739.0,112.5635762,37.8674043,140106120776.0,0,0,111
太原直送,CWLS028,CWLS028,31,140106120803,太原***惠便利店,112.569805,37.861512,1.0,3.0,111.0,34.67,2.299823052190104,2.299175808777135,0.12019983321536,太原直送,0.12019983321536,山西省,太原市,迎泽区,柳巷街道,山西省太原市迎泽区柳巷街道起凤街太原铁路海子边小区,112.56354803373434,37.861020065006606,179_88,112.56440015087122,37.862021458165216,1.0,11449105234.0,112.5640293,37.8610061,140106120803.0,0,0,111
太原直送,CWLS028,CWLS028,9,140106120822,太原***俊便利店,112.566906,37.87099,1.0,3.0,111.0,40.67,2.2917312462175827,2.2947397125837576,0.1103109694364078,太原直送,0.1103109694364078,山西省,太原市,迎泽区,柳巷街道,山西省太原市迎泽区柳巷街道鼓楼街中昌大厦,112.56064358046385,37.87049595025783,178_90,112.55860722265408,37.87101466857806,1.0,11644788093.0,112.5607289,37.8704983,140106120822.0,0,0,111
太原直送,CWLS029,CWLS029,26,140106120862,（金***好金虎便利店,112.575639,37.870389,1.0,3.0,111.0,35.33,2.2895699322143424,2.2888260623457164,0.1142837111402959,太原直送,0.1142837111402959,山西省,太原市,杏花岭区,杏花岭街道,山西省太原市杏花岭区杏花岭街道杏花岭香榭舍公寓,112.5693883439663,37.869905054287365,180_90,112.57019307908838,37.87101466857806,1.0,9141343493.0,112.5679551,37.8699249,140106120862.0,0,0,111
太原直送,CWLS029,CWLS029,33,140106120876,太原***经营商店,112.57568,37.86787,1.0,3.0,111.0,24.0,2.29195133060935,2.290535756041578,0.1165880915788548,太原直送,0.1165880915788548,山西省,太原市,迎泽区,文庙街道,山西省太原市迎泽区文庙街道上马街御庭华府小区,112.56942968046025,37.86738565373237,180_89,112.57019307908838,37.86651806337164,1.0,6947180969.0,112.5700296,37.8672222,140106120876.0,0,0,111
太原直送,CWLS027,CWLS027,32,140106120878,太原***慧食品店,112.572206,37.865351,1.0,3.0,111.0,29.33,2.295426552999032,2.294787827816773,0.1175134036312445,太原直送,0.1175134036312445,山西省,太原市,迎泽区,柳巷街道,山西省太原市迎泽区柳巷街道皇华馆皇华馆住宅小区,112.56595184146308,37.86486256050025,179_89,112.56440015087122,37.86651806337164,1.0,1108624725.0,112.5658884,37.8648472,140106120878.0,0,0,111
太原直送,CWLS028,CWLS028,10,140106120893,（金***强金虎便利店,112.568075,37.870454,1.0,3.0,111.0,34.67,2.2918726052250364,2.294260697499307,0.111234637793264,太原直送,0.111234637793264,山西省,太原市,迎泽区,柳巷街道,山西省太原市迎泽区柳巷街道南肖墙宝地住宅小区,112.56181445449164,37.86996141447744,179_90,112.56440015087122,37.87101466857806,1.0,4202938997.0,112.5615453,37.8699307,140106120893.0,0,0,111
太原直送,CWLS029,CWLS029,30,140106120948,（唐***斌唐久便利店,112.576223,37.867787,1.0,3.0,122.0,44.67,2.291861546961334,2.2902005106341665,0.1168898679783648,太原直送,0.1168898679783648,山西省,太原市,迎泽区,文庙街道,山西省太原市迎泽区文庙街道上马街永安里,112.56997327372169,37.86730316248651,180_89,112.57019307908838,37.86651806337164,1.0,6947180969.0,112.5700296,37.8672222,140106120948.0,0,0,111
太原直送,CWLS028,CWLS028,16,140106120973,太原***拐烟酒店,112.569194,37.869493,1.0,3.0,111.0,50.33,2.292433924011989,2.294111350362055,0.1125410871681966,太原直送,0.1125410871681966,山西省,太原市,迎泽区,柳巷街道,山西省太原市迎泽区柳巷街道小海子宝地住宅小区,112.5629352296693,37.86900168282063,179_90,112.56440015087122,37.87101466857806,1.0,1108624752.0,112.5640183,37.8698905,140106120973.0,0,0,111
太原直送,CWLS028,CWLS028,25,140106120992,太原***凯便利店,112.569928,37.867834,1.0,3.0,111.0,82.33,2.293779484079928,2.2947230635771656,0.1143541127638162,太原直送,0.1143541127638162,山西省,太原市,迎泽区,柳巷街道,山西省太原市迎泽区柳巷街道桥头街124号三江大厦(桥头街),112.5636704755654,37.8673433062489,179_89,112.56440015087122,37.86651806337164,1.0,1108624739.0,112.5635762,37.8674043,140106120992.0,0,0,111
太原直送,CWLS029,CWLS029,41,140106121007,太原***旺烟酒店,112.576021,37.870403,1.0,3.0,111.0,47.0,2.289437817338568,2.2885399913003472,0.1144331664509845,太原直送,0.1144331664509845,山西省,太原市,杏花岭区,杏花岭街道,山西省太原市杏花岭区杏花岭街道杏花岭杏花岭住宅小区,112.56977075560518,37.86991942688624,180_90,112.57019307908838,37.87101466857806,1.0,12607199199.0,112.5711643,37.8698609,140106121007.0,0,0,111
太原直送,CWLS028,CWLS028,30,140106121019,太原***烟酒商行,112.569797,37.861805,1.0,3.0,111.0,56.0,2.2995472016203578,2.29897915268169,0.1199229796994714,太原直送,0.1199229796994714,山西省,太原市,迎泽区,柳巷街道,山西省太原市迎泽区柳巷街道起凤街11号太原铁路海子边小区,112.5635399884085,37.86131310513685,179_88,112.56440015087122,37.862021458165216,1.0,11449105234.0,112.5640293,37.8610061,140106121019.0,0,0,111
太原直送,CWLS028,CWLS028,51,140106121021,太原***斌便利店,112.565911,37.864516,1.0,3.0,111.0,63.0,2.298189798927188,2.2999202892417787,0.1160414505812437,太原直送,0.1160414505812437,山西省,太原市,迎泽区,柳巷街道,山西省太原市迎泽区柳巷街道前所街王府井城市奥莱,112.55964773013466,37.86401945051524,178_88,112.55860722265408,37.862021458165216,1.0,2001349114.0,112.5590406,37.8640611,140106121021.0,0,0,111
太原直送,CWLS029,CWLS029,42,140106121029,（唐***文唐久便利店,112.574449,37.867884,1.0,3.0,111.0,55.0,2.2923208605744985,2.2914163341344147,0.1160698057937571,太原直送,0.1160698057937571,山西省,太原市,迎泽区,文庙街道,山西省太原市迎泽区文庙街道新东方御庭华府小区,112.56819729343329,37.86739842158105,180_89,112.57019307908838,37.86651806337164,1.0,4178372364.0,112.5678433,37.8673155,140106121029.0,0,0,111
太原直送,CWLS027,CWLS027,114,140106203219,山西***有限公司,112.573204,37.862933,1.0,3.0,111.0,50.33,2.2974134730346205,2.2957372108322818,0.1201292637994606,太原直送,0.1201292637994606,山西省,太原市,迎泽区,柳巷街道,山西省太原市迎泽区柳巷街道汇都购物中心汇都五一购物中心,112.5669513781882,37.86244524921973,179_88,112.56440015087122,37.862021458165216,1.0,1881727402.0,112.5669993,37.8620638,140106203219.0,0,0,111
太原直送,CWLS028,CWLS028,83,140106215657,山西***有限公司,112.572626,37.868509,1.0,3.0,111.0,33.67,2.292295102225929,2.292304014061832,0.1147667601921347,太原直送,0.1147667601921347,山西省,太原市,迎泽区,柳巷街道,山西省太原市迎泽区柳巷街道小濮府铜锣湾国际购物中心,112.5663720113126,37.8680215792534,179_89,112.56440015087122,37.86651806337164,1.0,11304152264.0,112.5661993,37.8680263,140106215657.0,0,0,111
太原直送,CWLS028,CWLS028,69,140106219421,太原***有限公司,112.567839,37.870363,1.0,3.0,111.0,5.0,2.2920331317622784,2.294494503903851,0.11123306395133,太原直送,0.11123306395133,山西省,太原市,迎泽区,柳巷街道,山西省太原市迎泽区柳巷街道柳巷宝地住宅小区,112.56157810531548,37.8698700885817,179_90,112.56440015087122,37.87101466857806,1.0,4202938997.0,112.5615453,37.8699307,140106219421.0,0,0,111
太原直送,CWLS029,CWLS029,72,140106220097,太原***有限公司,112.576372,37.867776,1.0,3.0,111.0,39.0,2.2918257391647363,2.290100396999436,0.1169623021746769,太原直送,0.1169623021746769,山西省,太原市,迎泽区,文庙街道,山西省太原市迎泽区文庙街道上马街永安里,112.57012243220466,37.86729230184834,180_89,112.57019307908838,37.86651806337164,1.0,6947180969.0,112.5700296,37.8672222,140106220097.0,0,0,111
太原直送,CWLS029,CWLS029,71,140106220271,太原***贸易商行,112.578579,37.867742,1.0,3.0,111.0,50.0,2.2911738278334512,2.288528983044344,0.1179360258657217,太原直送,0.1179360258657217,山西省,太原市,迎泽区,文庙街道,山西省太原市迎泽区文庙街道杏花巷文杏苑,112.57233161581932,37.86726027261998,180_89,112.57019307908838,37.86651806337164,1.0,1108624759.0,112.572346,37.8671628,140106220271.0,0,0,111
太原直送,CWLS028,CWLS028,22,140106220645,太原***有限公司,112.572484,37.86814,1.0,3.0,111.0,35.0,2.2926899873960296,2.292661404933793,0.1150499947414192,太原直送,0.1150499947414192,山西省,太原市,迎泽区,柳巷街道,山西省太原市迎泽区柳巷街道宁化府铜锣湾国际购物中心,112.56622987405152,37.867652356742006,179_89,112.56440015087122,37.86651806337164,1.0,11304152263.0,112.5661746,37.8673849,140106220645.0,0,0,111
太原直送,CWLS028,CWLS028,54,140106220754,太原***责任公司,112.569498,37.867125,1.0,3.0,111.0,32.67,2.294587459021119,2.295523384117008,0.1148535900570765,太原直送,0.1148535900570765,山西省,太原市,迎泽区,柳巷街道,山西省太原市迎泽区柳巷街道海子边西街迎泽区少年宫,112.56323994415204,37.86663365074646,179_89,112.56440015087122,37.86651806337164,1.0,1108624798.0,112.5636676,37.866841,140106220754.0,0,0,111
太原直送,CWLS028,CWLS028,12,140106220879,山西***有限公司,112.572877,37.870409,1.0,3.0,111.0,72.33,2.290411675796292,2.2908116980635853,0.1131246666823805,太原直送,0.1131246666823805,山西省,太原市,迎泽区,[],山西省太原市迎泽区南肖墙奥星幼儿园,112.56662310659034,37.86992218928743,179_90,112.56440015087122,37.87101466857806,1.0,7843319390.0,112.5658215,37.8698687,140106220879.0,0,0,111
太原直送,CWLS028,CWLS028,21,140106220950,太原***有限公司,112.572683,37.867919,1.0,3.0,111.0,71.67,2.292837869535479,2.2926698870035778,0.1153314383678593,太原直送,0.1153314383678593,山西省,太原市,迎泽区,柳巷街道,山西省太原市迎泽区柳巷街道桥头街铜锣湾国际购物中心,112.56642915160606,37.867431539585006,179_89,112.56440015087122,37.86651806337164,1.0,11304152263.0,112.5661746,37.8673849,140106220950.0,0,0,111
太原直送,CWLS028,CWLS028,7,140106220955,（金***巷北路分公司,112.567806,37.870709,1.0,3.0,111.0,78.0,2.291715021596053,2.294280229632811,0.110898881531783,太原直送,0.110898881531783,山西省,太原市,迎泽区,柳巷街道,山西省太原市迎泽区柳巷街道柳巷宝地住宅小区,112.56154501465012,37.87021610584749,179_90,112.56440015087122,37.87101466857806,1.0,2042360024.0,112.5615453,37.8705015,140106220955.0,0,0,111
太原直送,CWLS029,CWLS029,58,140107104895,太原***信誉商店,112.576422,37.870386,1.0,3.0,111.0,95.67,2.2893293184987584,2.288261603951131,0.1146198538212221,太原直送,0.1146198538212221,山西省,太原市,杏花岭区,杏花岭街道,山西省太原市杏花岭区杏花岭街道杏花岭杏花岭住宅小区,112.57017218242235,37.86990280547196,180_90,112.57019307908838,37.87101466857806,1.0,12607199199.0,112.5711643,37.8698609,140107104895.0,0,0,111
太原直送,CWLS028,CWLS028,65,140107118583,太原***润便利店,112.567964,37.872348,1.0,3.0,111.0,54.0,2.290109419007306,2.2930375645124035,0.1094334238978177,太原直送,0.1094334238978177,山西省,太原市,杏花岭区,鼓楼街道,山西省太原市杏花岭区鼓楼街道柳巷柳北1号楼地面停车场,112.56170306606153,37.8718556026823,179_90,112.56440015087122,37.87101466857806,1.0,2042360067.0,112.5616714,37.8721598,140107118583.0,0,0,111
太原直送,CWLS029,CWLS029,136,140107118715,太原***若便利店,112.566157,37.871268,1.0,3.0,111.0,81.0,2.291703145275362,2.295091960275661,0.1097841797391584,太原直送,0.1097841797391584,山西省,太原市,杏花岭区,鼓楼街道,山西省太原市杏花岭区鼓楼街道北司街鼓楼世纪广场,112.5598933479423,37.87077297005041,178_90,112.55860722265408,37.87101466857806,1.0,9141343473.0,112.5598304,37.8705376,140107118715.0,0,0,111
太原直送,CWLS050,CWLS050,32,140107119007,太原***康便利店,112.575992,37.872684,1.0,3.0,111.0,55.33,2.287279026947521,2.2869870547655045,0.1123609259573793,太原直送,0.1123609259573793,山西省,太原市,杏花岭区,杏花岭街道,山西省太原市杏花岭区杏花岭街道南华门东二条审计署宿舍,112.5697414603304,37.87220080102275,180_90,112.57019307908838,37.87101466857806,1.0,4214125274.0,112.5688929,37.8718494,140107119007.0,0,0,111
太原直送,CWLS029,CWLS029,55,140107119620,太原***鲜便利店,112.574879,37.870911,1.0,3.0,111.0,45.33,2.289310436079826,2.2890159058173905,0.1134901776366542,太原直送,0.1134901776366542,山西省,太原市,杏花岭区,杏花岭街道,山西省太原市杏花岭区杏花岭街道南华门香榭舍公寓,112.56862743656058,37.87042639036452,180_90,112.57019307908838,37.87101466857806,1.0,9141343493.0,112.5679551,37.8699249,140107119620.0,0,0,111
太原直送,CWLS028,CWLS028,67,140107119769,太原***国忠饭店,112.567806,37.870709,1.0,3.0,111.0,44.0,2.291715021596053,2.294280229632811,0.110898881531783,太原直送,0.110898881531783,山西省,太原市,迎泽区,柳巷街道,山西省太原市迎泽区柳巷街道柳巷宝地住宅小区,112.56154501465012,37.87021610584749,179_90,112.56440015087122,37.87101466857806,1.0,2042360024.0,112.5615453,37.8705015,140107119769.0,0,0,111
太原直送,CWLS029,CWLS029,59,140107119991,(唐***东连唐久便利店,112.578012,37.870346,1.0,3.0,111.0,63.33,2.288873698266902,2.28713920306067,0.1153462412478196,太原直送,0.1153462412478196,山西省,太原市,杏花岭区,杏花岭街道,山西省太原市杏花岭区杏花岭街道杏花岭太原市人民医院,112.5717637810049,37.869864240880666,180_90,112.57019307908838,37.87101466857806,1.0,1108624764.0,112.5720624,37.8697914,140107119991.0,0,0,111
太原直送,CWLS029,CWLS029,118,140107120005,太原***东荣商店,112.569603,37.872842,1.0,3.0,111.0,34.67,2.289125638466574,2.291508464648122,0.1095972093668448,太原直送,0.1095972093668448,山西省,太原市,杏花岭区,杏花岭街道,山西省太原市杏花岭区杏花岭街道旭曼采耳杏花岭天地坛社区,112.563344432234,37.87235178410288,179_90,112.56440015087122,37.87101466857806,1.0,7843312005.0,112.5634341,37.872997,140107120005.0,0,0,111
太原直送,CWLS029,CWLS029,133,140107120058,太原***豆茶餐厅,112.565207,37.871435,1.0,3.0,111.0,61.33,2.2918440366220394,2.2956666919143545,0.1092948372980174,太原直送,0.1092948372980174,山西省,太原市,杏花岭区,鼓楼街道,山西省太原市杏花岭区鼓楼街道南司街鼓楼世纪广场,112.5589417622162,37.870938659962135,178_90,112.55860722265408,37.87101466857806,1.0,1917506002.0,112.558889,37.8714529,140107120058.0,0,0,111
太原直送,CWLS029,CWLS029,137,140107120120,太原***金点商行,112.566058,37.871432,1.0,3.0,111.0,61.33,2.2915786748636853,2.2950509985943675,0.1095957587956751,太原直送,0.1095957587956751,山西省,太原市,杏花岭区,鼓楼街道,山西省太原市杏花岭区鼓楼街道北司街鼓楼世纪广场,112.55979416797976,37.87093686112905,178_90,112.55860722265408,37.87101466857806,1.0,11657199625.0,112.5597959,37.8705369,140107120120.0,0,0,111
太原直送,CWLS029,CWLS029,119,140107120183,（金***园金虎便利店,112.565017,37.872008,1.0,3.0,111.0,64.67,2.291360213485648,2.2954106531342053,0.1086915102526378,太原直送,0.1086915102526378,山西省,太原市,杏花岭区,鼓楼街道,山西省太原市杏花岭区鼓楼街道北司街鼓楼世纪广场,112.5587513765918,37.87151148854348,178_90,112.55860722265408,37.87101466857806,1.0,11657199629.0,112.5588016,37.8714741,140107120183.0,0,0,111
太原直送,CWLS029,CWLS029,37,140107120545,（唐***治国唐久便利店,112.57496,37.872116,1.0,3.0,111.0,48.33,2.288140165044527,2.288126068969318,0.1124316717744622,太原直送,0.1124316717744622,山西省,太原市,杏花岭区,杏花岭街道,山西省太原市杏花岭区杏花岭街道府东街40号金纪元大厦,112.56870838880909,37.87163168447584,180_90,112.57019307908838,37.87101466857806,1.0,4214125274.0,112.5688929,37.8718494,140107120545.0,0,0,111
太原直送,CWLS028,CWLS028,8,140107120640,太原***阳烟酒店,112.566374,37.872589,1.0,3.0,111.0,65.0,2.2903810368200768,2.294025850836911,0.108627611025005,太原直送,0.108627611025005,山西省,太原市,杏花岭区,鼓楼街道,山西省太原市杏花岭区鼓楼街道科兴大厦润玺酒店(太原柳巷山西省眼科医院店),112.56011054561786,37.87209450377392,178_90,112.55860722265408,37.87101466857806,1.0,4214465877.0,112.5603268,37.8723543,140107120640.0,0,0,111
太原直送,CWLS050,CWLS050,11,140107120831,太原***烟酒商行,112.576002,37.872682,1.0,3.0,111.0,55.67,2.2872778151195368,2.2869811938232005,0.1123670627986707,太原直送,0.1123670627986707,山西省,太原市,杏花岭区,杏花岭街道,山西省太原市杏花岭区杏花岭街道南华门东二条审计署宿舍,112.56975147128536,37.87219881028432,180_90,112.57019307908838,37.87101466857806,1.0,4214125274.0,112.5688929,37.8718494,140107120831.0,0,0,111
太原直送,CWLS028,CWLS028,66,140107205928,太原***有限公司,112.567964,37.872348,1.0,3.0,111.0,42.0,2.290109419007306,2.2930375645124035,0.1094334238978177,太原直送,0.1094334238978177,山西省,太原市,杏花岭区,鼓楼街道,山西省太原市杏花岭区鼓楼街道柳巷柳北1号楼地面停车场,112.56170306606153,37.8718556026823,179_90,112.56440015087122,37.87101466857806,1.0,2042360067.0,112.5616714,37.8721598,140107205928.0,0,0,111
太原直送,CWLS029,CWLS029,29,140107219374,山西***有限公司,112.565235,37.872121,1.0,3.0,111.0,27.67,2.291184214824289,2.295174659832447,0.1086614699329977,太原直送,0.1086614699329977,山西省,太原市,杏花岭区,鼓楼街道,山西省太原市杏花岭区鼓楼街道北司街鼓楼世纪广场,112.55896972949846,37.87162482098603,178_90,112.55860722265408,37.87101466857806,1.0,11657199652.0,112.5588874,37.8714755,140107219374.0,0,0,111
太原直送,CWLS029,CWLS029,114,140107219708,山西***有限公司,112.565171,37.87221,1.0,3.0,111.0,66.33,2.2911199462195286,2.2951599452661164,0.1085557284209342,太原直送,0.1085557284209342,山西省,太原市,杏花岭区,鼓楼街道,山西省太原市杏花岭区鼓楼街道北司街鼓楼世纪广场,112.55890561198537,37.87171374516921,178_90,112.55860722265408,37.87101466857806,1.0,11657199652.0,112.5588874,37.8714755,140107219708.0,0,0,111
太原直送,CWLS029,CWLS029,115,140107220244,太原***责任公司,112.565171,37.87221,1.0,3.0,111.0,48.33,2.2911199462195286,2.2951599452661164,0.1085557284209342,太原直送,0.1085557284209342,山西省,太原市,杏花岭区,鼓楼街道,山西省太原市杏花岭区鼓楼街道北司街鼓楼世纪广场,112.55890561198537,37.87171374516921,178_90,112.55860722265408,37.87101466857806,1.0,11657199652.0,112.5588874,37.8714755,140107220244.0,0,0,111
太原直送,CWLS028,CWLS028,63,140107220265,太原***有限公司,112.566479,37.872727,1.0,3.0,111.0,56.0,2.2902169861792583,2.2938547198349326,0.1085367276639582,太原直送,0.1085367276639582,山西省,太原市,杏花岭区,鼓楼街道,山西省太原市杏花岭区鼓楼街道府东街润玺酒店(太原柳巷山西省眼科医院店),112.56021569848065,37.87223267292199,178_90,112.55860722265408,37.87101466857806,1.0,4214465877.0,112.5603268,37.8723543,140107220265.0,0,0,111
太原直送,CWLS029,CWLS029,25,140107220372,山西***有限公司,112.564672,37.871284,1.0,3.0,111.0,65.0,2.2921560837765784,2.296158960791909,0.1092522765071703,太原直送,0.1092522765071703,山西省,太原市,杏花岭区,鼓楼街道,山西省太原市杏花岭区鼓楼街道芊韵琴行鼓楼世纪广场,112.55840587609616,37.87078686226912,178_90,112.55860722265408,37.87101466857806,1.0,9141343474.0,112.5579136,37.8705569,140107220372.0,0,0,111
太原直送,CWLS028,CWLS028,18,140107221032,西山***西山酒店,112.56799,37.872236,1.0,3.0,111.0,5.0,2.290207567739221,2.293095764855233,0.1095470659488379,太原直送,0.1095470659488379,山西省,太原市,杏花岭区,鼓楼街道,山西省太原市杏花岭区鼓楼街道柳巷柳北1号楼地面停车场,112.56172911865224,37.871743617016925,179_90,112.56440015087122,37.87101466857806,1.0,2042360067.0,112.5616714,37.8721598,140107221032.0,0,0,111
太原直送,CWLS028,CWLS028,15,140106121054,（金***萍金虎便利店,112.570887,37.867926,1.0,3.0,111.0,31.33,2.293392098053233,2.293965149395693,0.1146300184288574,太原直送,0.1146300184288574,山西省,太原市,迎泽区,柳巷街道,山西省太原市迎泽区柳巷街道桥头街铜锣湾城市福邸,112.56463079621318,37.8674364801856,179_89,112.56440015087122,37.86651806337164,1.0,7543095212.0,112.5644941,37.8665393,140106121054.0,0,0,111
太原直送,CWLS028,CWLS028,28,140107121093,(唐***区皓然唐久便利店,112.570293,37.871611,1.0,3.0,111.0,69.0,2.290078184713347,2.2918556670447128,0.1109992712768869,太原直送,0.1109992712768869,山西省,太原市,杏花岭区,杏花岭街道,山西省太原市杏花岭区杏花岭街道天地坛天地坛小区,112.56403555055536,37.87112141355392,179_90,112.56440015087122,37.87101466857806,1.0,1898886548.0,112.5640672,37.8720179,140107121093.0,0,0,111
太原直送,CWLS028,CWLS028,19,140106121093,太原***轩便利店,112.566419,37.866492,1.0,3.0,111.0,36.33,2.296154254519717,2.2981902673351486,0.1143527930441541,太原直送,0.1143527930441541,山西省,太原市,迎泽区,柳巷街道,山西省太原市迎泽区柳巷街道中校尉营长风广场,112.56015632517244,37.86599649802236,178_89,112.55860722265408,37.86651806337164,1.0,2001349118.0,112.5600548,37.8659832,140106121093.0,0,0,111
太原直送,CWLS029,CWLS029,44,140106121139,太原***旺食品店,112.574333,37.869079,1.0,3.0,111.0,28.33,2.2912213687629586,2.2906752707909104,0.1149313712438836,太原直送,0.1149313712438836,山西省,太原市,迎泽区,文庙街道,山西省太原市迎泽区文庙街道五一路辅路御庭华府小区,112.56808102001985,37.8685935103682,180_89,112.57019307908838,37.86651806337164,1.0,11304152266.0,112.5676094,37.8679052,140106121139.0,0,0,111
太原直送,CWLS029,CWLS029,47,140107121170,太原***通便利店,112.565651,37.871873,1.0,3.0,111.0,63.33,2.291288391525604,2.2950431377908744,0.1090395389938883,太原直送,0.1090395389938883,山西省,太原市,杏花岭区,鼓楼街道,山西省太原市杏花岭区鼓楼街道北司街鼓楼世纪广场,112.55938644957496,37.8713773679753,178_90,112.55860722265408,37.87101466857806,1.0,1917506002.0,112.558889,37.8714529,140107121170.0,0,0,111
太原直送,CWLS028,CWLS028,36,140107121179,太原***烟酒商行,112.573515,37.870395,1.0,3.0,111.0,26.33,2.290225883477869,2.290359358896543,0.1133960386786032,太原直送,0.1133960386786032,山西省,太原市,迎泽区,[],山西省太原市迎泽区南肖墙奥星幼儿园,112.56726189392214,37.86990887934472,179_90,112.56440015087122,37.87101466857806,1.0,9141343494.0,112.567689,37.8699112,140107121179.0,0,0,111
太原直送,CWLS027,CWLS027,43,140106221163,山西***有限公司,112.572942,37.862479,1.0,3.0,111.0,86.67,2.2979264539991258,2.296240392755079,0.1204493856231708,太原直送,0.1204493856231708,山西省,太原市,迎泽区,柳巷街道,山西省太原市迎泽区柳巷街道海子边东街五一广场,112.5666891063214,37.86199088566144,179_88,112.56440015087122,37.862021458165216,1.0,12188256246.0,112.5668102,37.8617887,140106221163.0,0,0,111
太原直送,CWLS027,CWLS027,10,140106121168,太原***凝烟酒店,112.572274,37.865373,1.0,3.0,111.0,38.0,2.2953844483661148,2.294723454819779,0.1175190846671272,太原直送,0.1175190846671272,山西省,太原市,迎泽区,柳巷街道,山西省太原市迎泽区柳巷街道皇华馆皇华馆住宅小区,112.5660199263218,37.86488464096782,179_89,112.56440015087122,37.86651806337164,1.0,1108624725.0,112.5658884,37.8648472,140106121168.0,0,0,111
太原直送,CWLS027,CWLS027,38,140106121200,太原***烟酒商行,112.574051,37.863822,1.0,3.0,111.0,22.67,2.296305151736808,2.294510625351298,0.1196367218081455,太原直送,0.1196367218081455,山西省,太原市,迎泽区,文庙街道,山西省太原市迎泽区文庙街道新艳剔尖馆汇都五一购物中心,112.56779929754518,37.86333530509239,180_88,112.57019307908838,37.862021458165216,1.0,1881727416.0,112.5678792,37.862071,140106121200.0,0,0,111
太原直送,CWLS027,CWLS027,40,140106121202,太原***富便利店,112.577399,37.865082,1.0,3.0,111.0,31.67,2.294068478792425,2.2912209619663466,0.1198387606619802,太原直送,0.1198387606619802,山西省,太原市,迎泽区,文庙街道,山西省太原市迎泽区文庙街道上官巷上官巷小区,112.57115079314453,37.864598781617794,180_89,112.57019307908838,37.86651806337164,1.0,6947180964.0,112.5710805,37.8646179,140106121202.0,0,0,111
太原直送,CWLS028,CWLS028,61,140106121206,太原***荣烟酒店,112.569157,37.866496,1.0,3.0,111.0,38.0,2.2952916021963308,2.296204104569536,0.1153145797590245,太原直送,0.1153145797590245,山西省,太原市,迎泽区,柳巷街道,山西省太原市迎泽区柳巷街道海子边西街湖景酒店(太原柳巷钟楼街店),112.5628985231627,37.86600411385611,179_89,112.56440015087122,37.86651806337164,1.0,2001349098.0,112.5628504,37.8659281,140106121206.0,0,0,111
太原直送,CWLS028,CWLS028,144,140106121254,太原***家烟酒店,112.565599,37.86956,1.0,3.0,111.0,50.67,2.293499964382164,2.2966720910173426,0.1111897491902924,太原直送,0.1111897491902924,山西省,太原市,迎泽区,柳巷街道,山西省太原市迎泽区柳巷街道茉莉奶白(太原钟楼街店)太原市钟楼街步行街,112.55933463198224,37.8690638879064,178_90,112.55860722265408,37.87101466857806,1.0,9182380374.0,112.5579386,37.8690792,140106121254.0,0,0,111
太原直送,CWLS028,CWLS028,128,140106121282,(唐***张田伟唐久便利店,112.56799,37.864449,1.0,3.0,111.0,38.0,2.297601135219297,2.298461018668798,0.1168125928357003,太原直送,0.1168125928357003,山西省,太原市,迎泽区,柳巷街道,山西省太原市迎泽区柳巷街道开化寺街贵都世纪广场,112.56173002146856,37.86395525843371,179_88,112.56440015087122,37.862021458165216,1.0,4209678009.0,112.5621887,37.8640307,140106121282.0,0,0,111
太原直送,CWLS029,CWLS029,116,140107121310,（唐***娇唐久便利店,112.574333,37.870776,1.0,3.0,111.0,49.0,2.289608828185506,2.2895043055583035,0.113385146685972,太原直送,0.113385146685972,山西省,太原市,杏花岭区,杏花岭街道,山西省太原市杏花岭区杏花岭街道真维斯(五一路)锦江之星风尚酒店(太原钟楼街五一路店),112.56808082344146,37.87029080794279,180_90,112.57019307908838,37.87101466857806,1.0,9141343493.0,112.5679551,37.8699249,140107121310.0,0,0,111
太原直送,CWLS027,CWLS027,115,140106121286,太原***一烟酒店,112.57412,37.864501,1.0,3.0,111.0,43.0,2.295638349484739,2.2939913862157426,0.1190391502531821,太原直送,0.1190391502531821,山西省,太原市,迎泽区,文庙街道,山西省太原市迎泽区文庙街道五一路,112.5678683003996,37.86401449413648,180_88,112.57019307908838,37.862021458165216,1.0,1881727417.0,112.5677413,37.8648065,140106121286.0,0,0,111
太原直送,CWLS028,CWLS028,153,140106121292,太原***子烟酒店,112.573863,37.866234,1.0,3.0,111.0,50.33,2.2940712943021184,2.2929796818938426,0.1173456159428217,太原直送,0.1173456159428217,山西省,太原市,迎泽区,柳巷街道,山西省太原市迎泽区柳巷街道五一路43号慧诚大厦,112.56761079478008,37.86574752362643,180_89,112.57019307908838,37.86651806337164,1.0,6947180970.0,112.567767,37.8657307,140106121292.0,0,0,111
太原直送,CWLS028,CWLS028,71,140106121300,（唐***久便利云路街店,112.567766,37.862893,1.0,3.0,111.0,43.33,2.299148982642271,2.2996968512471323,0.1181954577342132,太原直送,0.1181954577342132,山西省,太原市,迎泽区,柳巷街道,山西省太原市迎泽区柳巷街道云路街文瀛公园,112.56150585945416,37.862398696166295,179_88,112.56440015087122,37.862021458165216,1.0,1513044633.0,112.560615,37.8624206,140106121300.0,0,0,111
太原直送,CWLS028,CWLS028,128,140106121311,太原***福便利店,112.566398,37.866482,1.0,3.0,111.0,31.5,2.296170346644603,2.2982123765024367,0.1143550066503458,太原直送,0.1143550066503458,山西省,太原市,迎泽区,柳巷街道,山西省太原市迎泽区柳巷街道四岔楼太原茂业百货,112.56013529254017,37.86598646732362,178_89,112.55860722265408,37.86651806337164,1.0,2001349118.0,112.5600548,37.8659832,140106121311.0,0,0,111
太原直送,CWLS028,CWLS028,42,140106121313,太原***晴便利店,112.570734,37.867938,1.0,3.0,111.0,44.5,2.293428539446124,2.2940676580617625,0.1145608157530283,太原直送,0.1145608157530283,山西省,太原市,迎泽区,柳巷街道,山西省太原市迎泽区柳巷街道桥头街铜锣湾城市福邸,112.56447758586924,37.86744830022295,179_89,112.56440015087122,37.86651806337164,1.0,1108624739.0,112.5635762,37.8674043,140106121313.0,0,0,111
太原直送,CWLS028,CWLS028,39,140106121314,（唐***三合唐久便利店,112.571667,37.867906,1.0,3.0,111.0,49.0,2.2931673525525778,2.293414236687734,0.1149473672817283,太原直送,0.1149473672817283,山西省,太原市,迎泽区,柳巷街道,山西省太原市迎泽区柳巷街道桥头街艾菲酒店(太原柳巷铜锣湾店),112.56541184339244,37.86741738895292,179_89,112.56440015087122,37.86651806337164,1.0,11304152263.0,112.5661746,37.8673849,140106121314.0,0,0,111
太原直送,CWLS029,CWLS029,110,140106121321,太原***钰便利店,112.577667,37.867718,1.0,3.0,111.0,34.0,2.29147915825673,2.2892045140707644,0.1175639847104521,太原直送,0.1175639847104521,山西省,太原市,迎泽区,文庙街道,山西省太原市迎泽区文庙街道上马街上官巷小区,112.57141875175525,37.86723547797506,180_89,112.57019307908838,37.86651806337164,1.0,7805947363.0,112.5718634,37.8671834,140106121321.0,0,0,111
太原直送,CWLS029,CWLS029,112,140106121330,（唐***宇航唐久便利店,112.574834,37.868303,1.0,3.0,111.0,35.0,2.291802856648236,2.290848531291412,0.1158445349638893,太原直送,0.1158445349638893,山西省,太原市,迎泽区,文庙街道,山西省太原市迎泽区文庙街道上马街91号御庭华府小区,112.56858268746532,37.86781788796373,180_89,112.57019307908838,37.86651806337164,1.0,5768910333.0,112.5678471,37.8677335,140106121330.0,0,0,111
太原直送,CWLS027,CWLS027,113,140106121338,太原***便利商店,112.574138,37.864743,1.0,3.0,111.0,41.0,2.295402748904209,2.293811110767402,0.1188237940187095,太原直送,0.1188237940187095,山西省,太原市,迎泽区,文庙街道,山西省太原市迎泽区文庙街道五一路,112.56788629358677,37.8642565546456,180_88,112.57019307908838,37.862021458165216,1.0,1881727417.0,112.5677413,37.8648065,140106121338.0,0,0,111
