station_name,line_code,line_name,deliver_no,customer_code,customer_name,longitude,latitude,order_cycle_type,order_weekday,city_village_code,avg_order_qty,distance_to_平城直送,distance_to_灵丘中转站,distance_to_太原直送,nearest_station,distance_to_station,province,city,district,township,full_address,lon_84,lat_84,grid_id,LonGridCenter,LatGridCenter,group,customer_osmid_mapping,OSM_X,OSM_Y,BB_RETAIL_CUSTOMER_CODE,kmeans_cluster,dbscan_label,kmeans_label
太原直送,DWLS004,DWLS004,86,140105111694,太原***鲜便利店,112.576573,37.730107,1.0,4.0,122.0,32.0,2.423009679605101,2.387159655890032,0.2487659809861478,太原直送,0.2487659809861478,山西省,太原市,小店区,小店街道,山西省太原市小店区小店街道通达街129号小店外贸宿舍,112.57033953629642,37.72960635425131,180_59,112.57019307908838,37.73161990717895,1.0,7012102557.0,112.5697423,37.7295433,140105111694.0,0,0,94
太原直送,DWLS003,DWLS003,52,140105111855,太原***梅便利店,112.577931,37.72615,1.0,4.0,122.0,31.33,2.426394889560436,2.389072045626498,0.2529141710007594,太原直送,0.2529141710007594,山西省,太原市,小店区,小店街道,山西省太原市小店区小店街道童梦托管中心幸福家园,112.5716993479706,37.725650336814645,180_58,112.57019307908838,37.727123301972526,1.0,8239420931.0,112.5734555,37.7239113,140105111855.0,0,0,94
太原直送,DWLS003,DWLS003,56,140105112860,太原***鑫悦商店,112.576912,37.724443,1.0,4.0,122.0,60.33,2.428325391467338,2.3910093314188496,0.2543861143242651,太原直送,0.2543861143242651,山西省,太原市,小店区,小店街道,山西省太原市小店区小店街道正阳街幸福家园,112.570679536606,37.72394231967437,180_57,112.57019307908838,37.722626696766106,1.0,5316946201.0,112.5693851,37.7238886,140105112860.0,0,0,94
太原直送,DWLS003,DWLS003,45,140105113516,太原***瑞英商店,112.575569,37.722496,1.0,4.0,122.0,47.33,2.4305803918424496,2.393344167296043,0.2560393836600134,太原直送,0.2560393836600134,山西省,太原市,小店区,小店街道,山西省太原市小店区小店街道真武路汇通丽城,112.56933534185242,37.72199393015217,180_57,112.57019307908838,37.722626696766106,1.0,8239420963.0,112.5689587,37.7216364,140105113516.0,0,0,94
太原直送,DWLS003,DWLS003,81,140105114092,太原***万豪商行,112.576129,37.728342,1.0,4.0,122.0,33.67,2.424827255795557,2.388739447916833,0.250409277178382,太原直送,0.250409277178382,山西省,太原市,小店区,小店街道,山西省太原市小店区小店街道都乐街万豪诚品,112.56989527315378,37.72784082190243,180_58,112.57019307908838,37.727123301972526,1.0,5838331155.0,112.5696456,37.7277368,140105114092.0,0,0,94
太原直送,CWLS003,CWLS003,144,140105114129,太原***虎便利店,112.573017,37.722253,1.0,3.0,122.0,52.0,2.4315618003415,2.3952862666781622,0.2558095781553097,太原直送,0.2558095781553097,山西省,太原市,小店区,小店街道,山西省太原市小店区小店街道巩家堡小区,112.56678039129709,37.7217482694871,179_57,112.56440015087122,37.722626696766106,1.0,8239420953.0,112.5666493,37.7217806,140105114129.0,0,0,94
太原直送,DWLS003,DWLS003,51,140105114771,太原***轩便利店,112.577688,37.724565,1.0,4.0,122.0,67.33,2.427981633270114,2.3903842089772964,0.2544190301628388,太原直送,0.2544190301628388,山西省,太原市,小店区,小店街道,山西省太原市小店区小店街道幸福家园(南1门),112.57145629542096,37.72406502808767,180_57,112.57019307908838,37.722626696766106,1.0,8239420931.0,112.5734555,37.7239113,140105114771.0,0,0,94
太原直送,CWLS003,CWLS003,137,140105114796,太原***小苏商店,112.573679,37.728009,1.0,3.0,122.0,81.0,2.42586579358793,2.3906781755796818,0.2502702406439867,太原直送,0.2502702406439867,山西省,太原市,小店区,小店街道,山西省太原市小店区小店街道永丰路新源地小区,112.5674425367285,37.72750532619377,180_58,112.57019307908838,37.727123301972526,1.0,5838331157.0,112.5674418,37.727791,140105114796.0,0,0,94
太原直送,DWLS004,DWLS004,87,140105115545,太原***和泉酒行,112.576623,37.730105,1.0,4.0,122.0,76.0,2.4229969131907683,2.3871264262776264,0.2487778509915988,太原直送,0.2487778509915988,山西省,太原市,小店区,小店街道,山西省太原市小店区小店街道通达街129号小店外贸宿舍,112.57038958833375,37.72960440086928,180_59,112.57019307908838,37.73161990717895,1.0,7012102557.0,112.5697423,37.7295433,140105115545.0,0,0,94
太原直送,DWLS003,DWLS003,84,140105116013,太原***泽泉商行,112.576023,37.729016,1.0,4.0,122.0,34.33,2.424214080869299,2.3883271665016848,0.2497275479978112,太原直送,0.2497275479978112,山西省,太原市,小店区,小店街道,山西省太原市小店区小店街道真武路万豪诚品,112.56978908258644,37.72851476286907,180_58,112.57019307908838,37.727123301972526,1.0,5838331155.0,112.5696456,37.7277368,140105116013.0,0,0,94
太原直送,DWLS004,DWLS004,77,140105116080,（唐***红唐久便利店,112.579173,37.730136,1.0,4.0,122.0,49.33,2.422219927889496,2.385336589710139,0.2492656968958988,太原直送,0.2492656968958988,山西省,太原市,小店区,小店街道,山西省太原市小店区小店街道通达街万豪新天地,112.57294203720998,37.729637639003805,180_59,112.57019307908838,37.73161990717895,1.0,8239420925.0,112.5736913,37.7293296,140105116080.0,0,0,94
太原直送,CWLS003,CWLS003,150,140105116291,太原***瑞强商店,112.575249,37.722989,1.0,3.0,122.0,43.67,2.4302028650299965,2.3932098175949803,0.2554949863539399,太原直送,0.2554949863539399,山西省,太原市,小店区,小店街道,山西省太原市小店区小店街道真武路汇通丽城,112.56901493189388,37.722486642181146,180_57,112.57019307908838,37.722626696766106,1.0,8239420963.0,112.5689587,37.7216364,140105116291.0,0,0,94
太原直送,DWLS003,DWLS003,69,140105116555,（金***甜金虎便利店,112.578023,37.728238,1.0,4.0,122.0,35.0,2.4243714115863115,2.3875020234148483,0.2508873849459167,太原直送,0.2508873849459167,山西省,太原市,小店区,小店街道,山西省太原市小店区小店街道都乐街万豪诚品,112.57179119575991,37.72773854578338,180_58,112.57019307908838,37.727123301972526,1.0,8239420928.0,112.5736109,37.7276487,140105116555.0,0,0,94
太原直送,DWLS004,DWLS004,91,140105116733,太原***再来商店,112.575451,37.730351,1.0,4.0,122.0,94.67,2.423106092965804,2.38776206235483,0.248306776846706,太原直送,0.248306776846706,山西省,太原市,小店区,小店街道,山西省太原市小店区小店街道那哪儿咖啡(小店四组桃园小区店)小店四组桃园小区,112.56921630815135,37.72984929177985,180_59,112.57019307908838,37.73161990717895,1.0,7012102535.0,112.569543,37.7295483,140105116733.0,0,0,94
太原直送,CWLS003,CWLS003,146,140105117047,太原***刚便利店,112.575507,37.723266,1.0,3.0,122.0,53.0,2.429862390032197,2.392831317665744,0.2552715184367385,太原直送,0.2552715184367385,山西省,太原市,小店区,小店街道,山西省太原市小店区小店街道真武路汇通丽城,112.5692731852564,37.72276391330218,180_57,112.57019307908838,37.722626696766106,1.0,5316946218.0,112.5691857,37.7237602,140105117047.0,0,0,94
太原直送,DWLS004,DWLS004,60,140105117869,太原***可便利店,112.576111,37.73245,1.0,4.0,122.0,50.33,2.4209058170455537,2.385792607330738,0.2463778930281671,太原直送,0.2463778930281671,山西省,太原市,小店区,小店街道,山西省太原市小店区小店街道真武路文昌小区,112.56987678112696,37.73194907103932,180_59,112.57019307908838,37.73161990717895,1.0,5838331106.0,112.5697015,37.7319729,140105117869.0,0,0,94
太原直送,DWLS003,DWLS003,50,140105117897,太原***森便利店,112.577167,37.724198,1.0,4.0,122.0,33.67,2.4284850127939817,2.391009683460521,0.2546762275929948,太原直送,0.2546762275929948,山西省,太原市,小店区,小店街道,山西省太原市小店区小店街道正阳街汇泰丽城,112.57093482256352,37.7236975386953,180_57,112.57019307908838,37.722626696766106,1.0,5316946201.0,112.5693851,37.7238886,140105117897.0,0,0,94
太原直送,DWLS003,DWLS003,46,140105117899,（唐***惠唐久便利店,112.575843,37.722758,1.0,4.0,122.0,64.33,2.430249601098001,2.392965421131274,0.25583394365291,太原直送,0.25583394365291,山西省,太原市,小店区,小店街道,山西省太原市小店区小店街道真武路180号汇通丽城,112.56960960951524,37.72225621211429,180_57,112.57019307908838,37.722626696766106,1.0,8239420963.0,112.5689587,37.7216364,140105117899.0,0,0,94
太原直送,DWLS003,DWLS003,49,140105118095,太原***利便利店,112.576819,37.724223,1.0,4.0,122.0,83.33,2.4285629800307804,2.391232487368174,0.2545837840004705,太原直送,0.2545837840004705,山西省,太原市,小店区,小店街道,山西省太原市小店区小店街道正阳街汇丰丽城,112.57058646698876,37.72372222092276,180_57,112.57019307908838,37.722626696766106,1.0,5316946201.0,112.5693851,37.7238886,140105118095.0,0,0,94
太原直送,DWLS003,DWLS003,85,140105118096,太原***阳光商店,112.576023,37.729016,1.0,4.0,122.0,73.33,2.424214080869299,2.3883271665016848,0.2497275479978112,太原直送,0.2497275479978112,山西省,太原市,小店区,小店街道,山西省太原市小店区小店街道真武路万豪诚品,112.56978908258644,37.72851476286907,180_58,112.57019307908838,37.727123301972526,1.0,5838331155.0,112.5696456,37.7277368,140105118096.0,0,0,94
太原直送,DWLS004,DWLS004,61,140105118151,太原***福便利店,112.577884,37.732764,1.0,4.0,122.0,21.67,2.4200849267845923,2.3843362928062373,0.2464280002799955,太原直送,0.2464280002799955,山西省,太原市,小店区,小店街道,山西省太原市小店区小店街道昌盛西街190号文昌小区,112.57165154161252,37.73226471815135,180_59,112.57019307908838,37.73161990717895,1.0,8239420921.0,112.5715555,37.7319528,140105118151.0,0,0,94
太原直送,CWLS003,CWLS003,151,140105118260,太原***品便利店,112.573833,37.728378,1.0,3.0,122.0,46.67,2.4254678086128063,2.390305554511811,0.2499362735278713,太原直送,0.2499362735278713,山西省,太原市,小店区,小店街道,山西省太原市小店区小店街道都乐街新源地小区,112.56759667868646,37.72787451268261,180_58,112.57019307908838,37.727123301972526,1.0,5838331157.0,112.5674418,37.727791,140105118260.0,0,0,94
太原直送,DWLS003,DWLS003,67,140105118771,太原***福便利店,112.576921,37.728253,1.0,4.0,122.0,45.33,2.424679979164258,2.3882547103441434,0.2506521782949392,太原直送,0.2506521782949392,山西省,太原市,小店区,小店街道,山西省太原市小店区小店街道都乐街万豪诚品,112.5706881073018,37.72775255936721,180_58,112.57019307908838,37.727123301972526,1.0,5838331155.0,112.5696456,37.7277368,140105118771.0,0,0,94
太原直送,CWLS003,CWLS003,152,140105119026,太原***强食品店,112.574993,37.722782,1.0,3.0,122.0,49.0,2.430475843645638,2.3935364153724428,0.2556504213198145,太原直送,0.2556504213198145,山西省,太原市,小店区,小店街道,山西省太原市小店区小店街道巩家堡批发零售市场,112.5687586689466,37.7222793741934,180_57,112.57019307908838,37.722626696766106,1.0,8239420963.0,112.5689587,37.7216364,140105119026.0,0,0,94
太原直送,CWLS003,CWLS003,145,140105119175,太原***强便利店,112.573473,37.722239,1.0,3.0,122.0,44.33,2.4314411549934696,2.3949805863123323,0.2559052481212507,太原直送,0.2559052481212507,山西省,太原市,小店区,小店街道,山西省太原市小店区小店街道巩家堡小区,112.56723695217764,37.72173476275044,179_57,112.56440015087122,37.722626696766106,1.0,8239420953.0,112.5666493,37.7217806,140105119175.0,0,0,94
太原直送,CWLS003,CWLS003,135,140105119253,太原***二福商行,112.573676,37.728147,1.0,3.0,122.0,44.67,2.4257347940558107,2.390580849940025,0.2501340766568998,太原直送,0.2501340766568998,山西省,太原市,小店区,小店街道,山西省太原市小店区小店街道永丰路新源地小区,112.56743951723335,37.72764333162545,180_58,112.57019307908838,37.727123301972526,1.0,5838331157.0,112.5674418,37.727791,140105119253.0,0,0,94
太原直送,DWLS004,DWLS004,93,140105119538,山西***强便利店,112.580312,37.733858,1.0,4.0,122.0,23.67,2.418327550082908,2.381864238771173,0.2458695214661649,太原直送,0.2458695214661649,山西省,太原市,小店区,唐槐街道,山西省太原市小店区唐槐街道下庄路坤泽十里城北区清郡,112.5740815837574,37.73336079105831,181_59,112.57598600730554,37.73161990717895,1.0,5838331151.0,112.5741907,37.7345894,140105119538.0,0,0,94
太原直送,DWLS003,DWLS003,77,140105119553,山西***杰便利店,112.581095,37.728096,1.0,4.0,122.0,43.67,2.423609498785847,2.385477544568797,0.2516652590505875,太原直送,0.2516652590505875,山西省,太原市,小店区,唐槐街道,山西省太原市小店区唐槐街道都乐街坤泽十里城,112.5748658736087,37.72759900232767,181_58,112.57598600730554,37.727123301972526,1.0,8239420928.0,112.5736109,37.7276487,140105119553.0,0,0,94
太原直送,DWLS004,DWLS004,83,140105119810,太原***梓萌商行,112.577246,37.729688,1.0,4.0,122.0,80.67,2.423212761705001,2.386995014343552,0.24931066410003,太原直送,0.24931066410003,山西省,太原市,小店区,小店街道,山西省太原市小店区小店街道二分八风味美食园(通达店)文化大厦,112.57101326986748,37.72918794716866,180_58,112.57019307908838,37.727123301972526,1.0,5316946203.0,112.5697361,37.7294436,140105119810.0,0,0,94
太原直送,DWLS004,DWLS004,15,140105119822,太原***翠英商店,112.577441,37.72969,1.0,4.0,122.0,78.33,2.4231536685288897,2.386858405736298,0.2493478492247317,太原直送,0.2493478492247317,山西省,太原市,小店区,小店街道,山西省太原市小店区小店街道通达街31号万豪诚品,112.57120846337432,37.72919012312975,180_58,112.57019307908838,37.727123301972526,1.0,5316946203.0,112.5697361,37.7294436,140105119822.0,0,0,94
太原直送,DWLS003,DWLS003,44,140105119903,（金***林金虎便利店,112.575448,37.722418,1.0,4.0,122.0,44.33,2.430690430573588,2.393484209712907,0.2560932050055212,太原直送,0.2560932050055212,山西省,太原市,小店区,小店街道,山西省太原市小店区小店街道真武路汇通丽城,112.56921421795224,37.72191580673497,180_57,112.57019307908838,37.722626696766106,1.0,8239420963.0,112.5689587,37.7216364,140105119903.0,0,0,94
太原直送,CWLS003,CWLS003,149,140105119946,太原***明的商行,112.57521,37.723093,1.0,3.0,122.0,59.0,2.4301148750906827,2.393161760828549,0.2553855152294266,太原直送,0.2553855152294266,山西省,太原市,小店区,小店街道,山西省太原市小店区小店街道真武路汇通丽城,112.5689758764774,37.7225906093115,180_57,112.57019307908838,37.722626696766106,1.0,8239420963.0,112.5689587,37.7216364,140105119946.0,0,0,94
太原直送,DWLS003,DWLS003,61,140105120012,太原***永兵商行,112.576478,37.728244,1.0,4.0,122.0,81.0,2.424818520794086,2.3885681991211856,0.2505736674632838,太原直送,0.2505736674632838,山西省,太原市,小店区,小店街道,山西省太原市小店区小店街道都乐街幸福天街,112.57024465190553,37.72774314662658,180_58,112.57019307908838,37.727123301972526,1.0,5838331155.0,112.5696456,37.7277368,140105120012.0,0,0,94
太原直送,DWLS004,DWLS004,11,140105120041,太原***品食品店,112.579072,37.730037,1.0,4.0,122.0,62.0,2.422344148529062,2.3854779547118,0.2493415362048558,太原直送,0.2493415362048558,山西省,太原市,小店区,小店街道,山西省太原市小店区小店街道通达街万豪新天地,112.57284095855852,37.72953854957908,180_59,112.57019307908838,37.73161990717895,1.0,8239420925.0,112.5736913,37.7293296,140105120041.0,0,0,94
太原直送,CWLS003,CWLS003,140,140105120107,太原***鑫阳商店,112.575719,37.726787,1.0,3.0,122.0,75.67,2.4264341054197165,2.3901446046523978,0.2518554462623332,太原直送,0.2518554462623332,山西省,太原市,小店区,小店街道,山西省太原市小店区小店街道真武路幸福天街,112.56948501156816,37.72628532990972,180_58,112.57019307908838,37.727123301972526,1.0,5838331154.0,112.5694353,37.7277378,140105120107.0,0,0,94
太原直送,DWLS004,DWLS004,16,140105120153,山西***全便利店,112.578929,37.730049,1.0,4.0,122.0,33.0,2.42237452314872,2.385568383541537,0.2493001398555543,太原直送,0.2493001398555543,山西省,太原市,小店区,小店街道,山西省太原市小店区小店街道通达街万豪新天地,112.5726978286876,37.72955043200409,180_59,112.57019307908838,37.73161990717895,1.0,8239420925.0,112.5736913,37.7293296,140105120153.0,0,0,94
太原直送,DWLS004,DWLS004,14,140105120167,太原***海珍商行,112.577327,37.730023,1.0,4.0,122.0,72.67,2.422868737055309,2.386697418274255,0.248998730028885,太原直送,0.248998730028885,山西省,太原市,小店区,小店街道,山西省太原市小店区小店街道通达街文化大厦,112.57109431205014,37.729523041950905,180_59,112.57019307908838,37.73161990717895,1.0,7012102557.0,112.5697423,37.7295433,140105120167.0,0,0,94
太原直送,DWLS003,DWLS003,53,140105120373,（金***琦金虎便利店,112.578092,37.726483,1.0,4.0,122.0,18.0,2.4260293550254066,2.388720291363556,0.2526202485965805,太原直送,0.2526202485965805,山西省,太原市,小店区,小店街道,山西省太原市小店区小店街道墨韵书画教育幸福家园,112.57186046344466,37.72598349740133,180_58,112.57019307908838,37.727123301972526,1.0,8239420928.0,112.5736109,37.7276487,140105120373.0,0,0,94
太原直送,CWLS003,CWLS003,134,140105120502,太原***光便利店,112.573847,37.727053,1.0,3.0,122.0,27.0,2.426729996406688,2.391250433538277,0.2512408147893178,太原直送,0.2512408147893178,山西省,太原市,小店区,小店街道,山西省太原市小店区小店街道恒济巷御龙苑小区,112.56761084793706,37.72654944516013,180_58,112.57019307908838,37.727123301972526,1.0,5838331157.0,112.5674418,37.727791,140105120502.0,0,0,94
太原直送,DWLS003,DWLS003,64,140105120504,太原***鲜便利店,112.578123,37.72824,1.0,4.0,122.0,44.67,2.4243402198695194,2.387431310764349,0.2509056657570728,太原直送,0.2509056657570728,山西省,太原市,小店区,小店街道,山西省太原市小店区小店街道都乐街万豪诚品,112.57189129070264,37.72774063282113,180_58,112.57019307908838,37.727123301972526,1.0,8239420928.0,112.5736109,37.7276487,140105120504.0,0,0,94
太原直送,DWLS004,DWLS004,85,140105120631,（唐***斌唐久便利店,112.576541,37.730104,1.0,4.0,122.0,56.67,2.423021942007336,2.3871840070078347,0.248762584455543,太原直送,0.248762584455543,山西省,太原市,小店区,小店街道,山西省太原市小店区小店街道通达街129号小店外贸宿舍,112.57030750341026,37.72960332408113,180_59,112.57019307908838,37.73161990717895,1.0,7012102557.0,112.5697423,37.7295433,140105120631.0,0,0,94
太原直送,DWLS004,DWLS004,82,140105120652,太原***来便利店,112.578993,37.730044,1.0,4.0,122.0,48.33,2.422360573506967,2.3855276440104407,0.249318294958471,太原直送,0.249318294958471,山西省,太原市,小店区,小店街道,山西省太原市小店区小店街道通达街万豪新天地,112.5727618869142,37.72954548476219,180_59,112.57019307908838,37.73161990717895,1.0,8239420925.0,112.5736913,37.7293296,140105120652.0,0,0,94
太原直送,DWLS004,DWLS004,90,140105120771,太原***婕德商行,112.575902,37.731015,1.0,4.0,122.0,72.33,2.422338849047548,2.386970954904981,0.2477435126597657,太原直送,0.2477435126597657,山西省,太原市,小店区,小店街道,山西省太原市小店区小店街道真武路小店四组桃园小区,112.56966772271464,37.730513775165015,180_59,112.57019307908838,37.73161990717895,1.0,7012102557.0,112.5697423,37.7295433,140105120771.0,0,0,94
太原直送,DWLS003,DWLS003,65,140105120849,（唐***花唐久便利店,112.578136,37.728214,1.0,4.0,122.0,65.0,2.424361274594608,2.3874410580219534,0.2509337603631656,太原直送,0.2509337603631656,山西省,太原市,小店区,小店街道,山西省太原市小店区小店街道都乐街万豪诚品,112.57190430602502,37.72771464245814,180_58,112.57019307908838,37.727123301972526,1.0,8239420928.0,112.5736109,37.7276487,140105120849.0,0,0,94
太原直送,DWLS003,DWLS003,55,140105120888,太原***红霞商行,112.577243,37.724533,1.0,4.0,122.0,82.0,2.4281424384520767,2.390715275708298,0.254362636014015,太原直送,0.254362636014015,山西省,太原市,小店区,小店街道,山西省太原市小店区小店街道正阳街幸福家园,112.57101086012028,37.72403262736429,180_57,112.57019307908838,37.722626696766106,1.0,5316946201.0,112.5693851,37.7238886,140105120888.0,0,0,94
太原直送,CWLS003,CWLS003,136,140105120890,太原***鲜便利店,112.573676,37.728147,1.0,3.0,122.0,63.0,2.4257347940558107,2.390580849940025,0.2501340766568998,太原直送,0.2501340766568998,山西省,太原市,小店区,小店街道,山西省太原市小店区小店街道永丰路新源地小区,112.56743951723335,37.72764333162545,180_58,112.57019307908838,37.727123301972526,1.0,5838331157.0,112.5674418,37.727791,140105120890.0,0,0,94
太原直送,DWLS004,DWLS004,95,140105120930,山西***佳便利店,112.581848,37.732179,1.0,4.0,122.0,43.67,2.4194844336389094,2.3820100945520792,0.2478428528745533,太原直送,0.2478428528745533,山西省,太原市,小店区,唐槐街道,山西省太原市小店区唐槐街道坤泽街坤泽十里城北区,112.57561897335071,37.73168280562471,181_59,112.57598600730554,37.73161990717895,1.0,1993721580.0,112.5772866,37.7316574,140105120930.0,0,0,94
太原直送,DWLS004,DWLS004,98,140105121072,山西***翔云商店,112.581487,37.732199,1.0,4.0,122.0,44.67,2.41957067774099,2.382245752050993,0.2477441243945012,太原直送,0.2477441243945012,山西省,太原市,小店区,唐槐街道,山西省太原市小店区唐槐街道坤泽街坤泽十里城北区,112.57525770209456,37.73170255142141,181_59,112.57598600730554,37.73161990717895,1.0,1993721580.0,112.5772866,37.7316574,140105121072.0,0,0,94
太原直送,CWLS003,CWLS003,133,140105121080,太原***烟酒商行,112.573847,37.727053,1.0,3.0,122.0,81.0,2.426729996406688,2.391250433538277,0.2512408147893178,太原直送,0.2512408147893178,山西省,太原市,小店区,小店街道,山西省太原市小店区小店街道恒济巷御龙苑小区,112.56761084793706,37.72654944516013,180_58,112.57019307908838,37.727123301972526,1.0,5838331157.0,112.5674418,37.727791,140105121080.0,0,0,94
太原直送,DWLS004,DWLS004,71,140105121088,山西***鲜便利店,112.580262,37.733852,1.0,4.0,122.0,40.67,2.41834791781869,2.381903231917909,0.2458646034751653,太原直送,0.2458646034751653,山西省,太原市,小店区,唐槐街道,山西省太原市小店区唐槐街道下庄路坤泽十里城北区清郡,112.57403154321824,37.73335475215318,181_59,112.57598600730554,37.73161990717895,1.0,5838331151.0,112.5741907,37.7345894,140105121088.0,0,0,94
太原直送,DWLS003,DWLS003,59,140105121161,太原***乐购商行,112.576072,37.726924,1.0,4.0,122.0,25.33,2.426199547686467,2.389801232275399,0.251789152272294,太原直送,0.251789152272294,山西省,太原市,小店区,小店街道,山西省太原市小店区小店街道真武南路社区卫生服务站幸福天街,112.56983837568868,37.726422679369016,180_58,112.57019307908838,37.727123301972526,1.0,5838331155.0,112.5696456,37.7277368,140105121161.0,0,0,94
太原直送,DWLS003,DWLS003,42,140105121361,（金***芳金虎便利店,112.575809,37.728129,1.0,4.0,122.0,32.33,2.425124817076427,2.389114785972612,0.2505560313622454,太原直送,0.2505560313622454,山西省,太原市,小店区,小店街道,山西省太原市小店区小店街道真武路幸福天街,112.56957495463018,37.72762750041964,180_58,112.57019307908838,37.727123301972526,1.0,5838331155.0,112.5696456,37.7277368,140105121361.0,0,0,94
太原直送,DWLS003,DWLS003,66,140105121409,太原***品经销部,112.578087,37.728177,1.0,4.0,122.0,54.0,2.424410999246619,2.3875016854697706,0.2509600709116845,太原直送,0.2509600709116845,山西省,太原市,小店区,小店街道,山西省太原市小店区小店街道都乐街万豪幸福时光,112.57185526375632,37.72767759763869,180_58,112.57019307908838,37.727123301972526,1.0,8239420928.0,112.5736109,37.7276487,140105121409.0,0,0,94
太原直送,DWLS003,DWLS003,70,140105121412,太原***萱烟酒店,112.57875,37.728263,1.0,4.0,122.0,33.0,2.4241347303062604,2.386980444777879,0.2510109265530088,太原直送,0.2510109265530088,山西省,太原市,小店区,小店街道,山西省太原市小店区小店街道都乐街万豪诚品,112.57251887171962,37.72776416900891,180_58,112.57019307908838,37.727123301972526,1.0,8239420928.0,112.5736109,37.7276487,140105121412.0,0,0,94
太原直送,DWLS003,DWLS003,73,140105121498,山西***玲便利店,112.581057,37.728107,1.0,4.0,122.0,30.33,2.4236100594914163,2.3854959005751786,0.2516463919709533,太原直送,0.2516463919709533,山西省,太原市,小店区,唐槐街道,山西省太原市小店区唐槐街道都乐街坤泽十里城,112.57482784273772,37.727609975105786,181_58,112.57598600730554,37.727123301972526,1.0,8239420928.0,112.5736109,37.7276487,140105121498.0,0,0,94
太原直送,DWLS004,DWLS004,89,140105121513,太原***星烟酒店,112.575899,37.731348,1.0,4.0,122.0,22.67,2.4220214429482243,2.386733217401974,0.2474164045915333,太原直送,0.2474164045915333,山西省,太原市,小店区,小店街道,山西省太原市小店区小店街道真武路小店四组桃园小区,112.5696646811518,37.73084679412159,180_59,112.57019307908838,37.73161990717895,1.0,5838331106.0,112.5697015,37.7319729,140105121513.0,0,0,94
太原直送,DWLS003,DWLS003,83,140105121568,太原***歪便利店,112.576062,37.729251,1.0,4.0,122.0,34.67,2.4239779893829514,2.388130781090521,0.2495046897855821,太原直送,0.2495046897855821,山西省,太原市,小店区,小店街道,山西省太原市小店区小店街道真武路文化大厦,112.56982809718129,37.728749815233535,180_58,112.57019307908838,37.727123301972526,1.0,5316946203.0,112.5697361,37.7294436,140105121568.0,0,0,94
太原直送,DWLS004,DWLS004,96,140105121601,山西***芊便利店,112.581848,37.732179,1.0,4.0,122.0,23.33,2.4194844336389094,2.3820100945520792,0.2478428528745533,太原直送,0.2478428528745533,山西省,太原市,小店区,唐槐街道,山西省太原市小店区唐槐街道坤泽街坤泽十里城北区,112.57561897335071,37.73168280562471,181_59,112.57598600730554,37.73161990717895,1.0,1993721580.0,112.5772866,37.7316574,140105121601.0,0,0,94
太原直送,DWLS004,DWLS004,81,140105121606,太原***华便利店,112.579022,37.73005,1.0,4.0,122.0,59.67,2.4223463493418955,2.3855032242453613,0.2493184407339324,太原直送,0.2493184407339324,山西省,太原市,小店区,小店街道,山西省太原市小店区小店街道通达街万豪财富中心写字楼,112.57279091226948,37.7295515091408,180_59,112.57019307908838,37.73161990717895,1.0,8239420925.0,112.5736913,37.7293296,140105121606.0,0,0,94
太原直送,DWLS004,DWLS004,88,140105121751,太原***家便利店,112.576456,37.730126,1.0,4.0,122.0,50.0,2.423025867987796,2.387227097810558,0.2487242048092611,太原直送,0.2487242048092611,山西省,太原市,小店区,小店街道,山西省太原市小店区小店街道通达街17号小店外贸宿舍,112.57022241232288,37.72962524565476,180_59,112.57019307908838,37.73161990717895,1.0,7012102557.0,112.5697423,37.7295433,140105121751.0,0,0,94
太原直送,DWLS003,DWLS003,72,140105121768,山西***鲜便利店,112.581023,37.728101,1.0,4.0,122.0,43.0,2.423625715018716,2.385523760708532,0.2516449917323972,太原直送,0.2516449917323972,山西省,太原市,小店区,唐槐街道,山西省太原市小店区唐槐街道都乐街坤泽十里城,112.57479381686836,37.72760394970396,181_58,112.57598600730554,37.727123301972526,1.0,8239420928.0,112.5736109,37.7276487,140105121768.0,0,0,94
太原直送,DWLS003,DWLS003,54,140105121813,太原***烟酒商行,112.577564,37.726168,1.0,4.0,122.0,59.67,2.426485089957488,2.38931314530034,0.2528233060182508,太原直送,0.2528233060182508,山西省,太原市,小店区,小店街道,山西省太原市小店区小店街道童梦托管中心幸福家园,112.57133198977972,37.72566801359676,180_58,112.57019307908838,37.727123301972526,1.0,5316946201.0,112.5693851,37.7238886,140105121813.0,0,0,94
太原直送,DWLS004,DWLS004,75,140105121814,山西***在来商店,112.581633,37.73006,1.0,4.0,122.0,62.67,2.421573975681312,2.3836876567574867,0.2498634692967301,太原直送,0.2498634692967301,山西省,太原市,小店区,唐槐街道,山西省太原市小店区唐槐街道通达街坤泽十里城,112.5754040578786,37.72956351521953,181_59,112.57598600730554,37.73161990717895,1.0,8239420925.0,112.5736913,37.7293296,140105121814.0,0,0,94
太原直送,DWLS003,DWLS003,63,140105121826,太原***生活超市,112.578048,37.728221,1.0,4.0,122.0,62.33,2.42438034633698,2.3874969664148296,0.2509090897297263,太原直送,0.2509090897297263,山西省,太原市,小店区,小店街道,山西省太原市小店区小店街道都乐街万豪诚品,112.5718162215632,37.72772156648839,180_58,112.57019307908838,37.727123301972526,1.0,8239420928.0,112.5736109,37.7276487,140105121826.0,0,0,94
太原直送,DWLS004,DWLS004,92,140105121956,（金***毅金虎便利店,112.580276,37.733805,1.0,4.0,122.0,31.67,2.418388764162001,2.3819273906280207,0.2459135159624224,太原直送,0.2459135159624224,山西省,太原市,小店区,唐槐街道,山西省太原市小店区唐槐街道下庄路坤泽十里城北区清郡,112.57404556018592,37.73330775973424,181_59,112.57598600730554,37.73161990717895,1.0,5838331151.0,112.5741907,37.7345894,140105121956.0,0,0,94
太原直送,DWLS003,DWLS003,62,140105121964,太原***烟酒商行,112.576613,37.728247,1.0,4.0,122.0,64.33,2.4247760478072995,2.388472476556722,0.2505972601925191,太原直送,0.2505972601925191,山西省,太原市,小店区,小店街道,山西省太原市小店区小店街道都乐街万豪诚品,112.57037979184092,37.7277462733475,180_58,112.57019307908838,37.727123301972526,1.0,5838331155.0,112.5696456,37.7277368,140105121964.0,0,0,94
太原直送,DWLS003,DWLS003,43,140105122012,太原***星湾酒店,112.575289,37.725777,1.0,4.0,122.0,29.33,2.4275258333504905,2.3911708216204457,0.252764672317946,太原直送,0.252764672317946,山西省,太原市,小店区,小店街道,山西省太原市小店区小店街道金湾酒店(真武路),112.5690546554822,37.7252748456896,180_58,112.57019307908838,37.727123301972526,1.0,5316946219.0,112.569208,37.723894,140105122012.0,0,0,94
太原直送,DWLS003,DWLS003,80,140105122193,太原***隆通商行,112.577456,37.72826,1.0,4.0,122.0,40.67,2.4245164625405216,2.3878789624955874,0.2507517957223828,太原直送,0.2507517957223828,山西省,太原市,小店区,小店街道,山西省太原市小店区小店街道都乐街万豪诚品,112.57122364276464,37.72776004591905,180_58,112.57019307908838,37.727123301972526,1.0,5838331155.0,112.5696456,37.7277368,140105122193.0,0,0,94
太原直送,DWLS003,DWLS003,86,140105122204,太原***客临商行,112.575913,37.72373,1.0,4.0,122.0,78.0,2.4292997598437664,2.392215414008108,0.2548930163205684,太原直送,0.2548930163205684,山西省,太原市,小店区,小店街道,山西省太原市小店区小店街道今度烘焙(真武路店)汇丰丽城,112.5696795730554,37.72322833575675,180_57,112.57019307908838,37.722626696766106,1.0,5316946200.0,112.569371,37.7237609,140105122204.0,0,0,94
太原直送,DWLS003,DWLS003,57,140105122218,太原***酒水商行,112.575963,37.726958,1.0,4.0,122.0,31.0,2.426199026831265,2.38985224012071,0.2517346998826298,太原直送,0.2517346998826298,山西省,太原市,小店区,小店街道,山西省太原市小店区小店街道真武路幸福天街,112.56972925523024,37.726456576730286,180_58,112.57019307908838,37.727123301972526,1.0,5838331155.0,112.5696456,37.7277368,140105122218.0,0,0,94
太原直送,DWLS003,DWLS003,87,140105122247,（唐***旦唐久便利店,112.576062,37.729251,1.0,4.0,122.0,30.0,2.4239779893829514,2.388130781090521,0.2495046897855821,太原直送,0.2495046897855821,山西省,太原市,小店区,小店街道,山西省太原市小店区小店街道真武路文化大厦,112.56982809718129,37.728749815233535,180_58,112.57019307908838,37.727123301972526,1.0,5316946203.0,112.5697361,37.7294436,140105122247.0,0,0,94
太原直送,DWLS004,DWLS004,70,140105122272,（唐***远唐久便利店,112.580377,37.734179,1.0,4.0,122.0,58.0,2.418001579801801,2.3815878746678663,0.2455701259355467,太原直送,0.2455701259355467,山西省,太原市,小店区,唐槐街道,山西省太原市小店区唐槐街道下庄路坤泽十里城北区清郡,112.57414660019936,37.73368186291162,181_59,112.57598600730554,37.73161990717895,1.0,5838331151.0,112.5741907,37.7345894,140105122272.0,0,0,94
太原直送,DWLS003,DWLS003,33,140105122414,太原***购便利店,112.576641,37.725756,1.0,4.0,122.0,25.67,2.42714936488734,2.390249513834491,0.2530454743183529,太原直送,0.2530454743183529,山西省,太原市,小店区,小店街道,山西省太原市小店区小店街道山西新元自动化仪表有限公司幸福家园,112.57040810749386,37.72525514653606,180_58,112.57019307908838,37.727123301972526,1.0,5316946201.0,112.5693851,37.7238886,140105122414.0,0,0,94
太原直送,DWLS004,DWLS004,3,140105122556,太原***佳便利店,112.575869,37.730857,1.0,4.0,122.0,44.67,2.422499569383656,2.387107643666075,0.2478919748035397,太原直送,0.2478919748035397,山西省,太原市,小店区,小店街道,山西省太原市小店区小店街道真武路小店四组桃园小区,112.5696347053691,37.73035573293559,180_59,112.57019307908838,37.73161990717895,1.0,7012102535.0,112.569543,37.7295483,140105122556.0,0,0,94
太原直送,DWLS004,DWLS004,42,140105122616,太原***帆烟酒行,112.575795,37.729117,1.0,4.0,122.0,87.0,2.4241845001608247,2.388412468348168,0.2495840825854046,太原直送,0.2495840825854046,山西省,太原市,小店区,小店街道,山西省太原市小店区小店街道真武路万豪诚品,112.56956082576151,37.72861554912675,180_58,112.57019307908838,37.727123301972526,1.0,5316946221.0,112.5695402,37.7294497,140105122616.0,0,0,94
太原直送,DWLS004,DWLS004,22,140105122697,（金***珍金虎便利店,112.581954,37.732154,1.0,4.0,122.0,24.67,2.4194774146600326,2.3819547003192567,0.2478905916770504,太原直送,0.2478905916770504,山西省,太原市,小店区,唐槐街道,山西省太原市小店区唐槐街道坤泽街坤泽十里城北区,112.57572505377247,37.7316578778785,181_59,112.57598600730554,37.73161990717895,1.0,1993721580.0,112.5772866,37.7316574,140105122697.0,0,0,94
太原直送,DWLS004,DWLS004,23,140105122762,（金***富金虎便利店,112.581696,37.730209,1.0,4.0,122.0,47.67,2.421413079375139,2.383536523232653,0.2497317544186111,太原直送,0.2497317544186111,山西省,太原市,小店区,唐槐街道,山西省太原市小店区唐槐街道河间驴肉火烧(通达街店)坤泽十里城,112.57546708768255,37.729712569443926,181_59,112.57598600730554,37.73161990717895,1.0,7012102701.0,112.5771522,37.7292908,140105122762.0,0,0,94
太原直送,DWLS004,DWLS004,17,140105122774,太原***杜便利店,112.577498,37.732497,1.0,4.0,122.0,23.33,2.4204534423997868,2.3847963721215204,0.2466104477531289,太原直送,0.2466104477531289,山西省,太原市,小店区,小店街道,山西省太原市小店区小店街道故事里东北烧烤(文昌小区店)文昌小区,112.5712651965104,37.73199735817181,180_59,112.57019307908838,37.73161990717895,1.0,8239420921.0,112.5715555,37.7319528,140105122774.0,0,0,94
太原直送,DWLS003,DWLS003,22,140105122786,太原***烟酒商行,112.57786,37.728241,1.0,4.0,122.0,51.33,2.42441627656329,2.3876127749432063,0.2508515383508755,太原直送,0.2508515383508755,山西省,太原市,小店区,小店街道,山西省太原市小店区小店街道都乐街万豪诚品,112.57162803905454,37.727741403346,180_58,112.57019307908838,37.727123301972526,1.0,5838331155.0,112.5696456,37.7277368,140105122786.0,0,0,94
太原直送,DWLS003,DWLS003,14,140105122804,太原***烟酒商店,112.577496,37.725769,1.0,4.0,122.0,57.33,2.426886517117972,2.389648129709478,0.2532008599610179,太原直送,0.2532008599610179,山西省,太原市,小店区,小店街道,山西省太原市小店区小店街道幸福家园,112.57126396886324,37.72526892876649,180_58,112.57019307908838,37.727123301972526,1.0,5316946201.0,112.5693851,37.7238886,140105122804.0,0,0,94
太原直送,CWLS003,CWLS003,47,140105122843,（金***佳金虎便利店,112.575681,37.726746,1.0,3.0,122.0,55.0,2.4264844531941674,2.390200497219007,0.2518883787573381,太原直送,0.2518883787573381,山西省,太原市,小店区,小店街道,山西省太原市小店区小店街道真武路幸福天街,112.56944697496952,37.726244290356405,180_58,112.57019307908838,37.727123301972526,1.0,5838331154.0,112.5694353,37.7277378,140105122843.0,0,0,94
太原直送,DWLS004,DWLS004,26,140105122849,山西***龙达商行,112.581302,37.729745,1.0,4.0,122.0,47.67,2.4219718299899773,2.384144115430108,0.2500992508685261,太原直送,0.2500992508685261,山西省,太原市,小店区,唐槐街道,山西省太原市小店区唐槐街道通达街坤泽十里城,112.575072843705,37.72924825767483,181_58,112.57598600730554,37.727123301972526,1.0,8239420925.0,112.5736913,37.7293296,140105122849.0,0,0,94
太原直送,DWLS004,DWLS004,32,140105122879,（金***汇金虎便利店,112.577981,37.729846,1.0,4.0,122.0,50.0,2.422846242375482,2.3863716801257104,0.2493042694239263,太原直送,0.2493042694239263,山西省,太原市,小店区,小店街道,山西省太原市小店区小店街道通达街万豪诚品,112.57174897056248,37.72934661120651,180_58,112.57019307908838,37.727123301972526,1.0,8239420925.0,112.5736913,37.7293296,140105122879.0,0,0,94
太原直送,DWLS003,DWLS003,18,140105122888,太原***烟酒商行,112.575795,37.725255,1.0,4.0,122.0,46.33,2.427876377790271,2.391196811741979,0.2533735687635957,太原直送,0.2533735687635957,山西省,太原市,小店区,小店街道,山西省太原市小店区小店街道真武路幸福家园,112.56956127028356,37.72475331126644,180_57,112.57019307908838,37.722626696766106,1.0,5316946201.0,112.5693851,37.7238886,140105122888.0,0,0,94
太原直送,DWLS003,DWLS003,21,140105122900,太原***美瑞商行,112.575949,37.727762,1.0,4.0,122.0,73.0,2.4254345421324013,2.389282291809408,0.2509432029304627,太原直送,0.2509432029304627,山西省,太原市,小店区,小店街道,山西省太原市小店区小店街道真武路幸福天街,112.5697151476714,37.72726061290272,180_58,112.57019307908838,37.727123301972526,1.0,5838331155.0,112.5696456,37.7277368,140105122900.0,0,0,94
太原直送,DWLS003,DWLS003,27,140105122910,山西***利泰商行,112.580841,37.728557,1.0,4.0,122.0,47.0,2.423242644038764,2.385320579633891,0.2511606603351705,太原直送,0.2511606603351705,山西省,太原市,小店区,唐槐街道,山西省太原市小店区唐槐街道小红本ai英语训练系统坤泽十里城C区,112.57461162110106,37.72805984346588,181_58,112.57598600730554,37.727123301972526,1.0,8239420928.0,112.5736109,37.7276487,140105122910.0,0,0,94
太原直送,CWLS003,CWLS003,42,140105122984,太原***自强商店,112.57548,37.724982,1.0,3.0,122.0,77.0,2.4282297726389097,2.391611900547621,0.2535814789963977,太原直送,0.2535814789963977,山西省,太原市,小店区,小店街道,山西省太原市小店区小店街道真武路幸福家园,112.56924595808768,37.72447998706425,180_57,112.57019307908838,37.722626696766106,1.0,5316946219.0,112.569208,37.723894,140105122984.0,0,0,94
太原直送,DWLS004,DWLS004,41,140105122992,太原***烟酒超市,112.575792,37.729138,1.0,4.0,122.0,58.0,2.4241653079379697,2.388399416566872,0.2495628999390743,太原直送,0.2495628999390743,山西省,太原市,小店区,小店街道,山西省太原市小店区小店街道真武路万豪诚品,112.56955782009815,37.72863654754931,180_58,112.57019307908838,37.727123301972526,1.0,5316946221.0,112.5695402,37.7294497,140105122992.0,0,0,94
太原直送,DWLS003,DWLS003,26,140105123099,太原***乐诚商行,112.578048,37.728221,1.0,4.0,122.0,33.67,2.42438034633698,2.3874969664148296,0.2509090897297263,太原直送,0.2509090897297263,山西省,太原市,小店区,小店街道,山西省太原市小店区小店街道都乐街万豪诚品,112.5718162215632,37.72772156648839,180_58,112.57019307908838,37.727123301972526,1.0,8239420928.0,112.5736109,37.7276487,140105123099.0,0,0,94
太原直送,DWLS004,DWLS004,36,140105123140,太原***烟酒商行,112.576035,37.731436,1.0,4.0,122.0,71.67,2.4218973532016133,2.386575484807042,0.2473568830920186,太原直送,0.2473568830920186,山西省,太原市,小店区,小店街道,山西省太原市小店区小店街道真武路小店四组桃园小区,112.56980081683488,37.7309349308855,180_59,112.57019307908838,37.73161990717895,1.0,5838331106.0,112.5697015,37.7319729,140105123140.0,0,0,94
太原直送,DWLS004,DWLS004,20,140105123154,（唐***源唐久便利店,112.581518,37.732213,1.0,4.0,122.0,60.0,2.419548237042813,2.382214179695012,0.247737246947242,太原直送,0.247737246947242,山西省,太原市,小店区,唐槐街道,山西省太原市小店区唐槐街道坤泽街坤泽十里城北区,112.57528872387454,37.73171657452816,181_59,112.57598600730554,37.73161990717895,1.0,1993721580.0,112.5772866,37.7316574,140105123154.0,0,0,94
太原直送,DWLS003,DWLS003,16,140105123226,太原***烟酒商行,112.576713,37.725759,1.0,4.0,122.0,67.67,2.427125398185272,2.390197490470821,0.2530565831113681,太原直送,0.2530565831113681,山西省,太原市,小店区,小店街道,山西省太原市小店区小店街道山西新元自动化仪表有限公司幸福家园,112.57048018142206,37.72525821377922,180_58,112.57019307908838,37.727123301972526,1.0,5316946201.0,112.5693851,37.7238886,140105123226.0,0,0,94
太原直送,DWLS004,DWLS004,30,140105123229,太原***酒汇超市,112.577936,37.72997,1.0,4.0,122.0,55.0,2.4227408718990144,2.38631348139531,0.2491737108484718,太原直送,0.2491737108484718,山西省,太原市,小店区,小店街道,山西省太原市小店区小店街道通达街万豪诚品,112.5717039131676,37.72947057984442,180_59,112.57019307908838,37.73161990717895,1.0,7012102557.0,112.5697423,37.7295433,140105123229.0,0,0,94
太原直送,DWLS004,DWLS004,21,140105123250,山西***源烟酒行,112.582131,37.732179,1.0,4.0,122.0,63.33,2.4194018628958647,2.381814068055895,0.2479053003467223,太原直送,0.2479053003467223,山西省,太原市,小店区,唐槐街道,山西省太原市小店区唐槐街道坤泽街坤泽十里城北区,112.57590217893716,37.73168300184758,181_59,112.57598600730554,37.73161990717895,1.0,1993721580.0,112.5772866,37.7316574,140105123250.0,0,0,94
太原直送,DWLS003,DWLS003,15,140105123256,太原***茗源商行,112.577561,37.725772,1.0,4.0,122.0,61.33,2.426864622106679,2.3896009651090253,0.2532108154581867,太原直送,0.2532108154581867,山西省,太原市,小店区,小店街道,山西省太原市小店区小店街道幸福家园,112.57132903240576,37.725271987021415,180_58,112.57019307908838,37.727123301972526,1.0,5316946201.0,112.5693851,37.7238886,140105123256.0,0,0,94
太原直送,DWLS004,DWLS004,29,140105123260,太原***九达商行,112.577981,37.729846,1.0,4.0,122.0,48.67,2.422846242375482,2.3863716801257104,0.2493042694239263,太原直送,0.2493042694239263,山西省,太原市,小店区,小店街道,山西省太原市小店区小店街道通达街万豪诚品,112.57174897056248,37.72934661120651,180_58,112.57019307908838,37.727123301972526,1.0,8239420925.0,112.5736913,37.7293296,140105123260.0,0,0,94
太原直送,DWLS003,DWLS003,29,140105123268,太原***昊阳商行,112.578631,37.728241,1.0,4.0,122.0,79.67,2.424190582637431,2.3870787303398684,0.2510080935906267,太原直送,0.2510080935906267,山西省,太原市,小店区,小店街道,山西省太原市小店区小店街道都乐街万豪诚品,112.57239976521024,37.72774206749185,180_58,112.57019307908838,37.727123301972526,1.0,8239420928.0,112.5736109,37.7276487,140105123268.0,0,0,94
太原直送,DWLS004,DWLS004,28,140105123330,太原***怡食品店,112.579094,37.730022,1.0,4.0,122.0,37.67,2.422352054337686,2.385473527991666,0.2493607784756854,太原直送,0.2493607784756854,山西省,太原市,小店区,小店街道,山西省太原市小店区小店街道通达街万豪新天地,112.5728629799481,37.72952356673827,180_59,112.57019307908838,37.73161990717895,1.0,8239420925.0,112.5736913,37.7293296,140105123330.0,0,0,94
太原直送,DWLS003,DWLS003,12,140105123336,太原***烟酒商行,112.57799,37.725747,1.0,4.0,122.0,62.0,2.426762993982932,2.3893220321036672,0.253320824696668,太原直送,0.253320824696668,山西省,太原市,小店区,小店街道,山西省太原市小店区小店街道幸福家园,112.57175845087382,37.72524736407683,180_58,112.57019307908838,37.727123301972526,1.0,8239420931.0,112.5734555,37.7239113,140105123336.0,0,0,94
太原直送,DWLS003,DWLS003,9,140105123415,太原***花明商店,112.576002,37.72435,1.0,4.0,122.0,87.67,2.4286809038344224,2.3917063936120964,0.2543014595514521,太原直送,0.2543014595514521,山西省,太原市,小店区,小店街道,山西省太原市小店区小店街道正阳街幸福家园,112.56976859716524,37.72384845770014,180_57,112.57019307908838,37.722626696766106,1.0,5316946201.0,112.5693851,37.7238886,140105123415.0,0,0,94
太原直送,DWLS004,DWLS004,25,140105123435,太原***纳便利店,112.579755,37.729936,1.0,4.0,122.0,57.0,2.422240961235066,2.3850776253702866,0.2495830072200404,太原直送,0.2495830072200404,山西省,太原市,小店区,小店街道,山西省太原市小店区小店街道通达街中铁十二局集团二公司2号住宅小区,112.57352456766866,37.72943809568961,181_59,112.57598600730554,37.73161990717895,1.0,8239420925.0,112.5736913,37.7293296,140105123435.0,0,0,94
太原直送,DWLS003,DWLS003,17,140105123446,山西***宏达商店,112.578869,37.728227,1.0,4.0,122.0,53.33,2.4241343462118623,2.386924001753933,0.251070580578451,太原直送,0.251070580578451,山西省,太原市,小店区,小店街道,山西省太原市小店区小店街道都乐街万豪诚品,112.57263798409018,37.72772826625731,180_58,112.57019307908838,37.727123301972526,1.0,8239420928.0,112.5736109,37.7276487,140105123446.0,0,0,94
太原直送,DWLS003,DWLS003,41,140105123642,太原***峰烟酒店,112.575791,37.72646,1.0,4.0,122.0,63.33,2.4267255753885704,2.3903305059246507,0.2521901887326255,太原直送,0.2521901887326255,山西省,太原市,小店区,小店街道,山西省太原市小店区小店街道真武路正阳大厦,112.5695571272662,37.72595837997192,180_58,112.57019307908838,37.727123301972526,1.0,5838331155.0,112.5696456,37.7277368,140105123642.0,0,0,94
太原直送,DWLS003,DWLS003,24,140105123752,太原***烟酒商行,112.578125,37.728223,1.0,4.0,122.0,46.67,2.424355889413103,2.387442186398865,0.2509227184293987,太原直送,0.2509227184293987,山西省,太原市,小店区,小店街道,山西省太原市小店区小店街道都乐街万豪诚品,112.57189329455656,37.727723633489774,180_58,112.57019307908838,37.727123301972526,1.0,8239420928.0,112.5736109,37.7276487,140105123752.0,0,0,94
太原直送,DWLS004,DWLS004,27,140105123755,太原***家烟酒店,112.579022,37.730071,1.0,4.0,122.0,59.0,2.422326268703907,2.385488082064549,0.2492978977548698,太原直送,0.2492978977548698,山西省,太原市,小店区,小店街道,山西省太原市小店区小店街道通达街通达商城,112.57279090985288,37.729572510495245,180_59,112.57019307908838,37.73161990717895,1.0,8239420925.0,112.5736913,37.7293296,140105123755.0,0,0,94
太原直送,CWLS003,CWLS003,60,140105123781,太原***聚利商行,112.575172,37.729942,1.0,3.0,122.0,61.0,2.423579051901959,2.3882501924298056,0.2486541506631211,太原直送,0.2486541506631211,山西省,太原市,小店区,小店街道,山西省太原市小店区小店街道通达街小店区反诈主题广场,112.56893704569536,37.72943998856141,180_59,112.57019307908838,37.73161990717895,1.0,5316946221.0,112.5695402,37.7294497,140105123781.0,0,0,94
太原直送,DWLS004,DWLS004,19,140105123839,山西***隆烟酒店,112.580343,37.734596,1.0,4.0,111.0,63.0,2.4176127848282447,2.3813110197473124,0.2451556422132632,太原直送,0.2451556422132632,山西省,太原市,小店区,唐槐街道,山西省太原市小店区唐槐街道下庄路坤泽国际大厦,112.57411252431577,37.73409886554956,181_60,112.57598600730554,37.73611651238537,1.0,5838331151.0,112.5741907,37.7345894,140105123839.0,0,0,94
太原直送,CWLS003,CWLS003,46,140105123880,太原***云便利店,112.57367,37.728094,1.0,3.0,111.0,36.0,2.425787211225665,2.390623189104668,0.2501850453764183,太原直送,0.2501850453764183,山西省,太原市,小店区,小店街道,山西省太原市小店区小店街道永丰路新源地小区,112.56743351612135,37.72759032192316,180_58,112.57019307908838,37.727123301972526,1.0,5838331157.0,112.5674418,37.727791,140105123880.0,0,0,94
太原直送,DWLS051,DWLS051,56,140105211695,山西***有限公司,112.583954,37.731197,1.0,4.0,111.0,53.67,2.4198102043608665,2.381260515291002,0.2492711163311928,太原直送,0.2492711163311928,山西省,太原市,小店区,唐槐街道,山西省太原市小店区唐槐街道格林豪泰酒店(太原坞城南路通达街地铁站店)延长壳牌加油站(太原卫国站),112.57772650542512,37.73070211447604,181_59,112.57598600730554,37.73161990717895,1.0,1993721582.0,112.577483,37.731651,140105211695.0,0,0,94
太原直送,DWLS004,DWLS004,94,140105220497,山西***有限公司,112.579689,37.732346,1.0,4.0,122.0,29.67,2.419955671579336,2.383385785526545,0.2472133718571864,太原直送,0.2472133718571864,山西省,太原市,小店区,唐槐街道,山西省太原市小店区唐槐街道坤泽街坤泽十里城北区,112.57345823377202,37.73184820125869,181_59,112.57598600730554,37.73161990717895,1.0,8239420921.0,112.5715555,37.7319528,140105220497.0,0,0,94
太原直送,DWLS003,DWLS003,68,140105222246,山西***有限公司,112.578116,37.72823,1.0,4.0,122.0,35.33,2.4243518311107377,2.3874433719460235,0.2509140404560831,太原直送,0.2509140404560831,山西省,太原市,小店区,小店街道,山西省太原市小店区小店街道都乐街万豪诚品,112.57188428520996,37.727730626125286,180_58,112.57019307908838,37.727123301972526,1.0,8239420928.0,112.5736109,37.7276487,140105222246.0,0,0,94
太原直送,DWLS003,DWLS003,82,140105222331,太原***有限公司,112.57605,37.72928,1.0,4.0,122.0,18.67,2.4239537921837515,2.388118204093968,0.2494739036813216,太原直送,0.2494739036813216,山西省,太原市,小店区,小店街道,山西省太原市小店区小店街道真武路文化大厦,112.56981608103844,37.72877880557206,180_58,112.57019307908838,37.727123301972526,1.0,5316946203.0,112.5697361,37.7294436,140105222331.0,0,0,94
太原直送,DWLS003,DWLS003,10,140105222809,山西***有限公司,112.579481,37.724415,1.0,4.0,122.0,79.0,2.427601229926363,2.3892521125467248,0.2549270682528615,太原直送,0.2549270682528615,山西省,太原市,小店区,小店街道,山西省太原市小店区小店街道正阳街智波交通运输设备有限公司,112.57325096642568,37.72391653655969,181_57,112.57598600730554,37.722626696766106,1.0,8239420931.0,112.5734555,37.7239113,140105222809.0,0,0,94
太原直送,DWLS004,DWLS004,34,140105223192,太原***有限公司,112.576575,37.7301,1.0,4.0,122.0,77.0,2.423015784009049,2.3871633127982625,0.2487732384582386,太原直送,0.2487732384582386,山西省,太原市,小店区,小店街道,山西省太原市小店区小店街道通达街129号小店外贸宿舍,112.5703415391772,37.72959935567153,180_59,112.57019307908838,37.73161990717895,1.0,7012102557.0,112.5697423,37.7295433,140105223192.0,0,0,94
太原直送,DWLS004,DWLS004,24,140105223424,山西***有限公司,112.579065,37.730052,1.0,4.0,122.0,18.33,2.4223318535132616,2.3854719887154388,0.2493254095855432,太原直送,0.2493254095855432,山西省,太原市,小店区,小店街道,山西省太原市小店区小店街道通达街万豪财富中心写字楼,112.57283395057,37.729553544774326,180_59,112.57019307908838,37.73161990717895,1.0,8239420925.0,112.5736913,37.7293296,140105223424.0,0,0,94
太原直送,DWLS051,DWLS051,24,140105223484,延长***国加油站,112.583795,37.730893,1.0,4.0,111.0,59.0,2.4201473122378303,2.381589997060158,0.2495311173060341,太原直送,0.2495311173060341,山西省,太原市,小店区,唐槐街道,山西省太原市小店区唐槐街道坞城南路延长壳牌加油站(太原卫国站),112.5775674421956,37.73039799782241,181_59,112.57598600730554,37.73161990717895,1.0,7023177111.0,112.5773589,37.7292805,140105223484.0,0,0,94
太原直送,DWLS003,DWLS003,23,140105223494,山西***有限公司,112.578098,37.72818,1.0,4.0,122.0,85.33,2.424404910134029,2.3874919022130725,0.2509593596461348,太原直送,0.2509593596461348,山西省,太原市,小店区,小店街道,山西省太原市小店区小店街道都乐街万豪幸福时光,112.5718662738678,37.72768060737726,180_58,112.57019307908838,37.727123301972526,1.0,8239420928.0,112.5736109,37.7276487,140105223494.0,0,0,94
太原直送,DWLS003,DWLS003,4,140105223508,山西***有限公司,112.575841,37.727774,1.0,4.0,122.0,44.33,2.425454775346062,2.3893484938355085,0.2509105116670097,太原直送,0.2509105116670097,山西省,太原市,小店区,小店街道,山西省太原市小店区小店街道真武路幸福天街,112.569607030059,37.727272509297336,180_58,112.57019307908838,37.727123301972526,1.0,5838331155.0,112.5696456,37.7277368,140105223508.0,0,0,94
太原直送,DWLS003,DWLS003,31,140105124004,太原***活超市店,112.578265,37.728259,1.0,4.0,121.0,35.33,2.424280481882405,2.3873192468132496,0.2509158676528823,太原直送,0.2509158676528823,山西省,太原市,小店区,小店街道,山西省太原市小店区小店街道都乐街万豪诚品,112.57203342267668,37.72775975665922,180_58,112.57019307908838,37.727123301972526,1.0,8239420928.0,112.5736109,37.7276487,140105124004.0,0,0,94
太原直送,CWLS003,CWLS003,138,140105124024,太原***果便利店,112.574558,37.728247,1.0,3.0,111.0,38.0,2.425379667517023,2.389897095111837,0.2502009285374402,太原直送,0.2502009285374402,山西省,太原市,小店区,小店街道,山西省太原市小店区小店街道伯威扑克(山西省扑克运动协会小店培训基地)新源地小区,112.56832254404571,37.72774425957101,180_58,112.57019307908838,37.727123301972526,1.0,5838331157.0,112.5674418,37.727791,140105124024.0,0,0,94
太原直送,DWLS003,DWLS003,20,140105124086,太原***烟酒商行,112.576068,37.726224,1.0,4.0,111.0,66.0,2.4268699233593005,2.390308801061688,0.2524751543934548,太原直送,0.2524751543934548,山西省,太原市,小店区,小店街道,山西省太原市小店区小店街道美兰至尊酒店(太原通达街地铁站店)正阳大厦,112.56983445199016,37.72572263285696,180_58,112.57019307908838,37.727123301972526,1.0,5316946201.0,112.5693851,37.7238886,140105124086.0,0,0,94
太原直送,DWLS003,DWLS003,8,140105124164,（唐***唐久便利店,112.575883,37.725316,1.0,4.0,111.0,54.67,2.427792250536481,2.391091863164186,0.2533305611824202,太原直送,0.2533305611824202,山西省,太原市,小店区,小店街道,山西省太原市小店区小店街道幸福家园(西门),112.56964935824772,37.72481440015187,180_57,112.57019307908838,37.722626696766106,1.0,5316946201.0,112.5693851,37.7238886,140105124164.0,0,0,94
太原直送,DWLS004,DWLS004,38,140105124183,太原***豪烟酒店,112.579054,37.730053,1.0,4.0,111.0,34.33,2.422334116227777,2.38547888918347,0.2493221474739059,太原直送,0.2493221474739059,山西省,太原市,小店区,小店街道,山西省太原市小店区小店街道通达街通达商城,112.57282294060836,37.72955453576414,180_59,112.57019307908838,37.73161990717895,1.0,8239420925.0,112.5736913,37.7293296,140105124183.0,0,0,94
太原直送,DWLS004,DWLS004,37,140105124194,山西***源便利店,112.58296,37.73447,1.0,4.0,111.0,34.0,2.41696868064979,2.37958761762306,0.2458579521146273,太原直送,0.2458579521146273,山西省,太原市,小店区,唐槐街道,山西省太原市小店区唐槐街道泊钰商务酒店坤泽国际大厦,112.57673149097488,37.73397471115725,181_60,112.57598600730554,37.73611651238537,1.0,1993711384.0,112.5774785,37.7344717,140105124194.0,0,0,94
太原直送,DWLS003,DWLS003,25,140105124262,太原***佳便利店,112.578098,37.728192,1.0,4.0,111.0,55.0,2.424393435969088,2.38748324733578,0.2509476081296631,太原直送,0.2509476081296631,山西省,太原市,小店区,小店街道,山西省太原市小店区小店街道都乐街万豪诚品,112.57186627248689,37.7276926081285,180_58,112.57019307908838,37.727123301972526,1.0,8239420928.0,112.5736109,37.7276487,140105124262.0,0,0,94
太原直送,DWLS051,DWLS051,47,140105124273,山西***家商贸行,112.58978,37.716734,1.0,4.0,111.0,37.67,2.431972481107872,2.387711296121239,0.2646905643388114,太原直送,0.2646905643388114,山西省,太原市,小店区,唐槐街道,山西省太原市小店区唐槐街道化章街保利·珑樾,112.58355675968812,37.71624103117495,182_56,112.5817789355227,37.71813009155968,1.0,5838331166.0,112.5873531,37.7153948,140105124273.0,0,0,94
太原直送,DWLS003,DWLS003,7,140105124340,山西***便利商行,112.577143,37.724098,1.0,4.0,112.0,19.0,2.4285876582402777,2.3910984778569824,0.2547695949775029,太原直送,0.254769594977503,山西省,太原市,小店区,小店街道,山西省太原市小店区小店街道正阳街汇丰丽城,112.5709108099687,37.72359751100321,180_57,112.57019307908838,37.722626696766106,1.0,5316946200.0,112.569371,37.7237609,140105124340.0,0,0,94
太原直送,DWLS004,DWLS004,69,140105124355,山西***烟酒商行,112.580276,37.733805,1.0,4.0,111.0,32.33,2.418388764162001,2.3819273906280207,0.2459135159624224,太原直送,0.2459135159624224,山西省,太原市,小店区,唐槐街道,山西省太原市小店区唐槐街道下庄路坤泽十里城北区清郡,112.57404556018592,37.73330775973424,181_59,112.57598600730554,37.73161990717895,1.0,5838331151.0,112.5741907,37.7345894,140105124355.0,0,0,94
太原直送,DWLS003,DWLS003,5,140105224373,山西***便利商行,112.577688,37.724565,1.0,4.0,112.0,35.0,2.427981633270114,2.3903842089772964,0.2544190301628388,太原直送,0.2544190301628388,山西省,太原市,小店区,小店街道,山西省太原市小店区小店街道幸福家园(南1门),112.57145629542096,37.72406502808767,180_57,112.57019307908838,37.722626696766106,1.0,8239420931.0,112.5734555,37.7239113,140105224373.0,0,0,94
太原直送,DWLS003,DWLS003,28,140105124402,山西***鲜便利店,112.581509,37.728148,1.0,4.0,111.0,23.67,2.423439051513574,2.385153527723113,0.2517033108264573,太原直送,0.2517033108264573,山西省,太原市,小店区,唐槐街道,山西省太原市小店区唐槐街道都乐街坤泽十里城,112.57528018477734,37.72765130543967,181_58,112.57598600730554,37.727123301972526,1.0,8239420928.0,112.5736109,37.7276487,140105124402.0,0,0,94
太原直送,CWLS003,CWLS003,44,140105124408,太原***烟酒商行,112.574775,37.726994,1.0,3.0,111.0,25.0,2.4265134901708256,2.390649602649872,0.2514723621494031,太原直送,0.2514723621494031,山西省,太原市,小店区,小店街道,山西省太原市小店区小店街道恒济巷宏丰小区,112.56853993698964,37.7264914033352,180_58,112.57019307908838,37.727123301972526,1.0,5838331154.0,112.5694353,37.7277378,140105124408.0,0,0,94
太原直送,DWLS004,DWLS004,40,140105124418,山西***红旗商行,112.581613,37.729695,1.0,4.0,111.0,47.67,2.421928941016229,2.383964900021177,0.2502154030110854,太原直送,0.2502154030110854,山西省,太原市,小店区,唐槐街道,山西省太原市小店区唐槐街道通达街坤泽十里城,112.57538408492034,37.729198477549126,181_58,112.57598600730554,37.727123301972526,1.0,8239420925.0,112.5736913,37.7293296,140105124418.0,0,0,94
太原直送,DWLS051,DWLS051,36,140105224484,山西***货分公司,112.586498,37.718581,1.0,4.0,111.0,35.33,2.4311481346773145,2.38863034896988,0.2621354288702687,太原直送,0.2621354288702687,山西省,太原市,小店区,唐槐街道,山西省太原市小店区唐槐街道太原方融液压技术有限公司,112.5802733287326,37.718086760308005,182_56,112.5817789355227,37.71813009155968,1.0,1398699905.0,112.5774697,37.7175635,140105224484.0,0,0,94
太原直送,DWLS004,DWLS004,50,140105124600,山西***烟酒商行,112.580272,37.73372,1.0,4.0,111.0,50.33,2.4184712145092844,2.381991412810932,0.2459956588438085,太原直送,0.2459956588438085,山西省,太原市,小店区,唐槐街道,山西省太原市小店区唐槐街道下庄路坤泽十里城北区清郡,112.57404156666654,37.73322275085446,181_59,112.57598600730554,37.73161990717895,1.0,5838331151.0,112.5741907,37.7345894,140105124600.0,0,0,94
太原直送,DWLS003,DWLS003,3,140105124621,太原***友烟酒店,112.578087,37.728177,1.0,4.0,111.0,50.0,2.424410999246619,2.3875016854697706,0.2509600709116845,太原直送,0.2509600709116845,山西省,太原市,小店区,小店街道,山西省太原市小店区小店街道都乐街万豪幸福时光,112.57185526375632,37.72767759763869,180_58,112.57019307908838,37.727123301972526,1.0,8239420928.0,112.5736109,37.7276487,140105124621.0,0,0,94
太原直送,DWLS004,DWLS004,71,140105124623,（唐***宝唐久便利店,112.58168,37.730183,1.0,4.0,111.0,46.0,2.42144261546645,2.383566361679906,0.2497536453567824,太原直送,0.2497536453567824,山西省,太原市,小店区,唐槐街道,山西省太原市小店区唐槐街道河间驴肉火烧(通达街店)坤泽十里城,112.57545107877264,37.729686556452535,181_59,112.57598600730554,37.73161990717895,1.0,7012102701.0,112.5771522,37.7292908,140105124623.0,0,0,94
太原直送,CWLS003,CWLS003,119,140105124801,太原***盛烟酒店,112.575416,37.723807,1.0,3.0,122.0,36.5,2.429371856429761,2.392503918596577,0.2547230684979262,太原直送,0.2547230684979262,山西省,太原市,小店区,小店街道,山西省太原市小店区小店街道真武路,112.56918202281722,37.72330485492978,180_57,112.57019307908838,37.722626696766106,1.0,5316946218.0,112.5691857,37.7237602,140105124801.0,0,0,94
太原直送,DWLS003,DWLS003,3,140105124802,山西***货便利店,112.576924,37.720254,1.0,4.0,112.0,29.33,2.4323276134702745,2.3940261727877963,0.258498249282275,太原直送,0.258498249282275,山西省,太原市,小店区,唐槐街道,山西省太原市小店区唐槐街道山西九州通医药有限公司,112.570692030817,37.71975309344678,180_56,112.57019307908838,37.71813009155968,1.0,8239420963.0,112.5689587,37.7216364,140105124802.0,0,0,94
太原直送,DWLS003,DWLS003,55,140105124837,（唐***珍唐久便利店,112.581024,37.728103,1.0,4.0,111.0,37.0,2.4236235103128143,2.38552162494076,0.2516432513718587,太原直送,0.2516432513718587,山西省,太原市,小店区,唐槐街道,山西省太原市小店区唐槐街道都乐街坤泽十里城,112.57479481742035,37.7276059505658,181_58,112.57598600730554,37.727123301972526,1.0,8239420928.0,112.5736109,37.7276487,140105124837.0,0,0,94
太原直送,DWLS051,DWLS051,59,140105124846,山西***生活超市,112.589783,37.716621,1.0,4.0,111.0,37.67,2.4320798642026507,2.387791268705242,0.2648010796503613,太原直送,0.2648010796503613,山西省,太原市,小店区,唐槐街道,山西省太原市小店区唐槐街道化章街保利·珑樾,112.58355977350595,37.716128026467175,182_56,112.5817789355227,37.71813009155968,1.0,5838331166.0,112.5873531,37.7153948,140105124846.0,0,0,94
太原直送,DWLS003,DWLS003,11,140105124897,山西***盛便利店,112.575814,37.723251,1.0,4.0,111.0,34.0,2.429786740977285,2.392629642222135,0.2553444072326625,太原直送,0.2553444072326625,山西省,太原市,小店区,小店街道,山西省太原市小店区小店街道真武路178号汇通丽城,112.56958052146248,37.72274921226688,180_57,112.57019307908838,37.722626696766106,1.0,5316946200.0,112.569371,37.7237609,140105124897.0,0,0,94
