station_name,line_code,line_name,deliver_no,customer_code,customer_name,longitude,latitude,order_cycle_type,order_weekday,city_village_code,avg_order_qty,distance_to_平城直送,distance_to_灵丘中转站,distance_to_太原直送,nearest_station,distance_to_station,province,city,district,township,full_address,lon_84,lat_84,grid_id,LonGridCenter,LatGridCenter,group,customer_osmid_mapping,OSM_X,OSM_Y,BB_RETAIL_CUSTOMER_CODE,kmeans_cluster,dbscan_label,kmeans_label
太原直送,DWLS067,DWLS067,757,140108100843,太原***民烟酒店,112.541068,37.951861,1.0,4.0,111.0,23.0,2.2236572266032817,2.259128740253641,0.026026243466927,太原直送,0.026026243466927,山西省,太原市,尖草坪区,新城街道,山西省太原市尖草坪区新城街道迎新东二条青山苑小区,112.53473827853928,37.9513343864532,174_108,112.53543550978544,37.95195356229368,2.0,2623882772.0,112.5347334,37.9508439,140108100843.0,0,0,110
太原直送,DWLS067,DWLS067,709,140108101161,太原***广龙商店,112.536708,37.953475,1.0,4.0,111.0,55.67,2.2236061976611325,2.261325206702474,0.0225295638883694,太原直送,0.0225295638883694,山西省,太原市,尖草坪区,迎新街道,山西省太原市尖草坪区迎新街道迎新东一条兴安苑,112.53036535346844,37.95293828686089,173_108,112.52964258156828,37.95195356229368,2.0,4226925494.0,112.530368,37.9530693,140108101161.0,0,0,110
太原直送,DWLS067,DWLS067,876,140108103278,太原***小兰商店,112.538516,37.951401,1.0,4.0,111.0,96.67,2.2249487614668806,2.2613442213197,0.0251812925204423,太原直送,0.0251812925204423,山西省,太原市,尖草坪区,迎新街道,山西省太原市尖草坪区迎新街道迎新南二巷太钢一零三小区,112.53217896674344,37.950868250790286,173_108,112.52964258156828,37.95195356229368,2.0,2623882771.0,112.5304002,37.9507324,140108103278.0,0,0,110
太原直送,DWLS067,DWLS067,21,140108103541,太原***龙江商店,112.545865,37.955159,1.0,4.0,111.0,31.67,2.218942296238453,2.253351351344252,0.0264151062840961,太原直送,0.0264151062840961,山西省,太原市,尖草坪区,新城街道,山西省太原市尖草坪区新城街道新城北街东三巷,112.53954801851287,37.95464387243949,175_109,112.5412284380026,37.956450167500094,0.0,4641654956.0,112.5394895,37.9546342,140108103541.0,0,0,110
太原直送,DWLS067,DWLS067,632,140108103631,太原***烟酒商店,112.545772,37.955955,1.0,4.0,111.0,23.33,2.218223253418146,2.2528929286452977,0.0257884002024128,太原直送,0.0257884002024128,山西省,太原市,尖草坪区,新城街道,山西省太原市尖草坪区新城街道太原工业学院敏行楼,112.53945468022962,37.95543983662565,175_109,112.5412284380026,37.956450167500094,0.0,6146928193.0,112.5399906,37.9556869,140108103631.0,0,0,110
太原直送,DWLS067,DWLS067,693,140108104131,太原***建鑫超市,112.541268,37.958679,1.0,4.0,111.0,33.67,2.217169098598708,2.2544627686941285,0.0206951762737145,太原直送,0.0206951762737145,山西省,太原市,尖草坪区,新城街道,山西省太原市尖草坪区新城街道金领驾校(工业学院店)太原工业学院(东区),112.53493804615408,37.95815427568264,174_109,112.53543550978544,37.956450167500094,2.0,6146927364.0,112.5349906,37.9576707,140108104131.0,0,0,110
太原直送,DWLS067,DWLS067,638,140108108881,（唐***安唐久便利店,112.536687,37.955216,1.0,4.0,111.0,47.0,2.221974733648651,2.2601890500491306,0.0209510802824089,太原直送,0.0209510802824089,山西省,太原市,尖草坪区,南寨街道,山西省太原市尖草坪区南寨街道迎新东一条兴安苑,112.53034408612382,37.95467959860381,173_109,112.52964258156828,37.956450167500094,2.0,4226925495.0,112.5302834,37.955276,140108108881.0,0,0,110
太原直送,DWLS067,DWLS067,556,140108108903,太原***杰百货店,112.541092,37.950979,1.0,4.0,111.0,35.0,2.224479954593657,2.259695829889497,0.0267910002986122,太原直送,0.0267910002986122,山西省,太原市,尖草坪区,新城街道,山西省太原市尖草坪区新城街道迎新东二条太钢一零三小区,112.534762449898,37.950452258850575,174_108,112.53543550978544,37.95195356229368,2.0,4641654960.0,112.5347429,37.9503936,140108108903.0,0,0,110
太原直送,DWLS067,DWLS067,655,140108109147,太原***食便利店,112.541685,37.956058,1.0,4.0,111.0,57.67,2.219496952657741,2.255885120018746,0.0229565434898203,太原直送,0.0229565434898203,山西省,太原市,尖草坪区,新城街道,山西省太原市尖草坪区新城街道迎新街太原来港旅馆,112.5353565288918,37.955533692286856,174_109,112.53543550978544,37.956450167500094,2.0,4226925492.0,112.534559,37.9553962,140108109147.0,0,0,110
太原直送,DWLS067,DWLS067,604,140108109178,太原***鑫隆烟店,112.536637,37.956597,1.0,4.0,111.0,53.67,2.220692018152897,2.259313390993156,0.0197026407367095,太原直送,0.0197026407367095,山西省,太原市,尖草坪区,南寨街道,山西省太原市尖草坪区南寨街道迎新东一条新华小区北区,112.53029377380648,37.95606076438509,173_109,112.52964258156828,37.956450167500094,2.0,4226925495.0,112.5302834,37.955276,140108109178.0,0,0,110
太原直送,DWLS067,DWLS067,784,140108109543,太原***泰烟酒行,112.536576,37.958217,1.0,4.0,111.0,48.67,2.21918825842086,2.258288594577764,0.0182614666716547,太原直送,0.0182614666716547,山西省,太原市,尖草坪区,南寨街道,山西省太原市尖草坪区南寨街道迎新东一条新华小区北区,112.53023240024044,37.95768095353026,173_109,112.52964258156828,37.956450167500094,2.0,4226925503.0,112.5302148,37.9575827,140108109543.0,0,0,110
太原直送,DWLS067,DWLS067,785,140108109773,太原***亮烟酒店,112.541119,37.951151,1.0,4.0,111.0,79.0,2.22430887317926,2.2595615196858443,0.026657710704403,太原直送,0.026657710704403,山西省,太原市,尖草坪区,新城街道,山西省太原市尖草坪区新城街道迎新东二条青山苑小区,112.53478950627346,37.95062435743191,174_108,112.53543550978544,37.95195356229368,2.0,2623882772.0,112.5347334,37.9508439,140108109773.0,0,0,110
太原直送,DWLS067,DWLS067,625,140108111623,太原***食便利店,112.536672,37.955773,1.0,4.0,111.0,16.33,2.221455613318664,2.259831933156093,0.0204478493001058,太原直送,0.0204478493001058,山西省,太原市,尖草坪区,南寨街道,山西省太原市尖草坪区南寨街道迎新东一条兴安苑,112.53032897569726,37.95523667812669,173_109,112.52964258156828,37.956450167500094,2.0,4226925495.0,112.5302834,37.955276,140108111623.0,0,0,110
太原直送,DWLS067,DWLS067,24,140108111650,太原***酒便利店,112.556159,37.954233,1.0,4.0,112.0,34.67,2.2163951407535607,2.246276083055021,0.0349532552990345,太原直送,0.0349532552990345,山西省,太原市,尖草坪区,新城街道,山西省太原市尖草坪区新城街道钢园路15号,112.54986680345644,37.953738152517374,176_108,112.54702136621977,37.95195356229368,0.0,8736061870.0,112.5519054,37.9535097,140108111650.0,0,0,110
太原直送,DWLS067,DWLS067,65,140108112596,太原***酒便利店,112.536282,37.962746,1.0,4.0,111.0,55.0,2.2150269995505663,2.255520117338124,0.0143587927765497,太原直送,0.0143587927765497,山西省,太原市,尖草坪区,南寨街道,山西省太原市尖草坪区南寨街道迎新东一条舒园小区,112.5299369824608,37.96221018006052,173_110,112.52964258156828,37.96094677270652,2.0,7895450177.0,112.5293916,37.9620477,140108112596.0,0,0,110
太原直送,DWLS067,DWLS067,578,140108112621,太原***酒小卖部,112.541094,37.951076,1.0,4.0,111.0,71.67,2.2243879132817623,2.259629981489224,0.0267089365194485,太原直送,0.0267089365194485,山西省,太原市,尖草坪区,新城街道,山西省太原市尖草坪区新城街道迎新东二条青山苑小区,112.5347644442054,37.950549283671926,174_108,112.53543550978544,37.95195356229368,2.0,4641654960.0,112.5347429,37.9503936,140108112621.0,0,0,110
太原直送,DWLS067,DWLS067,803,140108112766,太原***酒便利店,112.541119,37.951151,1.0,4.0,111.0,31.0,2.22430887317926,2.2595615196858443,0.026657710704403,太原直送,0.026657710704403,山西省,太原市,尖草坪区,新城街道,山西省太原市尖草坪区新城街道迎新东二条青山苑小区,112.53478950627346,37.95062435743191,174_108,112.53543550978544,37.95195356229368,2.0,2623882772.0,112.5347334,37.9508439,140108112766.0,0,0,110
太原直送,DWLS067,DWLS067,793,140108113369,太原***酒便利店,112.536601,37.958429,1.0,4.0,111.0,30.0,2.2189803147535985,2.2581297754754863,0.0180920717442739,太原直送,0.0180920717442739,山西省,太原市,尖草坪区,南寨街道,山西省太原市尖草坪区南寨街道迎新东一条太原市尖草坪区实验中学校,112.53025745057656,37.95789305947973,173_109,112.52964258156828,37.956450167500094,2.0,4226925503.0,112.5302148,37.9575827,140108113369.0,0,0,110
太原直送,DWLS067,DWLS067,794,140108114190,太原***家昌超市,112.541119,37.951151,1.0,4.0,111.0,63.0,2.22430887317926,2.2595615196858443,0.026657710704403,太原直送,0.026657710704403,山西省,太原市,尖草坪区,新城街道,山西省太原市尖草坪区新城街道迎新东二条青山苑小区,112.53478950627346,37.95062435743191,174_108,112.53543550978544,37.95195356229368,2.0,2623882772.0,112.5347334,37.9508439,140108114190.0,0,0,110
太原直送,DWLS067,DWLS067,682,140108114934,太原***酒源酒业,112.541102,37.949834,1.0,4.0,111.0,96.67,2.225555175787379,2.260448143816841,0.0277836707797881,太原直送,0.0277836707797881,山西省,太原市,尖草坪区,新城街道,山西省太原市尖草坪区新城街道迎新东二条太原迎宾旅馆,112.53477261235676,37.94930704423692,174_107,112.53543550978544,37.94745695708725,2.0,9941742875.0,112.534774,37.9485858,140108114934.0,0,0,110
太原直送,DWLS067,DWLS067,777,140108115315,太原***货便利店,112.537186,37.95815,1.0,4.0,111.0,18.0,2.219044859017044,2.2578749753405223,0.0186357263877732,太原直送,0.0186357263877732,山西省,太原市,尖草坪区,南寨街道,山西省太原市尖草坪区南寨街道迎新北一巷太原市尖草坪区实验中学校,112.53084423671412,37.95761543542577,173_109,112.52964258156828,37.956450167500094,2.0,4226925503.0,112.5302148,37.9575827,140108115315.0,0,0,110
太原直送,DWLS067,DWLS067,733,140108115594,太原***小百货店,112.540946,37.958144,1.0,4.0,111.0,28.33,2.2177812888997868,2.255058175956661,0.0208809197594401,太原直送,0.0208809197594401,山西省,太原市,尖草坪区,新城街道,山西省太原市尖草坪区新城街道书香路太原工业学院,112.5346151961728,37.95761841438664,174_109,112.53543550978544,37.956450167500094,2.0,2623882802.0,112.5344681,37.9576611,140108115594.0,0,0,110
太原直送,DWLS067,DWLS067,933,140108115692,太原***酒便利店,112.535258,37.951306,1.0,4.0,111.0,96.0,2.226137619207309,2.263847831565759,0.0239973955670151,太原直送,0.0239973955670151,山西省,太原市,尖草坪区,迎新街道,山西省太原市尖草坪区迎新街道迎新南二巷太钢102小区,112.5289112140342,37.950765242686565,173_108,112.52964258156828,37.95195356229368,2.0,2623882771.0,112.5304002,37.9507324,140108115692.0,0,0,110
太原直送,DWLS067,DWLS067,658,140108115983,太原***烟酒商行,112.536679,37.954992,1.0,4.0,111.0,95.0,2.2221882490799465,2.2603432128404704,0.0211479880130514,太原直送,0.0211479880130514,山西省,太原市,尖草坪区,南寨街道,山西省太原市尖草坪区南寨街道迎新东一条兴安苑,112.53033608836502,37.954455532151385,173_109,112.52964258156828,37.956450167500094,2.0,4226925495.0,112.5302834,37.955276,140108115983.0,0,0,110
太原直送,DWLS067,DWLS067,854,140108116685,（金***东金虎便利店,112.541073,37.951593,1.0,4.0,111.0,57.67,2.223907981556789,2.2593027474743166,0.0262566353518445,太原直送,0.0262566353518445,山西省,太原市,尖草坪区,新城街道,山西省太原市尖草坪区新城街道迎新东二条青山苑小区,112.5347433241102,37.951066342326406,174_108,112.53543550978544,37.95195356229368,2.0,2623882772.0,112.5347334,37.9508439,140108116685.0,0,0,110
太原直送,DWLS067,DWLS067,653,140108116836,太原***酒便利店,112.541097,37.950991,1.0,4.0,111.0,33.33,2.224466972447107,2.25968412751805,0.0267832918066404,太原直送,0.0267832918066404,山西省,太原市,尖草坪区,新城街道,山西省太原市尖草坪区新城街道迎新东二条太钢一零三小区,112.5347674626654,37.95046427298027,174_108,112.53543550978544,37.95195356229368,2.0,4641654960.0,112.5347429,37.9503936,140108116836.0,0,0,110
太原直送,DWLS067,DWLS067,622,140108117652,太原***酒便利店,112.541375,37.951013,1.0,4.0,111.0,31.0,2.224352931989881,2.259461528412683,0.026908876305038,太原直送,0.026908876305038,山西省,太原市,尖草坪区,新城街道,山西省太原市尖草坪区新城街道新城东街北一巷青山苑小区,112.53504624652012,37.95048692323004,174_108,112.53543550978544,37.95195356229368,2.0,4641654960.0,112.5347429,37.9503936,140108117652.0,0,0,110
太原直送,DWLS067,DWLS067,692,140108118638,太原***慧便利店,112.541092,37.949515,1.0,4.0,111.0,22.0,2.225859037550445,2.260667361984062,0.0280560080018554,太原直送,0.0280560080018554,山西省,太原市,尖草坪区,新城街道,山西省太原市尖草坪区新城街道迎新东二条太原新城宾馆,112.53476262137556,37.94898795475094,174_107,112.53543550978544,37.94745695708725,2.0,9941742875.0,112.534774,37.9485858,140108118638.0,0,0,110
太原直送,DWLS067,DWLS067,621,140108118649,太原***来便利店,112.544243,37.955969,1.0,4.0,111.0,23.67,2.2187220790256696,2.254028206325955,0.0247056102130596,太原直送,0.0247056102130596,山西省,太原市,尖草坪区,新城街道,山西省太原市尖草坪区新城街道太原工业学院励行楼,112.53792159411344,37.95545047444793,174_109,112.53543550978544,37.956450167500094,2.0,4641654952.0,112.5378281,37.9548016,140108118649.0,0,0,110
太原直送,DWLS067,DWLS067,663,140108118650,太原***酒便利店,112.541685,37.956058,1.0,4.0,111.0,60.33,2.219496952657741,2.255885120018746,0.0229565434898203,太原直送,0.0229565434898203,山西省,太原市,尖草坪区,新城街道,山西省太原市尖草坪区新城街道迎新街太原来港旅馆,112.5353565288918,37.955533692286856,174_109,112.53543550978544,37.956450167500094,2.0,4226925492.0,112.534559,37.9553962,140108118650.0,0,0,110
太原直送,DWLS067,DWLS067,814,140108118674,太原***梅便利店,112.541119,37.951146,1.0,4.0,111.0,36.0,2.224313582952952,2.2595648366732046,0.0266619857662499,太原直送,0.0266619857662499,山西省,太原市,尖草坪区,新城街道,山西省太原市尖草坪区新城街道迎新东二条青山苑小区,112.53478950685913,37.9506193563922,174_108,112.53543550978544,37.95195356229368,2.0,4641654960.0,112.5347429,37.9503936,140108118674.0,0,0,110
太原直送,DWLS067,DWLS067,819,140108118721,太原***一便利店,112.541375,37.951013,1.0,4.0,111.0,55.67,2.224352931989881,2.259461528412683,0.026908876305038,太原直送,0.026908876305038,山西省,太原市,尖草坪区,新城街道,山西省太原市尖草坪区新城街道新城东街北一巷青山苑小区,112.53504624652012,37.95048692323004,174_108,112.53543550978544,37.95195356229368,2.0,4641654960.0,112.5347429,37.9503936,140108118721.0,0,0,110
太原直送,DWLS067,DWLS067,55,140108118734,太原***理便利店,112.541228,37.962937,1.0,4.0,111.0,59.0,2.2131737567360146,2.251678151935572,0.0177571467584221,太原直送,0.0177571467584221,山西省,太原市,尖草坪区,新城街道,山西省太原市尖草坪区新城街道闹两串儿烧烤海鲜建桥体艺幼儿园,112.53489743406078,37.9624130774165,174_110,112.53543550978544,37.96094677270652,0.0,2623882814.0,112.5343186,37.9621155,140108118734.0,0,0,110
太原直送,DWLS067,DWLS067,716,140108118757,太原***多便利店,112.539287,37.949062,1.0,4.0,111.0,91.67,2.2268919280587016,2.262318208949836,0.027621010064805,太原直送,0.027621010064805,山西省,太原市,尖草坪区,新城街道,山西省太原市尖草坪区新城街道凤凰城(南门),112.53295249304256,37.94853061041803,174_107,112.53543550978544,37.94745695708725,2.0,9941724858.0,112.5347217,37.9483686,140108118757.0,0,0,110
太原直送,DWLS067,DWLS067,528,140108118931,太原***旺丰超市,112.536444,37.955861,1.0,4.0,111.0,32.0,2.2214499148909472,2.2599447849007253,0.0202657229083998,太原直送,0.0202657229083998,山西省,太原市,尖草坪区,南寨街道,山西省太原市尖草坪区南寨街道迎新街兴安苑,112.53010027919656,37.95532413529692,173_109,112.52964258156828,37.956450167500094,2.0,4226925495.0,112.5302834,37.955276,140108118931.0,0,0,110
太原直送,DWLS067,DWLS067,676,140108118975,太原***和隆超市,112.541454,37.956067,1.0,4.0,111.0,63.33,2.219566152776034,2.2560522385317223,0.0228053786857416,太原直送,0.0228053786857416,山西省,太原市,尖草坪区,新城街道,山西省太原市尖草坪区新城街道迎新街太原缘梦酒店(太原工业学院店),112.53512487744264,37.95554216006252,174_109,112.53543550978544,37.956450167500094,2.0,4226925492.0,112.534559,37.9553962,140108118975.0,0,0,110
太原直送,DWLS067,DWLS067,687,140108119002,太原***酒便利店,112.53545,37.953591,1.0,4.0,111.0,13.67,2.2239223442478804,2.2621916593410014,0.0219257965191636,太原直送,0.0219257965191636,山西省,太原市,尖草坪区,南寨街道,山西省太原市尖草坪区南寨街道迎新南一巷兴安苑,112.52910353203532,37.95305119760324,173_108,112.52964258156828,37.95195356229368,2.0,4226925494.0,112.530368,37.9530693,140108119002.0,0,0,110
太原直送,DWLS067,DWLS067,740,140108119013,太原***龙龙烟店,112.540946,37.958144,1.0,4.0,111.0,59.0,2.2177812888997868,2.255058175956661,0.0208809197594401,太原直送,0.0208809197594401,山西省,太原市,尖草坪区,新城街道,山西省太原市尖草坪区新城街道书香路太原工业学院,112.5346151961728,37.95761841438664,174_109,112.53543550978544,37.956450167500094,2.0,2623882802.0,112.5344681,37.9576611,140108119013.0,0,0,110
太原直送,DWLS067,DWLS067,734,140108119042,太原***青便利店,112.539388,37.949047,1.0,4.0,111.0,25.67,2.226872103791547,2.2622525982400785,0.0276785086484074,太原直送,0.0276785086484074,山西省,太原市,尖草坪区,新城街道,山西省太原市尖草坪区新城街道凤凰城小区警务室,112.53305378811818,37.94851584774904,174_107,112.53543550978544,37.94745695708725,2.0,9941724858.0,112.5347217,37.9483686,140108119042.0,0,0,110
太原直送,DWLS067,DWLS067,25,140108119077,太原***酒便利店,112.558001,37.953617,1.0,4.0,112.0,51.0,2.216369308641496,2.245312812510759,0.0368256369938137,太原直送,0.0368256369938137,山西省,太原市,尖草坪区,新城街道,山西省太原市尖草坪区新城街道钢园路,112.55171274896652,37.95312526777596,177_108,112.55281429443691,37.95195356229368,0.0,8736061870.0,112.5519054,37.9535097,140108119077.0,0,0,110
太原直送,DWLS067,DWLS067,831,140108119103,太原***佳欣超市,112.541375,37.951013,1.0,4.0,111.0,43.67,2.224352931989881,2.259461528412683,0.026908876305038,太原直送,0.026908876305038,山西省,太原市,尖草坪区,新城街道,山西省太原市尖草坪区新城街道新城东街北一巷青山苑小区,112.53504624652012,37.95048692323004,174_108,112.53543550978544,37.95195356229368,2.0,4641654960.0,112.5347429,37.9503936,140108119103.0,0,0,110
太原直送,DWLS067,DWLS067,591,140108119122,太原***兰便利店,112.53432,37.951396,1.0,4.0,111.0,91.0,2.226370241700601,2.264491324385458,0.0236166453587236,太原直送,0.0236166453587236,山西省,太原市,尖草坪区,迎新街道,山西省太原市尖草坪区迎新街道迎新南二巷太钢102小区,112.52797032102492,37.95085290666202,173_108,112.52964258156828,37.95195356229368,2.0,3509426238.0,112.5262042,37.9506945,140108119122.0,0,0,110
太原直送,DWLS067,DWLS067,865,140108119126,太原***满便利店,112.539378,37.951421,1.0,4.0,111.0,55.0,2.224639742327953,2.260685543957847,0.0255594935200162,太原直送,0.0255594935200162,山西省,太原市,尖草坪区,新城街道,山西省太原市尖草坪区新城街道迎新南二巷太钢一零三小区,112.53304348087576,37.950890317076144,174_108,112.53543550978544,37.95195356229368,2.0,9941724857.0,112.5346841,37.9508403,140108119126.0,0,0,110
太原直送,DWLS067,DWLS067,703,140108119136,太原***烟酒商店,112.541084,37.949589,1.0,4.0,111.0,58.0,2.225792011447832,2.260624225201524,0.0279876579405942,太原直送,0.0279876579405942,山西省,太原市,尖草坪区,新城街道,山西省太原市尖草坪区新城街道迎新东二条太原迎宾旅馆,112.53475459002972,37.9490619514919,174_107,112.53543550978544,37.94745695708725,2.0,9941742875.0,112.534774,37.9485858,140108119136.0,0,0,110
太原直送,DWLS067,DWLS067,905,140108119180,太原***里便利店,112.536756,37.951391,1.0,4.0,111.0,24.33,2.225551583579449,2.262669084713008,0.0244569228031619,太原直送,0.0244569228031619,山西省,太原市,尖草坪区,迎新街道,山西省太原市尖草坪区迎新街道迎新南二巷迎新街小学,112.53041374208333,37.95085397077608,173_108,112.52964258156828,37.95195356229368,2.0,2623882771.0,112.5304002,37.9507324,140108119180.0,0,0,110
太原直送,DWLS067,DWLS067,771,140108119189,太原***发烟酒店,112.54106,37.951789,1.0,4.0,111.0,79.67,2.2237277311759645,2.2591824793407005,0.0260831364103333,太原直送,0.0260831364103333,山西省,太原市,尖草坪区,新城街道,山西省太原市尖草坪区新城街道迎新东二条青山苑小区,112.53473026428638,37.95126235284634,174_108,112.53543550978544,37.95195356229368,2.0,2623882772.0,112.5347334,37.9508439,140108119189.0,0,0,110
太原直送,DWLS067,DWLS067,606,140108119208,太原***品经销部,112.549016,37.948908,1.0,4.0,111.0,23.0,2.2237854244350985,2.255151057033874,0.0331457380970695,太原直送,0.0331457380970695,山西省,太原市,尖草坪区,新城街道,山西省太原市尖草坪区新城街道新城村东街,112.54270782819222,37.94839824499,175_107,112.5412284380026,37.94745695708725,0.0,7217259205.0,112.5425155,37.9482889,140108119208.0,0,0,110
太原直送,DWLS067,DWLS067,923,140108119218,太原***鸿泰商店,112.535366,37.951329,1.0,4.0,111.0,35.0,2.226079461126443,2.263751665038372,0.0240117955388557,太原直送,0.0240117955388557,山西省,太原市,尖草坪区,迎新街道,山西省太原市尖草坪区迎新街道迎新南二巷太钢102小区,112.5290195412162,37.95078851705696,173_108,112.52964258156828,37.95195356229368,2.0,2623882771.0,112.5304002,37.9507324,140108119218.0,0,0,110
太原直送,DWLS067,DWLS067,726,140108119304,太原***家便利店,112.540946,37.958144,1.0,4.0,111.0,90.33,2.2177812888997868,2.255058175956661,0.0208809197594401,太原直送,0.0208809197594401,山西省,太原市,尖草坪区,新城街道,山西省太原市尖草坪区新城街道书香路太原工业学院,112.5346151961728,37.95761841438664,174_109,112.53543550978544,37.956450167500094,2.0,2623882802.0,112.5344681,37.9576611,140108119304.0,0,0,110
太原直送,DWLS067,DWLS067,884,140108119327,太原***龙烟酒店,112.537551,37.953666,1.0,4.0,111.0,55.0,2.223141755861064,2.2605668889608244,0.0227240685837696,太原直送,0.0227240685837696,山西省,太原市,尖草坪区,南寨街道,山西省太原市尖草坪区南寨街道迎新南一巷兴安苑,112.5312108502179,37.9531313880489,173_108,112.52964258156828,37.95195356229368,2.0,4226925494.0,112.530368,37.9530693,140108119327.0,0,0,110
太原直送,DWLS067,DWLS067,742,140108119345,太原***诚烟酒店,112.539198,37.949496,1.0,4.0,111.0,54.67,2.226513118113159,2.262096864098659,0.0271916316906456,太原直送,0.0271916316906456,山西省,太原市,尖草坪区,新城街道,山西省太原市尖草坪区新城街道凤凰城,112.53286318338245,37.948964488336216,174_107,112.53543550978544,37.94745695708725,2.0,9941742875.0,112.534774,37.9485858,140108119345.0,0,0,110
太原直送,DWLS067,DWLS067,770,140108119360,太原***烟酒商店,112.537242,37.958154,1.0,4.0,111.0,52.0,2.219022150162991,2.257830300586156,0.0186621306929315,太原直送,0.0186621306929315,山西省,太原市,尖草坪区,南寨街道,山西省太原市尖草坪区南寨街道迎新北一巷太原市尖草坪区实验中学校,112.53090040342612,37.95761957306426,173_109,112.52964258156828,37.956450167500094,2.0,4226925503.0,112.5302148,37.9575827,140108119360.0,0,0,110
太原直送,DWLS067,DWLS067,705,140108119368,太原***英美烟店,112.540874,37.958125,1.0,4.0,111.0,90.67,2.217823429716843,2.255124735385601,0.0208483257121507,太原直送,0.0208483257121507,山西省,太原市,尖草坪区,新城街道,山西省太原市尖草坪区新城街道迎新东二条太原工业学院,112.53454299375429,37.95759924245162,174_109,112.53543550978544,37.956450167500094,2.0,2623882802.0,112.5344681,37.9576611,140108119368.0,0,0,110
太原直送,DWLS067,DWLS067,19,140108119372,太原***久便利店,112.535498,37.96249,1.0,4.0,111.0,36.67,2.215533941243505,2.25627833289534,0.014088762685203,太原直送,0.014088762685203,山西省,太原市,尖草坪区,迎新街道,山西省太原市尖草坪区迎新街道迎新北三巷,112.5291506337559,37.96195218170615,173_110,112.52964258156828,37.96094677270652,2.0,7895450177.0,112.5293916,37.9620477,140108119372.0,0,0,110
太原直送,DWLS067,DWLS067,804,140108119377,太原***利便利店,112.535891,37.960595,1.0,4.0,111.0,31.33,2.2171830823908056,2.257232927721235,0.0158774906077794,太原直送,0.0158774906077794,山西省,太原市,尖草坪区,南寨街道,山西省太原市尖草坪区南寨街道新华巷新华小区北区,112.529545051396,37.9600577601088,173_110,112.52964258156828,37.96094677270652,2.0,7895450179.0,112.5294282,37.9597901,140108119377.0,0,0,110
太原直送,DWLS067,DWLS067,759,140108119434,太原***银昌超市,112.538998,37.949019,1.0,4.0,111.0,35.33,2.227029594509464,2.262562965490236,0.0275356641648622,太原直送,0.0275356641648622,山西省,太原市,尖草坪区,新城街道,山西省太原市尖草坪区新城街道新城南大街凤凰城,112.53266265659772,37.94848691181463,174_107,112.53543550978544,37.94745695708725,2.0,9941724858.0,112.5347217,37.9483686,140108119434.0,0,0,110
太原直送,DWLS067,DWLS067,615,140108119447,太原***儿便利店,112.549069,37.948872,1.0,4.0,111.0,34.67,2.223801769746797,2.25513547253241,0.0332076680451964,太原直送,0.0332076680451964,山西省,太原市,尖草坪区,新城街道,山西省太原市尖草坪区新城街道新城南大街,112.5427609644416,37.94836234680776,175_107,112.5412284380026,37.94745695708725,0.0,7217259205.0,112.5425155,37.9482889,140108119447.0,0,0,110
太原直送,DWLS067,DWLS067,60,140108119468,太原***郭熟肉店,112.539424,37.962758,1.0,4.0,112.0,33.33,2.213951501389765,2.2531511405018976,0.0165004662358329,太原直送,0.0165004662358329,山西省,太原市,尖草坪区,新城街道,山西省太原市尖草坪区新城街道迎新北三巷迎新公园,112.53308828534928,37.9622297992998,174_110,112.53543550978544,37.96094677270652,0.0,9941724861.0,112.534272,37.9621124,140108119468.0,0,0,110
太原直送,DWLS067,DWLS067,566,140108119549,太原***酒便利店,112.541092,37.950979,1.0,4.0,111.0,17.67,2.224479954593657,2.259695829889497,0.0267910002986122,太原直送,0.0267910002986122,山西省,太原市,尖草坪区,新城街道,山西省太原市尖草坪区新城街道迎新东二条太钢一零三小区,112.534762449898,37.950452258850575,174_108,112.53543550978544,37.95195356229368,2.0,4641654960.0,112.5347429,37.9503936,140108119549.0,0,0,110
太原直送,DWLS067,DWLS067,772,140108119556,太原***西特产店,112.536931,37.949882,1.0,4.0,111.0,56.67,2.226913073869969,2.26353785434439,0.0259195440739169,太原直送,0.0259195440739169,山西省,太原市,尖草坪区,迎新街道,山西省太原市尖草坪区迎新街道迎新街基督教太钢102小区,112.53058944387529,37.94934508652786,173_107,112.52964258156828,37.94745695708725,2.0,2623882771.0,112.5304002,37.9507324,140108119556.0,0,0,110
太原直送,DWLS067,DWLS067,62,140108119559,太原***酒便利店,112.538749,37.962838,1.0,4.0,112.0,23.0,2.214104512601203,2.253605412118549,0.0159549666561829,太原直送,0.0159549666561829,山西省,太原市,尖草坪区,新城街道,山西省太原市尖草坪区新城街道美家乐家具工厂店工读驾校训练场,112.53241130874994,37.962308204176686,173_110,112.52964258156828,37.96094677270652,2.0,9941724861.0,112.534272,37.9621124,140108119559.0,0,0,110
太原直送,DWLS067,DWLS067,745,140108119564,太原***烟酒商店,112.539505,37.953683,1.0,4.0,111.0,81.0,2.22246699295445,2.259091449179732,0.0236558775783132,太原直送,0.0236558775783132,山西省,太原市,尖草坪区,南寨街道,山西省太原市尖草坪区南寨街道迎新南一巷新城小区,112.53317058408882,37.953153090144085,174_108,112.53543550978544,37.95195356229368,2.0,9941724866.0,112.5345994,37.9531541,140108119564.0,0,0,110
太原直送,DWLS067,DWLS067,725,140108119567,（唐***升唐久便利店,112.543552,37.949054,1.0,4.0,111.0,45.67,2.225469312408958,2.259134370033129,0.0297290666183829,太原直送,0.0297290666183829,山西省,太原市,尖草坪区,新城街道,山西省太原市尖草坪区新城街道漆彩汽车调色,112.53722952477692,37.94853248819928,174_107,112.53543550978544,37.94745695708725,2.0,7217259444.0,112.5357599,37.9484082,140108119567.0,0,0,110
太原直送,DWLS067,DWLS067,911,140108119576,（金***江金虎便利店,112.536192,37.951376,1.0,4.0,111.0,43.67,2.225756122942939,2.2631015803487444,0.0242582293253191,太原直送,0.0242582293253191,山西省,太原市,尖草坪区,迎新街道,山西省太原市尖草坪区迎新街道迎新南二巷太钢102小区,112.52984804482875,37.950837578027325,173_108,112.52964258156828,37.95195356229368,2.0,2623882771.0,112.5304002,37.9507324,140108119576.0,0,0,110
太原直送,DWLS067,DWLS067,942,140108119604,太原***辉便利店,112.534877,37.951439,1.0,4.0,111.0,8.33,2.226141303045249,2.264045339918132,0.0237475698125053,太原直送,0.0237475698125053,山西省,太原市,尖草坪区,迎新街道,山西省太原市尖草坪区迎新街道迎新南二巷102小区太钢102小区,112.52852903136368,37.9508973167655,173_108,112.52964258156828,37.95195356229368,2.0,2623882771.0,112.5304002,37.9507324,140108119604.0,0,0,110
太原直送,DWLS067,DWLS067,668,140108119617,太原***培华商店,112.536321,37.953607,1.0,4.0,111.0,33.0,2.223612736136399,2.2615279788065847,0.0222498916851302,太原直送,0.0222498916851302,山西省,太原市,尖草坪区,南寨街道,山西省太原市尖草坪区南寨街道迎新南一巷兴安苑,112.52997717270796,37.95306936130424,173_108,112.52964258156828,37.95195356229368,2.0,4226925494.0,112.530368,37.9530693,140108119617.0,0,0,110
太原直送,DWLS067,DWLS067,61,140108119619,太原***久便利店,112.538536,37.962667,1.0,4.0,112.0,40.33,2.2143375014331017,2.253878292299743,0.0159233547030686,太原直送,0.0159233547030686,山西省,太原市,尖草坪区,新城街道,山西省太原市尖草坪区新城街道迎新北三巷工读驾校训练场,112.53219770438945,37.96213665670655,173_110,112.52964258156828,37.96094677270652,2.0,9941724861.0,112.534272,37.9621124,140108119619.0,0,0,110
太原直送,DWLS067,DWLS067,749,140108119671,太原***军便利店,112.540946,37.958144,1.0,4.0,111.0,65.67,2.2177812888997868,2.255058175956661,0.0208809197594401,太原直送,0.0208809197594401,山西省,太原市,尖草坪区,新城街道,山西省太原市尖草坪区新城街道书香路太原工业学院,112.5346151961728,37.95761841438664,174_109,112.53543550978544,37.956450167500094,2.0,2623882802.0,112.5344681,37.9576611,140108119671.0,0,0,110
太原直送,DWLS067,DWLS067,765,140108119684,太原***久远超市,112.541009,37.952562,1.0,4.0,111.0,62.33,2.2230167816210904,2.258708058230188,0.0254022797598951,太原直送,0.0254022797598951,山西省,太原市,尖草坪区,新城街道,山西省太原市尖草坪区新城街道迎新东二条青山苑小区,112.53467902904586,37.95203539500455,174_108,112.53543550978544,37.95195356229368,2.0,3903228111.0,112.5346411,37.9531556,140108119684.0,0,0,110
太原直送,DWLS067,DWLS067,820,140108119691,太原***新便利店,112.533555,37.96029,1.0,4.0,111.0,33.33,2.218263309167102,2.259189744676168,0.0150205543506232,太原直送,0.0150205543506232,山西省,太原市,尖草坪区,南寨街道,山西省太原市尖草坪区南寨街道迎新北二巷新华小区北区,112.52720190284246,37.9597468279374,173_110,112.52964258156828,37.96094677270652,2.0,4226925515.0,112.5275063,37.9597427,140108119691.0,0,0,110
太原直送,DWLS067,DWLS067,634,140108119696,太原***鲜食品店,112.541375,37.951013,1.0,4.0,111.0,35.0,2.224352931989881,2.259461528412683,0.026908876305038,太原直送,0.026908876305038,山西省,太原市,尖草坪区,新城街道,山西省太原市尖草坪区新城街道新城东街北一巷青山苑小区,112.53504624652012,37.95048692323004,174_108,112.53543550978544,37.95195356229368,2.0,4641654960.0,112.5347429,37.9503936,140108119696.0,0,0,110
太原直送,DWLS067,DWLS067,893,140108119762,太原***品经销部,112.536741,37.951382,1.0,4.0,111.0,54.33,2.225565118192001,2.262686283657097,0.0244594240529072,太原直送,0.0244594240529072,山西省,太原市,尖草坪区,迎新街道,山西省太原市尖草坪区迎新街道迎新南二巷迎新街小学,112.53039869810364,37.95084493206205,173_108,112.52964258156828,37.95195356229368,2.0,2623882771.0,112.5304002,37.9507324,140108119762.0,0,0,110
太原直送,DWLS067,DWLS067,598,140108119770,太原***酒副食店,112.541093,37.951066,1.0,4.0,111.0,30.67,2.2243976685712026,2.259637363855092,0.0267169820339076,太原直送,0.0267169820339076,山西省,太原市,尖草坪区,新城街道,山西省太原市尖草坪区新城街道迎新东二条青山苑小区,112.53476344254209,37.9505392792657,174_108,112.53543550978544,37.95195356229368,2.0,4641654960.0,112.5347429,37.9503936,140108119770.0,0,0,110
太原直送,DWLS067,DWLS067,872,140108119774,（金***金虎便利店,112.539186,37.951418,1.0,4.0,111.0,34.67,2.2247071774707807,2.260831280096107,0.0254719271748348,太原直送,0.0254719271748348,山西省,太原市,尖草坪区,新城街道,山西省太原市尖草坪区新城街道迎新南二巷太钢一零三小区,112.53285092320134,37.95088685905496,174_108,112.53543550978544,37.95195356229368,2.0,9941724857.0,112.5346841,37.9508403,140108119774.0,0,0,110
太原直送,DWLS067,DWLS067,717,140108119790,太原***家便利店,112.540946,37.958144,1.0,4.0,111.0,86.0,2.2177812888997868,2.255058175956661,0.0208809197594401,太原直送,0.0208809197594401,山西省,太原市,尖草坪区,新城街道,山西省太原市尖草坪区新城街道书香路太原工业学院,112.5346151961728,37.95761841438664,174_109,112.53543550978544,37.956450167500094,2.0,2623882802.0,112.5344681,37.9576611,140108119790.0,0,0,110
太原直送,DWLS067,DWLS067,22,140108119869,太原***玉平商店,112.556066,37.9543,1.0,4.0,112.0,36.67,2.216362604595642,2.2463008450937685,0.0348386707266488,太原直送,0.0348386707266488,山西省,太原市,尖草坪区,新城街道,山西省太原市尖草坪区新城街道钢园路15号,112.54977359552734,37.953804999208906,176_108,112.54702136621977,37.95195356229368,0.0,8736061870.0,112.5519054,37.9535097,140108119869.0,0,0,110
太原直送,DWLS067,DWLS067,815,140108119951,太原***品批发部,112.534477,37.960358,1.0,4.0,111.0,23.67,2.2178859823500856,2.2584518666648647,0.0153675658775196,太原直送,0.0153675658775196,山西省,太原市,尖草坪区,南寨街道,山西省太原市尖草坪区南寨街道迎新北二巷新华小区北区,112.52812675335034,37.95981717588269,173_110,112.52964258156828,37.96094677270652,2.0,4226925515.0,112.5275063,37.9597427,140108119951.0,0,0,110
太原直送,DWLS067,DWLS067,1211,140108120050,太原***食经销部,112.541094,37.951165,1.0,4.0,111.0,70.33,2.2243040795001434,2.2595709389855365,0.0266327783942984,太原直送,0.0266327783942984,山西省,太原市,尖草坪区,新城街道,山西省太原市尖草坪区新城街道迎新东二条青山苑小区,112.53476443378048,37.95063830217795,174_108,112.53543550978544,37.95195356229368,2.0,2623882772.0,112.5347334,37.9508439,140108120050.0,0,0,110
太原直送,DWLS067,DWLS067,144,140108120062,太原***信便利店,112.536127,37.958119,1.0,4.0,111.0,22.67,2.219432519457168,2.258690413342432,0.0181228731717605,太原直送,0.0181228731717605,山西省,太原市,尖草坪区,南寨街道,山西省太原市尖草坪区南寨街道迎新北一巷新华小区北区,112.52978205702182,37.95758182516697,173_109,112.52964258156828,37.956450167500094,2.0,4226925503.0,112.5302148,37.9575827,140108120062.0,0,0,110
太原直送,DWLS067,DWLS067,253,140108120146,太原***副食商店,112.53386,37.953559,1.0,4.0,111.0,91.0,2.22449092569536,2.2634054091876656,0.021415717242251,太原直送,0.021415717242251,山西省,太原市,尖草坪区,南寨街道,山西省太原市尖草坪区南寨街道迎新南一巷兴安苑,112.52750864222496,37.95301519373615,173_108,112.52964258156828,37.95195356229368,2.0,4226925498.0,112.5261172,37.9529667,140108120146.0,0,0,110
太原直送,DWLS067,DWLS067,241,140108120153,太原***多便利店,112.541375,37.951013,1.0,4.0,111.0,47.0,2.224352931989881,2.259461528412683,0.026908876305038,太原直送,0.026908876305038,山西省,太原市,尖草坪区,新城街道,山西省太原市尖草坪区新城街道新城东街北一巷青山苑小区,112.53504624652012,37.95048692323004,174_108,112.53543550978544,37.95195356229368,2.0,4641654960.0,112.5347429,37.9503936,140108120153.0,0,0,110
太原直送,DWLS067,DWLS067,234,140108120184,太原***来悦超市,112.540593,37.962875,1.0,4.0,112.0,76.33,2.2134464331742945,2.252195915708267,0.0173029079636939,太原直送,0.0173029079636939,山西省,太原市,尖草坪区,新城街道,山西省太原市尖草坪区新城街道迎新北三巷迎新公园,112.5342606363806,37.96234958312567,174_110,112.53543550978544,37.96094677270652,0.0,9941724861.0,112.534272,37.9621124,140108120184.0,0,0,110
太原直送,DWLS067,DWLS067,251,140108120215,太原***旺便利店,112.533739,37.955847,1.0,4.0,111.0,81.0,2.222379580743129,2.2619840571650824,0.0192097926068959,太原直送,0.0192097926068959,山西省,太原市,尖草坪区,南寨街道,山西省太原市尖草坪区南寨街道迎新街新华小区南区,112.52738699750874,37.95530336448614,173_109,112.52964258156828,37.956450167500094,2.0,4226925493.0,112.5260153,37.9551561,140108120215.0,0,0,110
太原直送,DWLS067,DWLS067,242,140108120218,（金***珺金虎便利店,112.541102,37.949834,1.0,4.0,111.0,54.67,2.225555175787379,2.260448143816841,0.0277836707797881,太原直送,0.0277836707797881,山西省,太原市,尖草坪区,新城街道,山西省太原市尖草坪区新城街道迎新东二条太原迎宾旅馆,112.53477261235676,37.94930704423692,174_107,112.53543550978544,37.94745695708725,2.0,9941742875.0,112.534774,37.9485858,140108120218.0,0,0,110
太原直送,DWLS067,DWLS067,51,140108120227,太原***昇便利店,112.54109,37.951139,1.0,4.0,111.0,47.33,2.224329913223533,2.2595911802359314,0.0266529477731815,太原直送,0.0266529477731815,山西省,太原市,尖草坪区,新城街道,山西省太原市尖草坪区新城街道迎新东二条青山苑小区,112.53476042548712,37.95061228746327,174_108,112.53543550978544,37.95195356229368,2.0,4641654960.0,112.5347429,37.9503936,140108120227.0,0,0,110
太原直送,DWLS067,DWLS067,244,140108120240,太原***副食商行,112.534749,37.953592,1.0,4.0,111.0,49.33,2.224158682884157,2.262716727996232,0.0216738353089616,太原直送,0.0216738353089616,山西省,太原市,尖草坪区,南寨街道,山西省太原市尖草坪区南寨街道迎新南一巷兴安苑,112.52840038539094,37.95305044393488,173_108,112.52964258156828,37.95195356229368,2.0,4226925494.0,112.530368,37.9530693,140108120240.0,0,0,110
太原直送,DWLS067,DWLS067,245,140108120253,太原***烟酒商行,112.549263,37.948966,1.0,4.0,111.0,30.67,2.223648659749333,2.2549281316729384,0.0332645671698853,太原直送,0.0332645671698853,山西省,太原市,尖草坪区,新城街道,山西省太原市尖草坪区新城街道新城南大街,112.54295543568507,37.94845676546681,175_107,112.5412284380026,37.94745695708725,0.0,2124896295.0,112.5427776,37.9486471,140108120253.0,0,0,110
太原直送,DWLS067,DWLS067,280,140108120280,太原***酒便利店,112.539625,37.962718,1.0,4.0,111.0,72.33,2.2139212020342964,2.253026570762534,0.0166756963572717,太原直送,0.0166756963572717,山西省,太原市,尖草坪区,新城街道,山西省太原市尖草坪区新城街道迎新北三巷迎新公园,112.5332898724093,37.96219026825097,174_110,112.53543550978544,37.96094677270652,0.0,9941724861.0,112.534272,37.9621124,140108120280.0,0,0,110
太原直送,DWLS067,DWLS067,284,140108120305,太原***盛便利店,112.541093,37.951066,1.0,4.0,111.0,86.67,2.2243976685712026,2.259637363855092,0.0267169820339076,太原直送,0.0267169820339076,山西省,太原市,尖草坪区,新城街道,山西省太原市尖草坪区新城街道迎新东二条青山苑小区,112.53476344254209,37.9505392792657,174_108,112.53543550978544,37.95195356229368,2.0,4641654960.0,112.5347429,37.9503936,140108120305.0,0,0,110
太原直送,DWLS067,DWLS067,282,140108120327,太原***月便利店,112.537421,37.955908,1.0,4.0,111.0,46.0,2.221075373017539,2.259180836379861,0.0206842357605932,太原直送,0.0206842357605932,山西省,太原市,尖草坪区,南寨街道,山西省太原市尖草坪区南寨街道迎新街兴安苑,112.53108020049092,37.95537353962892,173_109,112.52964258156828,37.956450167500094,2.0,4226925495.0,112.5302834,37.955276,140108120327.0,0,0,110
太原直送,DWLS067,DWLS067,330,140108120335,太原***利烟酒店,112.536873,37.950897,1.0,4.0,111.0,33.33,2.2259771242310658,2.26290869184088,0.0249578547956355,太原直送,0.0249578547956355,山西省,太原市,尖草坪区,迎新街道,山西省太原市尖草坪区迎新街道乐鱼学堂太钢102小区,112.53053115101892,37.95036015520032,173_108,112.52964258156828,37.95195356229368,2.0,2623882771.0,112.5304002,37.9507324,140108120335.0,0,0,110
太原直送,DWLS067,DWLS067,321,140108120385,太原***都便利店,112.540778,37.959895,1.0,4.0,111.0,90.67,2.216189302671814,2.2540261010396425,0.0194728408045654,太原直送,0.0194728408045654,山西省,太原市,尖草坪区,新城街道,山西省太原市尖草坪区新城街道迎新东二条迎新苑,112.5344465131517,37.959369389488415,174_110,112.53543550978544,37.96094677270652,0.0,4226925502.0,112.5343962,37.9599029,140108120385.0,0,0,110
太原直送,DWLS067,DWLS067,329,140108120400,太原***茶经销部,112.549148,37.949038,1.0,4.0,111.0,83.33,2.223618952483088,2.254966015217298,0.0331345748426011,太原直送,0.0331345748426011,山西省,太原市,尖草坪区,新城街道,山西省太原市尖草坪区新城街道新城村东街,112.5428401416253,37.948528543942246,175_107,112.5412284380026,37.94745695708725,0.0,2124896295.0,112.5427776,37.9486471,140108120400.0,0,0,110
太原直送,DWLS067,DWLS067,379,140108120440,太原***便利商店,112.536683,37.9549,1.0,4.0,111.0,34.67,2.222273480622264,2.2604010691507823,0.0212322384359207,太原直送,0.0212322384359207,山西省,太原市,尖草坪区,南寨街道,山西省太原市尖草坪区南寨街道迎新东一条兴安苑,112.53034011117867,37.95436352277014,173_109,112.52964258156828,37.956450167500094,2.0,4226925495.0,112.5302834,37.955276,140108120440.0,0,0,110
太原直送,DWLS067,DWLS067,381,140108120457,太原***食品商行,112.540749,37.960036,1.0,4.0,122.0,37.0,2.216066334649976,2.2539546402556483,0.0193511907902337,太原直送,0.0193511907902337,山西省,太原市,尖草坪区,新城街道,山西省太原市尖草坪区新城街道迎新东二条迎新苑,112.53441741402897,37.9595103513097,174_110,112.53543550978544,37.96094677270652,0.0,4226925502.0,112.5343962,37.9599029,140108120457.0,0,0,110
太原直送,DWLS067,DWLS067,380,140108120474,太原***烟酒商店,112.536722,37.954085,1.0,4.0,122.0,59.0,2.223027340062421,2.260911026648329,0.0219828616199056,太原直送,0.0219828616199056,山西省,太原市,尖草坪区,南寨街道,山西省太原市尖草坪区南寨街道迎新东一条兴安苑,112.53037932395742,37.95354844848912,173_108,112.52964258156828,37.95195356229368,2.0,4226925494.0,112.530368,37.9530693,140108120474.0,0,0,110
太原直送,DWLS067,DWLS067,434,140108120513,太原***保宝酒坊,112.539813,37.962901,1.0,4.0,111.0,54.0,2.2136854324677646,2.252764549540187,0.0166935964968544,太原直送,0.0166935964968544,山西省,太原市,尖草坪区,新城街道,山西省太原市尖草坪区新城街道吉香园蛋糕迎新公园,112.53347839422604,37.962373752168,174_110,112.53543550978544,37.96094677270652,0.0,9941724861.0,112.534272,37.9621124,140108120513.0,0,0,110
太原直送,DWLS067,DWLS067,435,140108120537,太原***光便利店,112.540946,37.958144,1.0,4.0,112.0,32.33,2.2177812888997868,2.255058175956661,0.0208809197594401,太原直送,0.0208809197594401,山西省,太原市,尖草坪区,新城街道,山西省太原市尖草坪区新城街道书香路太原工业学院,112.5346151961728,37.95761841438664,174_109,112.53543550978544,37.956450167500094,2.0,2623882802.0,112.5344681,37.9576611,140108120537.0,0,0,110
太原直送,DWLS067,DWLS067,26,140108219943,（石***新城加油站,112.556345,37.95259,1.0,4.0,112.0,30.33,2.2178847211198787,2.2472318859365656,0.0360550871999984,太原直送,0.0360550871999984,山西省,太原市,尖草坪区,新城街道,山西省太原市尖草坪区新城街道钢园路19号中国石化销售股份有限公司山西太原石油分公司新城加油站爱心驿站,112.5500533940313,37.9520951435854,177_108,112.55281429443691,37.95195356229368,0.0,8736061870.0,112.5519054,37.9535097,140108219943.0,0,0,110
太原直送,DWLS067,DWLS067,139,140108220085,太原***街分公司,112.541097,37.950991,1.0,4.0,111.0,75.67,2.224466972447107,2.25968412751805,0.0267832918066404,太原直送,0.0267832918066404,山西省,太原市,尖草坪区,新城街道,山西省太原市尖草坪区新城街道迎新东二条太钢一零三小区,112.5347674626654,37.95046427298027,174_108,112.53543550978544,37.95195356229368,2.0,4641654960.0,112.5347429,37.9503936,140108220085.0,0,0,110
太原直送,DWLS067,DWLS067,343,140108220423,太原***有限公司,112.534463,37.960319,1.0,4.0,111.0,25.33,2.21792741896934,2.258488115021416,0.0153955277921879,太原直送,0.0153955277921879,山西省,太原市,尖草坪区,南寨街道,山西省太原市尖草坪区南寨街道迎新北二巷新华小区北区,112.5281127147466,37.959778132426,173_110,112.52964258156828,37.96094677270652,2.0,4226925515.0,112.5275063,37.9597427,140108220423.0,0,0,110
太原直送,DWLS067,DWLS067,436,140108120559,太原***生活超市,112.540674,37.951427,1.0,4.0,111.0,58.0,2.2241983570061805,2.259711457001535,0.0261920105566506,太原直送,0.0261920105566506,山西省,太原市,尖草坪区,新城街道,山西省太原市尖草坪区新城街道迎新南二巷太钢一零三小区,112.53434320899866,37.950899376598,174_108,112.53543550978544,37.95195356229368,2.0,9941724857.0,112.5346841,37.9508403,140108120559.0,0,0,110
太原直送,DWLS067,DWLS067,437,140108120561,太原***汇便利店,112.533298,37.958029,1.0,4.0,111.0,72.33,2.220477017156669,2.2608745002206505,0.0170092745583068,太原直送,0.0170092745583068,山西省,太原市,尖草坪区,南寨街道,山西省太原市尖草坪区南寨街道迎新北一巷新华小区南区,112.52694436647774,37.95748469915621,173_109,112.52964258156828,37.956450167500094,2.0,4226925514.0,112.527586,37.9575033,140108120561.0,0,0,110
太原直送,DWLS067,DWLS067,462,140108120618,太原***烟酒商行,112.542351,37.962747,1.0,4.0,111.0,84.67,2.212974022840756,2.250960625538573,0.0187641621182467,太原直送,0.0187641621182467,山西省,太原市,尖草坪区,新城街道,山西省太原市尖草坪区新城街道迎新北三巷建桥体艺幼儿园,112.53602360837232,37.96222562615566,174_110,112.53543550978544,37.96094677270652,0.0,7895450134.0,112.5370832,37.9621629,140108120618.0,0,0,110
太原直送,DWLS067,DWLS067,485,140108120650,太原***雨阳烟店,112.541082,37.951601,1.0,4.0,111.0,17.0,2.223897423765989,2.259290705892447,0.0262545517006129,太原直送,0.0262545517006129,山西省,太原市,尖草坪区,新城街道,山西省太原市尖草坪区新城街道迎新东二条青山苑小区,112.5347523486909,37.951074364938336,174_108,112.53543550978544,37.95195356229368,2.0,2623882772.0,112.5347334,37.9508439,140108120650.0,0,0,110
太原直送,DWLS067,DWLS067,487,140108120652,太原***生活超市,112.540674,37.951427,1.0,4.0,111.0,29.5,2.2241983570061805,2.259711457001535,0.0261920105566506,太原直送,0.0261920105566506,山西省,太原市,尖草坪区,新城街道,山西省太原市尖草坪区新城街道迎新南二巷太钢一零三小区,112.53434320899866,37.950899376598,174_108,112.53543550978544,37.95195356229368,2.0,9941724857.0,112.5346841,37.9508403,140108120652.0,0,0,110
太原直送,DWLS067,DWLS067,484,140108120688,太原***成便利店,112.54111,37.949144,1.0,4.0,111.0,26.0,2.226202497174506,2.260900186387049,0.0283883759662324,太原直送,0.0283883759662324,山西省,太原市,尖草坪区,新城街道,山西省太原市尖草坪区新城街道迎新东二条凤凰城,112.53478071584571,37.94861691965402,174_107,112.53543550978544,37.94745695708725,2.0,9941742875.0,112.534774,37.9485858,140108120688.0,0,0,110
太原直送,DWLS067,DWLS067,1017,140108120708,太原***韬烟酒店,112.541092,37.950979,1.0,4.0,111.0,46.67,2.224479954593657,2.259695829889497,0.0267910002986122,太原直送,0.0267910002986122,山西省,太原市,尖草坪区,新城街道,山西省太原市尖草坪区新城街道迎新东二条太钢一零三小区,112.534762449898,37.950452258850575,174_108,112.53543550978544,37.95195356229368,2.0,4641654960.0,112.5347429,37.9503936,140108120708.0,0,0,110
太原直送,DWLS067,DWLS067,1015,140108120732,太原***翁食品店,112.541669,37.962784,1.0,4.0,111.0,36.0,2.213169050665809,2.251448122755219,0.0181986993216532,太原直送,0.0181986993216532,山西省,太原市,尖草坪区,新城街道,山西省太原市尖草坪区新城街道迎新北三巷建桥体艺幼儿园,112.53533969592874,37.96226106652961,174_110,112.53543550978544,37.96094677270652,0.0,2623882814.0,112.5343186,37.9621155,140108120732.0,0,0,110
