station_name,line_code,line_name,deliver_no,customer_code,customer_name,longitude,latitude,order_cycle_type,order_weekday,city_village_code,avg_order_qty,distance_to_平城直送,distance_to_灵丘中转站,distance_to_太原直送,nearest_station,distance_to_station,province,city,district,township,full_address,lon_84,lat_84,grid_id,LonGridCenter,LatGridCenter,group,customer_osmid_mapping,OSM_X,OSM_Y,BB_RETAIL_CUSTOMER_CODE,kmeans_cluster,dbscan_label,kmeans_label
太原直送,DWLS052,DWLS052,100,140105119457,经济***意便利店,112.510278,37.828566,1.0,4.0,111.0,77.33,2.350164123470952,2.3650353446925454,0.1463693354292453,太原直送,0.1463693354292453,山西省,太原市,万柏林区,长风西街街道,山西省太原市万柏林区长风西街街道新中巷新庄苑住宅小区,112.50386059422338,37.827933653383504,169_80,112.50647086869964,37.82604861651383,1.0,7689962547.0,112.5025559,37.828265,140105119457.0,0,0,65
太原直送,BWLS011,BWLS011,238,140109100103,太原***军君商店,112.50813,37.824527,1.0,2.0,111.0,22.33,2.354686452274483,2.3693687228069846,0.1506398407626573,太原直送,0.1506398407626573,山西省,太原市,万柏林区,长风西街街道,山西省太原市万柏林区长风西街街道和平南路锅炉厂宿舍,112.50170519696728,37.82388769160104,168_80,112.50067794048248,37.82604861651383,1.0,7840641492.0,112.5015639,37.8239345,140109100103.0,0,0,65
太原直送,BWLS011,BWLS011,240,140109107730,太原***烟酒商店,112.508045,37.824351,1.0,2.0,111.0,22.33,2.354880670118977,2.3695513149870817,0.1508252365090129,太原直送,0.1508252365090129,山西省,太原市,万柏林区,神堂沟街道,山西省太原市万柏林区神堂沟街道和平南路省建六公司宿舍,112.50161990518968,37.82371141328685,168_79,112.50067794048248,37.82155201130741,2.0,7840641492.0,112.5015639,37.8239345,140109107730.0,0,0,65
太原直送,BWLS011,BWLS011,282,140109108372,太原***商浴乐园,112.510125,37.837015,1.0,2.0,111.0,31.67,2.34224351300457,2.359362009714699,0.1380000630724466,太原直送,0.1380000630724466,山西省,太原市,万柏林区,小井峪街道,山西省太原市万柏林区小井峪街道华景苑中国石油和平南路加油站,112.50370603908443,37.83638348843175,169_82,112.50647086869964,37.83504182692668,1.0,7840653423.0,112.502322,37.8355511,140109108372.0,0,0,65
太原直送,BWLS011,BWLS011,373,140109111583,太原***酒茶商行,112.503326,37.825301,1.0,2.0,111.0,94.0,2.355551889089472,2.37233579608705,0.150561818709122,太原直送,0.150561818709122,山西省,太原市,万柏林区,神堂沟街道,山西省太原市万柏林区神堂沟街道义井西路东巷万科蓝山,112.49688335227538,37.824647471477775,167_80,112.49488501226531,37.82604861651383,1.0,7840641470.0,112.4964863,37.8246798,140109111583.0,0,0,65
太原直送,BWLS011,BWLS011,243,140109111792,太原***百货商店,112.508045,37.824351,1.0,2.0,111.0,76.0,2.354880670118977,2.3695513149870817,0.1508252365090129,太原直送,0.1508252365090129,山西省,太原市,万柏林区,神堂沟街道,山西省太原市万柏林区神堂沟街道和平南路省建六公司宿舍,112.50161990518968,37.82371141328685,168_79,112.50067794048248,37.82155201130741,2.0,7840641492.0,112.5015639,37.8239345,140109111792.0,0,0,65
太原直送,BWLS011,BWLS011,207,140109114346,（唐***建欣唐久便利店,112.509402,37.829765,1.0,2.0,111.0,44.67,2.349322833947049,2.3648513904810184,0.1452838035191783,太原直送,0.1452838035191783,山西省,太原市,万柏林区,长风西街街道,山西省太原市万柏林区长风西街街道沙沟南街和平花园,112.5029812478282,37.829130241940376,168_81,112.50067794048248,37.83054522172026,1.0,1904099150.0,112.5027575,37.8291713,140109114346.0,0,0,65
太原直送,BWLS011,BWLS011,262,140109114652,太原***百货超市,112.509395,37.834757,1.0,2.0,111.0,33.33,2.344615794252863,2.361438828291131,0.1403320383946543,太原直送,0.1403320383946543,山西省,太原市,万柏林区,小井峪街道,山西省太原市万柏林区小井峪街道沙沟北街沙沟小区,112.50297363355014,37.83412297992686,168_82,112.50067794048248,37.83504182692668,1.0,7012631132.0,112.5035459,37.8342441,140109114652.0,0,0,65
太原直送,BWLS011,BWLS011,367,140109116622,太原***酒茶商店,112.50583,37.825454,1.0,2.0,111.0,67.0,2.3545747308730696,2.370407063060052,0.1500321415230724,太原直送,0.1500321415230724,山西省,太原市,万柏林区,小井峪街道,山西省太原市万柏林区小井峪街道无念茶空间(万科蓝山二期店)万科蓝山,112.49939660837477,37.824807979034624,168_80,112.50067794048248,37.82604861651383,1.0,7689962561.0,112.4992707,37.8242523,140109116622.0,0,0,65
太原直送,BWLS011,BWLS011,218,140109117268,太原***酒经销部,112.505992,37.839468,1.0,2.0,111.0,98.33,2.341306887840635,2.360705447322258,0.1361516001595289,太原直送,0.1361516001595289,山西省,太原市,万柏林区,小井峪街道,山西省太原市万柏林区小井峪街道郭氏中医按摩十二院城,112.49955755221332,37.83882459397029,168_83,112.50067794048248,37.8395384321331,1.0,7012633395.0,112.4998304,37.8396556,140109117268.0,0,0,65
太原直送,AWLS005,AWLS005,205,140109117950,太原***姐妹商店,112.504606,37.84133,1.0,1.0,111.0,81.0,2.3400154657971823,2.3604494521486816,0.1345396140101494,太原直送,0.1345396140101494,山西省,太原市,万柏林区,小井峪街道,山西省太原市万柏林区小井峪街道光华街光华苑,112.49816620379848,37.84068274806986,168_83,112.50067794048248,37.8395384321331,1.0,7215232962.0,112.4986511,37.8406605,140109117950.0,0,0,65
太原直送,BWLS011,BWLS011,374,140109118709,太原***百货商店,112.502272,37.825516,1.0,2.0,111.0,60.67,2.355700471124881,2.3729566769026724,0.1505211771479322,太原直送,0.1505211771479322,山西省,太原市,万柏林区,小井峪街道,山西省太原市万柏林区小井峪街道义井西路东巷万科蓝山,112.49582541359416,37.82485934651918,167_80,112.49488501226531,37.82604861651383,1.0,7840641470.0,112.4964863,37.8246798,140109118709.0,0,0,65
太原直送,BWLS011,BWLS011,370,140109118860,（唐***中唐久便利店,112.506223,37.824882,1.0,2.0,111.0,55.0,2.354983786501508,2.370513043928248,0.1505427733934731,太原直送,0.1505427733934731,山西省,太原市,万柏林区,神堂沟街道,山西省太原市万柏林区神堂沟街道义井西路东巷锅炉厂宿舍,112.49979112778486,37.82423706727785,168_80,112.50067794048248,37.82604861651383,1.0,7840641489.0,112.4999946,37.8241505,140109118860.0,0,0,65
太原直送,BWLS011,BWLS011,213,140109118900,太原***鲜便利店,112.505552,37.8395,1.0,2.0,111.0,42.0,2.3414237088254657,2.3610053152725023,0.136189541925948,太原直送,0.136189541925948,山西省,太原市,万柏林区,小井峪街道,山西省太原市万柏林区小井峪街道郭氏中医按摩十二院城,112.49911592178724,37.838855285908856,168_83,112.50067794048248,37.8395384321331,1.0,7012633395.0,112.4998304,37.8396556,140109118900.0,0,0,65
太原直送,BWLS011,BWLS011,206,140109119171,太原***酒经销部,112.507541,37.837416,1.0,2.0,111.0,81.67,2.3427247413883263,2.36097442088346,0.1379484078668548,太原直送,0.1379484078668548,山西省,太原市,万柏林区,小井峪街道,山西省太原市万柏林区小井峪街道和平南路139号十二院城,112.50111250901466,37.83677688796425,168_82,112.50067794048248,37.83504182692668,1.0,7840653426.0,112.5008701,37.8355511,140109119171.0,0,0,65
太原直送,BWLS011,BWLS011,241,140109119212,太原***食便利店,112.503869,37.835484,1.0,2.0,111.0,47.0,2.345771252664036,2.3649762160448904,0.1404264165212498,太原直送,0.1404264165212498,山西省,太原市,万柏林区,小井峪街道,山西省太原市万柏林区小井峪街道沙沟北街紫荆假日,112.49742716303788,37.83483363102294,167_82,112.49488501226531,37.83504182692668,1.0,7023513896.0,112.4992385,37.834166,140109119212.0,0,0,65
太原直送,BWLS011,BWLS011,348,140109119354,太原***源烟酒店,112.508901,37.828888,1.0,2.0,111.0,86.67,2.350316308624226,2.3658172310273704,0.1462163420722868,太原直送,0.1462163420722868,山西省,太原市,万柏林区,长风西街街道,山西省太原市万柏林区长风西街街道和平南路华龙苑,112.50247851439262,37.82825162580826,168_80,112.50067794048248,37.82604861651383,1.0,7689962547.0,112.5025559,37.828265,140109119354.0,0,0,65
太原直送,BWLS011,BWLS011,212,140109119395,太原***货便利店,112.510082,37.834588,1.0,2.0,111.0,32.0,2.3445471978721213,2.3610533983451143,0.1404137975627774,太原直送,0.1404137975627774,山西省,太原市,万柏林区,长风西街街道,山西省太原市万柏林区长风西街街道和平南路地矿小区,112.50366316801468,37.833955986590745,169_82,112.50647086869964,37.83504182692668,1.0,7012631132.0,112.5035459,37.8342441,140109119395.0,0,0,65
太原直送,BWLS011,BWLS011,254,140109119418,太原***鲜便利店,112.504054,37.839151,1.0,2.0,111.0,25.67,2.3422535456754026,2.3623388317258813,0.1367806067576813,太原直送,0.1367806067576813,山西省,太原市,万柏林区,小井峪街道,山西省太原市万柏林区小井峪街道光华街131号十二院城,112.49761241556342,37.838501754459614,167_83,112.49488501226531,37.8395384321331,1.0,8510469168.0,112.4961681,37.8400663,140109119418.0,0,0,65
太原直送,BWLS011,BWLS011,302,140109119473,太原***品便利店,112.507568,37.830043,1.0,2.0,111.0,63.0,2.349668989861544,2.3659971782950127,0.1452456044945881,太原直送,0.1452456044945881,山西省,太原市,万柏林区,小井峪街道,山西省太原市万柏林区小井峪街道沙沟南街西部丽景,112.5011404785369,37.82940284025413,168_81,112.50067794048248,37.83054522172026,1.0,7840641501.0,112.5004612,37.8293659,140109119473.0,0,0,65
太原直送,BWLS011,BWLS011,203,140109119523,太原***鲜便利店,112.507046,37.839333,1.0,2.0,111.0,45.0,2.3410823669886063,2.3600271302076115,0.1361241826752269,太原直送,0.1361241826752269,山西省,太原市,万柏林区,小井峪街道,山西省太原市万柏林区小井峪街道十二院城兰院,112.50061545874,37.838692714164914,168_83,112.50067794048248,37.8395384321331,1.0,8510469162.0,112.5015808,37.839435,140109119523.0,0,0,65
太原直送,BWLS011,BWLS011,341,140109119526,太原***烟酒商行,112.505423,37.830284,1.0,2.0,111.0,77.33,2.350154978809059,2.367395975078529,0.1453141602907307,太原直送,0.1453141602907307,山西省,太原市,万柏林区,小井峪街道,山西省太原市万柏林区小井峪街道沙沟南街西部丽景,112.49898753323492,37.82963748348392,168_81,112.50067794048248,37.83054522172026,1.0,7023502549.0,112.4982548,37.8296363,140109119526.0,0,0,65
太原直送,BWLS011,BWLS011,296,140109119535,（金***兰金虎便利店,112.508524,37.832006,1.0,2.0,111.0,48.33,2.347499925425772,2.363956439756244,0.1431725788340764,太原直送,0.1431725788340764,山西省,太原市,万柏林区,小井峪街道,山西省太原市万柏林区小井峪街道沙沟中街圣心苑,112.5020997626956,37.83136897739515,168_81,112.50067794048248,37.83054522172026,1.0,11036945415.0,112.5028956,37.8312266,140109119535.0,0,0,65
太原直送,BWLS011,BWLS011,387,140109119661,太原***货便利店,112.501161,37.825667,1.0,2.0,111.0,35.67,2.355928895494936,2.3736632432013174,0.1505611291137221,太原直送,0.1505611291137221,山西省,太原市,万柏林区,小井峪街道,山西省太原市万柏林区小井峪街道义井西路东巷吉民综合市场,112.49471026668904,37.82500703919219,167_80,112.49488501226531,37.82604861651383,1.0,7840641476.0,112.4934964,37.8250608,140109119661.0,0,0,65
太原直送,BWLS011,BWLS011,372,140109119679,太原***烟酒商行,112.502892,37.825401,1.0,2.0,111.0,28.33,2.35560219667774,2.372583558476284,0.1505328355044161,太原直送,0.1505328355044161,山西省,太原市,万柏林区,小井峪街道,山西省太原市万柏林区小井峪街道义井西路东巷万科蓝山,112.49644772965736,37.824746186731865,167_80,112.49488501226531,37.82604861651383,1.0,7840641470.0,112.4964863,37.8246798,140109119679.0,0,0,65
太原直送,BWLS011,BWLS011,215,140109119733,太原***生鲜超市,112.505552,37.8395,1.0,2.0,111.0,60.67,2.3414237088254657,2.3610053152725023,0.136189541925948,太原直送,0.136189541925948,山西省,太原市,万柏林区,小井峪街道,山西省太原市万柏林区小井峪街道郭氏中医按摩十二院城,112.49911592178724,37.838855285908856,168_83,112.50067794048248,37.8395384321331,1.0,7012633395.0,112.4998304,37.8396556,140109119733.0,0,0,65
太原直送,BWLS011,BWLS011,322,140109119746,太原***酒便利店,112.503202,37.830643,1.0,2.0,111.0,23.67,2.350556988095584,2.368770696861978,0.1453109296680704,太原直送,0.1453109296680704,山西省,太原市,万柏林区,小井峪街道,山西省太原市万柏林区小井峪街道恒大雅苑北区(南门),112.49675826073678,37.829989896246026,167_81,112.49488501226531,37.83054522172026,1.0,7023502549.0,112.4982548,37.8296363,140109119746.0,0,0,65
太原直送,BWLS011,BWLS011,388,140109119833,太原***族副食店,112.501086,37.825404,1.0,2.0,111.0,42.67,2.356201843296537,2.3738979222765653,0.1508331573958452,太原直送,0.1508331573958452,山西省,太原市,万柏林区,神堂沟街道,山西省太原市万柏林区神堂沟街道诺思达成长中心怡林苑,112.49463501894094,37.82474377563096,167_80,112.49488501226531,37.82604861651383,1.0,7840641476.0,112.4934964,37.8250608,140109119833.0,0,0,65
太原直送,BWLS011,BWLS011,195,140109119836,太原***烟酒商行,112.502948,37.832756,1.0,2.0,111.0,84.0,2.34865019557404,2.367512054530023,0.143270541263717,太原直送,0.143270541263717,山西省,太原市,万柏林区,小井峪街道,山西省太原市万柏林区小井峪街道沙沟中街香悦澜溪,112.49650306809455,37.83210245606429,167_81,112.49488501226531,37.83054522172026,1.0,5764445980.0,112.4949339,37.8322968,140109119836.0,0,0,65
太原直送,BWLS011,BWLS011,309,140109119939,太原***烟酒商行,112.50516,37.830309,1.0,2.0,111.0,88.67,2.3502189852439264,2.367570673547039,0.1453292663058596,太原直送,0.1453292663058596,山西省,太原市,万柏林区,小井峪街道,山西省太原市万柏林区小井峪街道沙沟南街西部丽景,112.49872355723814,37.82966170179832,168_81,112.50067794048248,37.83054522172026,1.0,7023502549.0,112.4982548,37.8296363,140109119939.0,0,0,65
太原直送,BWLS011,BWLS011,292,140109119964,太原***酒便利店,112.507835,37.83212,1.0,2.0,111.0,50.0,2.3476212449875686,2.364380760784942,0.1431515878116573,太原直送,0.1431515878116573,山西省,太原市,万柏林区,小井峪街道,山西省太原市万柏林区小井峪街道沙沟中街恒实天和福地,112.501408216245,37.83148094816578,168_81,112.50067794048248,37.83054522172026,1.0,11036945415.0,112.5028956,37.8312266,140109119964.0,0,0,65
太原直送,BWLS011,BWLS011,318,140109120007,太原***食便利店,112.503148,37.830736,1.0,2.0,111.0,84.0,2.350487352208047,2.3687465243847856,0.145228185535726,太原直送,0.145228185535726,山西省,太原市,万柏林区,小井峪街道,山西省太原市万柏林区小井峪街道恒大雅苑北区(南门),112.49670404932226,37.83008274860606,167_81,112.49488501226531,37.83054522172026,1.0,7023502549.0,112.4982548,37.8296363,140109120007.0,0,0,65
太原直送,BWLS011,BWLS011,210,140109120045,太原***烟酒商行,112.506389,37.835306,1.0,2.0,111.0,96.67,2.345098006107418,2.3632571899245303,0.1402041190015431,太原直送,0.1402041190015431,山西省,太原市,万柏林区,小井峪街道,山西省太原市万柏林区小井峪街道沙沟北街十二院城,112.49995651014942,37.83466313079664,168_82,112.50067794048248,37.83504182692668,1.0,7012633349.0,112.5006916,37.8345789,140109120045.0,0,0,65
太原直送,BWLS011,BWLS011,189,140109120082,太原***子烟酒店,112.502761,37.832801,1.0,2.0,111.0,77.67,2.348670289803992,2.367617878822712,0.1432580999036294,太原直送,0.1432580999036294,山西省,太原市,万柏林区,小井峪街道,山西省太原市万柏林区小井峪街道沙沟中街香悦澜溪,112.49631536845014,37.83214690289681,167_81,112.49488501226531,37.83054522172026,1.0,5764445980.0,112.4949339,37.8322968,140109120082.0,0,0,65
太原直送,BWLS011,BWLS011,326,140109120099,太原***华烟酒行,112.502925,37.831209,1.0,2.0,111.0,18.67,2.3501159758309766,2.368585955709645,0.1447991511715417,太原直送,0.1447991511715417,山西省,太原市,万柏林区,小井峪街道,山西省太原市万柏林区小井峪街道义井西路46号恒大雅苑北区,112.49648016560396,37.83055515234389,167_81,112.49488501226531,37.83054522172026,1.0,7023502549.0,112.4982548,37.8296363,140109120099.0,0,0,65
太原直送,BWLS011,BWLS011,231,140109120102,（金***杰金虎便利店,112.503004,37.832781,1.0,2.0,111.0,35.33,2.348607917394685,2.367454080467029,0.1432363981849592,太原直送,0.1432363981849592,山西省,太原市,万柏林区,小井峪街道,山西省太原市万柏林区小井峪街道沙沟中街香悦澜溪,112.49655927303652,37.83212762756408,167_81,112.49488501226531,37.83054522172026,1.0,5764445980.0,112.4949339,37.8322968,140109120102.0,0,0,65
太原直送,BWLS011,BWLS011,278,140109120234,太原***食便利店,112.510446,37.83757,1.0,2.0,111.0,47.0,2.341613415406137,2.35874830670612,0.1374096668287921,太原直送,0.1374096668287921,山西省,太原市,万柏林区,小井峪街道,山西省太原市万柏林区小井峪街道和平南路和平里,112.50402814658422,37.83693952297426,169_82,112.50647086869964,37.83504182692668,1.0,7840653418.0,112.5043529,37.8384815,140109120234.0,0,0,65
太原直送,BWLS011,BWLS011,197,140109120261,太原***百货商行,112.505007,37.83245,1.0,2.0,111.0,74.33,2.348251333184968,2.366218031612888,0.1432373374682693,太原直送,0.1432373374682693,山西省,太原市,万柏林区,小井峪街道,山西省太原市万柏林区小井峪街道沙沟中街便民地面停车场,112.49856973805969,37.831802568843706,168_81,112.50067794048248,37.83054522172026,1.0,11036945414.0,112.4987781,37.8317445,140109120261.0,0,0,65
太原直送,BWLS011,BWLS011,230,140109120366,太原***烟酒商行,112.500669,37.83582,1.0,2.0,111.0,81.0,2.3465262149486,2.3670861947419644,0.1406655626121758,太原直送,0.1406655626121758,山西省,太原市,万柏林区,小井峪街道,山西省太原市万柏林区小井峪街道西中环路辅路,112.49421523573687,37.83516009672836,167_82,112.49488501226531,37.83504182692668,1.0,12231356903.0,112.4945767,37.8352024,140109120366.0,0,0,65
太原直送,BWLS011,BWLS011,208,140109120395,太原***烟酒商行,112.509402,37.829765,1.0,2.0,111.0,38.0,2.349322833947049,2.3648513904810184,0.1452838035191783,太原直送,0.1452838035191783,山西省,太原市,万柏林区,长风西街街道,山西省太原市万柏林区长风西街街道沙沟南街和平花园,112.5029812478282,37.829130241940376,168_81,112.50067794048248,37.83054522172026,1.0,1904099150.0,112.5027575,37.8291713,140109120395.0,0,0,65
太原直送,BWLS011,BWLS011,307,140109120427,太原***货经销部,112.505195,37.830313,1.0,2.0,111.0,49.0,2.350203556948208,2.3675424107578307,0.1453199865951014,太原直送,0.1453199865951014,山西省,太原市,万柏林区,小井峪街道,山西省太原市万柏林区小井峪街道沙沟南街西部丽景,112.49875868628462,37.82966580694614,168_81,112.50067794048248,37.83054522172026,1.0,7023502549.0,112.4982548,37.8296363,140109120427.0,0,0,65
太原直送,BWLS011,BWLS011,257,140109120462,太原***冉零食店,112.503703,37.838178,1.0,2.0,111.0,43.0,2.3432879071247297,2.363259134248716,0.1377992138039972,太原直送,0.1377992138039972,山西省,太原市,万柏林区,小井峪街道,山西省太原市万柏林区小井峪街道啾啾麻辣串(十二院城店)十二院城,112.4972602288974,37.837527552186565,167_83,112.49488501226531,37.8395384321331,1.0,7012633398.0,112.4991037,37.835833,140109120462.0,0,0,65
太原直送,BWLS011,BWLS011,360,140109120526,太原***鲜便利店,112.503317,37.827792,1.0,2.0,111.0,30.0,2.353206274152989,2.37063694299781,0.1481045690618594,太原直送,0.1481045690618594,山西省,太原市,万柏林区,小井峪街道,山西省太原市万柏林区小井峪街道新义街万科蓝山,112.4968740244902,37.827138813209146,167_80,112.49488501226531,37.82604861651383,1.0,7840641485.0,112.4970871,37.8271096,140109120526.0,0,0,65
太原直送,BWLS011,BWLS011,389,140109120559,太原***西环超市,112.500562,37.825702,1.0,2.0,111.0,22.0,2.3560960075977366,2.3740760804618257,0.1506318042180983,太原直送,0.1506318042180983,山西省,太原市,万柏林区,神堂沟街道,山西省太原市万柏林区神堂沟街道义井西路东巷吉民综合市场,112.49410903508524,37.82504024862963,167_80,112.49488501226531,37.82604861651383,1.0,7840641476.0,112.4934964,37.8250608,140109120559.0,0,0,65
太原直送,BWLS011,BWLS011,267,140109120565,太原***食便利店,112.510055,37.834184,1.0,2.0,111.0,27.0,2.344937276888446,2.361349540887585,0.1408180624955465,太原直送,0.1408180624955465,山西省,太原市,万柏林区,长风西街街道,山西省太原市万柏林区长风西街街道和平南路逸宸·新境界,112.50363611692072,37.83355184478634,169_82,112.50647086869964,37.83504182692668,1.0,7689962552.0,112.5035257,37.8333869,140109120565.0,0,0,65
太原直送,BWLS011,BWLS011,255,140109120580,太原***立芹超市,112.504051,37.839147,1.0,2.0,111.0,23.33,2.3422583190092428,2.362343753716844,0.1367850583214417,太原直送,0.1367850583214417,山西省,太原市,万柏林区,小井峪街道,山西省太原市万柏林区小井峪街道光华街131号十二院城,112.49760940491336,37.838497744859,167_83,112.49488501226531,37.8395384321331,1.0,8510469168.0,112.4961681,37.8400663,140109120580.0,0,0,65
太原直送,BWLS011,BWLS011,260,140109120617,太原***鑫百货店,112.50928,37.834852,1.0,2.0,111.0,51.0,2.3445643733218327,2.361457729971254,0.1402525381232012,太原直送,0.1402525381232012,山西省,太原市,万柏林区,小井峪街道,山西省太原市万柏林区小井峪街道沙沟北街沙沟小区,112.50285820091416,37.834217653913655,168_82,112.50067794048248,37.83504182692668,1.0,7012631132.0,112.5035459,37.8342441,140109120617.0,0,0,65
太原直送,BWLS011,BWLS011,209,140109120622,太原***生活超市,112.507893,37.837117,1.0,2.0,111.0,20.67,2.342889453235044,2.3609216218860403,0.1381944799042276,太原直送,0.1381944799042276,山西省,太原市,万柏林区,小井峪街道,山西省太原市万柏林区小井峪街道和平南路128号十二院城,112.5014658400022,37.83647888812503,168_82,112.50067794048248,37.83504182692668,1.0,7840653426.0,112.5008701,37.8355511,140109120622.0,0,0,65
太原直送,BWLS011,BWLS011,232,140109120697,太原***食便利店,112.503087,37.832902,1.0,2.0,111.0,45.0,2.3484661363309067,2.367310805903193,0.1431030891245912,太原直送,0.1431030891245912,山西省,太原市,万柏林区,小井峪街道,山西省太原市万柏林区小井峪街道沙沟中街香悦澜溪,112.49664256684096,37.83224889453196,167_81,112.49488501226531,37.83054522172026,1.0,5764445980.0,112.4949339,37.8322968,140109120697.0,0,0,65
太原直送,BWLS011,BWLS011,306,140109120719,太原***生鲜超市,112.505234,37.830305,1.0,2.0,111.0,63.0,2.3501981119814093,2.367519441184798,0.1453219684872136,太原直送,0.1453219684872136,山西省,太原市,万柏林区,小井峪街道,山西省太原市万柏林区小井峪街道沙沟南街西部丽景,112.49879783154114,37.829657922228016,168_81,112.50067794048248,37.83054522172026,1.0,7023502549.0,112.4982548,37.8296363,140109120719.0,0,0,65
太原直送,BWLS011,BWLS011,363,140109120720,太原***烟酒商行,112.506298,37.827341,1.0,2.0,111.0,63.33,2.3526394240055164,2.368773161723173,0.1480977259413539,太原直送,0.1480977259413539,山西省,太原市,万柏林区,小井峪街道,山西省太原市万柏林区小井峪街道新义街万科蓝山,112.4998661144858,37.82669665408516,168_80,112.50067794048248,37.82604861651383,1.0,7689962557.0,112.499882,37.8267303,140109120720.0,0,0,65
太原直送,BWLS011,BWLS011,365,140109120760,（金***山金虎便利店,112.506037,37.826426,1.0,2.0,111.0,31.67,2.353589163450791,2.3695901893454017,0.1490405408773059,太原直送,0.1490405408773059,山西省,太原市,万柏林区,小井峪街道,山西省太原市万柏林区小井峪街道和平南路207号万科蓝山,112.49960425851596,37.825780740058725,168_80,112.50067794048248,37.82604861651383,1.0,7689962558.0,112.4998445,37.8265982,140109120760.0,0,0,65
太原直送,BWLS011,BWLS011,364,140109120797,太原***烟酒商行,112.502869,37.827775,1.0,2.0,111.0,95.33,2.353371707800529,2.370975256111495,0.1481945208163871,太原直送,0.1481945208163871,山西省,太原市,万柏林区,小井峪街道,山西省太原市万柏林区小井峪街道新义街万科蓝山,112.49642436365464,37.82712046928207,167_80,112.49488501226531,37.82604861651383,1.0,7840641484.0,112.4970603,37.8269993,140109120797.0,0,0,65
太原直送,BWLS011,BWLS011,358,140109120834,太原***烟酒商行,112.50633,37.827367,1.0,2.0,111.0,60.0,2.3526042696477827,2.3687320386687825,0.1480674547123662,太原直送,0.1480674547123662,山西省,太原市,万柏林区,小井峪街道,山西省太原市万柏林区小井峪街道新义街万科蓝山,112.499898229571,37.82672275335835,168_80,112.50067794048248,37.82604861651383,1.0,7689962557.0,112.499882,37.8267303,140109120834.0,0,0,65
太原直送,BWLS011,BWLS011,228,140109120859,太原***食便利店,112.503535,37.832715,1.0,2.0,111.0,82.0,2.348492720412817,2.367111433449003,0.1432123966282232,太原直送,0.1432123966282232,山西省,太原市,万柏林区,小井峪街道,山西省太原市万柏林区小井峪街道沙沟中街香悦澜溪,112.49709225146836,37.83206320716996,167_81,112.49488501226531,37.83054522172026,1.0,11036945414.0,112.4987781,37.8317445,140109120859.0,0,0,65
太原直送,AWLS005,AWLS005,206,140109120868,太原***鲜便利店,112.499845,37.831041,1.0,1.0,111.0,46.0,2.351304829867878,2.3709498607471686,0.1455141721895163,太原直送,0.1455141721895163,山西省,太原市,万柏林区,小井峪街道,山西省太原市万柏林区小井峪街道西中环路太化·紫景天城,112.4933887361258,37.83037789602572,167_81,112.49488501226531,37.83054522172026,1.0,7012631162.0,112.4940606,37.8301564,140109120868.0,0,0,65
太原直送,BWLS011,BWLS011,361,140109120898,太原***烟酒商行,112.503528,37.827701,1.0,2.0,111.0,86.33,2.353221727985912,2.3705453767435016,0.148160378607103,太原直送,0.148160378607103,山西省,太原市,万柏林区,小井峪街道,山西省太原市万柏林区小井峪街道新义街万科蓝山,112.4970858181033,37.8270484312496,167_80,112.49488501226531,37.82604861651383,1.0,7840641484.0,112.4970603,37.8269993,140109120898.0,0,0,65
太原直送,BWLS011,BWLS011,244,140109120905,太原***烟酒商行,112.503531,37.836667,1.0,2.0,111.0,71.67,2.3447693677647723,2.3644157586864907,0.1393173816147871,太原直送,0.1393173816147871,山西省,太原市,万柏林区,小井峪街道,山西省太原市万柏林区小井峪街道十二院城锦院,112.4970877694508,37.83601580246533,167_82,112.49488501226531,37.83504182692668,1.0,7012633398.0,112.4991037,37.835833,140109120905.0,0,0,65
太原直送,BWLS011,BWLS011,200,140109120927,太原***酒便利店,112.505938,37.83947,1.0,2.0,111.0,49.0,2.3413230374047065,2.3607435618323724,0.1361580836895112,太原直送,0.1361580836895112,山西省,太原市,万柏林区,小井峪街道,山西省太原市万柏林区小井峪街道郭氏中医按摩十二院城,112.49950335241827,37.83882643318368,168_83,112.50067794048248,37.8395384321331,1.0,7012633395.0,112.4998304,37.8396556,140109120927.0,0,0,65
太原直送,BWLS011,BWLS011,202,140109120936,太原***顺便利店,112.509302,37.828768,1.0,2.0,111.0,58.0,2.35029665191652,2.3656074525662505,0.14628553143083,太原直送,0.14628553143083,山西省,太原市,万柏林区,长风西街街道,山西省太原市万柏林区长风西街街道新中巷和平花园,112.50288099895565,37.82813279630083,168_80,112.50067794048248,37.82604861651383,1.0,7689962547.0,112.5025559,37.828265,140109120936.0,0,0,65
太原直送,AWLS005,AWLS005,192,140109120955,太原***烟酒商行,112.499894,37.831034,1.0,1.0,112.0,59.33,2.3512950026421584,2.370918845707924,0.1455118121734417,太原直送,0.1455118121734417,山西省,太原市,万柏林区,小井峪街道,山西省太原市万柏林区小井峪街道西中环路太化·紫景天城,112.4934379192522,37.83037104187809,167_81,112.49488501226531,37.83054522172026,1.0,7012631162.0,112.4940606,37.8301564,140109120955.0,0,0,65
太原直送,BWLS011,BWLS011,359,140109120987,（唐***唐久便利店,112.506363,37.827379,1.0,2.0,111.0,72.33,2.352581988160243,2.3686997783030703,0.1480509067719603,太原直送,0.1480509067719603,山西省,太原市,万柏林区,小井峪街道,山西省太原市万柏林区小井峪街道新义街万科蓝山,112.4999313499928,37.826734853527626,168_80,112.50067794048248,37.82604861651383,1.0,7689962557.0,112.499882,37.8267303,140109120987.0,0,0,65
太原直送,BWLS011,BWLS011,332,140109120988,太原***酒便利店,112.504081,37.830446,1.0,2.0,111.0,59.33,2.350449412132281,2.3682640261393977,0.1453622576633942,太原直送,0.1453622576633942,山西省,太原市,万柏林区,小井峪街道,山西省太原市万柏林区小井峪街道沙沟南街恒大雅苑,112.49764054448212,37.829795497053134,167_81,112.49488501226531,37.83054522172026,1.0,7023502549.0,112.4982548,37.8296363,140109120988.0,0,0,65
太原直送,AWLS005,AWLS005,204,140109120995,太原***烟酒商行,112.498628,37.833451,1.0,1.0,112.0,48.0,2.349442924474867,2.370194559967602,0.1433864857265172,太原直送,0.1433864857265172,山西省,太原市,万柏林区,小井峪街道,山西省太原市万柏林区小井峪街道大井峪街公园美地,112.49216692261412,37.832784613905176,167_81,112.49488501226531,37.83054522172026,1.0,5764445983.0,112.49383,37.8324377,140109120995.0,0,0,65
太原直送,BWLS011,BWLS011,376,140109121009,（唐***福唐久便利店,112.503368,37.827533,1.0,2.0,111.0,47.67,2.353433454027752,2.3707770133186297,0.1483519252487108,太原直送,0.1483519252487108,山西省,太原市,万柏林区,小井峪街道,山西省太原市万柏林区小井峪街道新义街万科蓝山,112.49692524434086,37.82687992734175,167_80,112.49488501226531,37.82604861651383,1.0,7840641484.0,112.4970603,37.8269993,140109121009.0,0,0,65
太原直送,BWLS011,BWLS011,330,140109121046,太原***顺便利店,112.503166,37.830606,1.0,2.0,111.0,57.33,2.3506038837069063,2.368822265190237,0.1453533890144946,太原直送,0.1453533890144946,山西省,太原市,万柏林区,小井峪街道,山西省太原市万柏林区小井峪街道沙沟南街恒大雅苑,112.49672213149805,37.82995278288168,167_81,112.49488501226531,37.83054522172026,1.0,7023502549.0,112.4982548,37.8296363,140109121046.0,0,0,65
太原直送,BWLS011,BWLS011,368,140109121054,太原***食品超市,112.505826,37.825049,1.0,2.0,111.0,59.33,2.354958069454528,2.370687581745852,0.1504335578419908,太原直送,0.1504335578419908,山西省,太原市,万柏林区,小井峪街道,山西省太原市万柏林区小井峪街道义井西路东巷万科蓝山,112.49939264140252,37.8244029075317,168_80,112.50067794048248,37.82604861651383,1.0,7689962561.0,112.4992707,37.8242523,140109121054.0,0,0,65
太原直送,BWLS011,BWLS011,239,140109121063,太原***百货超市,112.503857,37.835533,1.0,2.0,111.0,48.67,2.3457290816631,2.36495153040755,0.1403801061261896,太原直送,0.1403801061261896,山西省,太原市,万柏林区,小井峪街道,山西省太原市万柏林区小井峪街道沙沟北街紫荆假日,112.4974151127446,37.8348826026762,167_82,112.49488501226531,37.83504182692668,1.0,7012633398.0,112.4991037,37.835833,140109121063.0,0,0,65
太原直送,BWLS011,BWLS011,334,140109121069,太原***烟酒商行,112.504507,37.830364,1.0,2.0,111.0,54.67,2.350384694859328,2.3680093398654427,0.1453758268660871,太原直送,0.1453758268660871,山西省,太原市,万柏林区,小井峪街道,山西省太原市万柏林区小井峪街道沙沟南街恒大雅苑,112.4980681328768,37.82971475864216,168_81,112.50067794048248,37.83054522172026,1.0,7023502549.0,112.4982548,37.8296363,140109121069.0,0,0,65
太原直送,BWLS011,BWLS011,221,140109121070,太原***烟酒商行,112.505938,37.83947,1.0,2.0,111.0,62.67,2.3413230374047065,2.3607435618323724,0.1361580836895112,太原直送,0.1361580836895112,山西省,太原市,万柏林区,小井峪街道,山西省太原市万柏林区小井峪街道郭氏中医按摩十二院城,112.49950335241827,37.83882643318368,168_83,112.50067794048248,37.8395384321331,1.0,7012633395.0,112.4998304,37.8396556,140109121070.0,0,0,65
太原直送,BWLS011,BWLS011,251,140109121144,太原***叶经销部,112.502914,37.839761,1.0,2.0,111.0,91.33,2.3420605781595354,2.362756961437204,0.1363786814901751,太原直送,0.1363786814901751,山西省,太原市,万柏林区,小井峪街道,山西省太原市万柏林区小井峪街道光华街115号十二院城,112.4964681135143,37.839108438059,167_83,112.49488501226531,37.8395384321331,1.0,8510469168.0,112.4961681,37.8400663,140109121144.0,0,0,65
太原直送,BWLS011,BWLS011,375,140109121145,太原***沐烟酒店,112.503168,37.826048,1.0,2.0,111.0,66.33,2.354900203338135,2.3719393814313605,0.1498497469133645,太原直送,0.1498497469133645,山西省,太原市,万柏林区,小井峪街道,山西省太原市万柏林区小井峪街道安妮贝可生日蛋糕(万科蓝山店)万科蓝山,112.49672467766722,37.825394108554505,167_80,112.49488501226531,37.82604861651383,1.0,7840641470.0,112.4964863,37.8246798,140109121145.0,0,0,65
太原直送,BWLS011,BWLS011,354,140109121166,太原***烟酒商行,112.507035,37.82741,1.0,2.0,111.0,96.0,2.352329587791003,2.368189053224,0.1479266935106688,太原直送,0.1479266935106688,山西省,太原市,万柏林区,小井峪街道,山西省太原市万柏林区小井峪街道和平南路205-1号万科蓝山,112.5006058255162,37.826767860339984,168_80,112.50067794048248,37.82604861651383,1.0,7689962557.0,112.499882,37.8267303,140109121166.0,0,0,65
太原直送,BWLS011,BWLS011,246,140109121193,太原***源便利店,112.503579,37.83661,1.0,2.0,111.0,30.33,2.3448070276722115,2.364419569352695,0.1393653711830862,太原直送,0.1393653711830862,山西省,太原市,万柏林区,小井峪街道,山西省太原市万柏林区小井峪街道十二院城锦院,112.49713595427131,37.83595893729064,167_82,112.49488501226531,37.83504182692668,1.0,7012633398.0,112.4991037,37.835833,140109121193.0,0,0,65
太原直送,BWLS011,BWLS011,336,140109121205,太原***货便利店,112.503195,37.830502,1.0,2.0,111.0,79.0,2.350692236173203,2.3688722069765533,0.1454511398545867,太原直送,0.1454511398545867,山西省,太原市,万柏林区,小井峪街道,山西省太原市万柏林区小井峪街道沙沟南街恒大雅苑,112.4967512514244,37.8298488540216,167_81,112.49488501226531,37.83054522172026,1.0,7023502549.0,112.4982548,37.8296363,140109121205.0,0,0,65
太原直送,BWLS011,BWLS011,366,140109121272,太原***烟酒商行,112.50583,37.825454,1.0,2.0,111.0,64.67,2.3545747308730696,2.370407063060052,0.1500321415230724,太原直送,0.1500321415230724,山西省,太原市,万柏林区,小井峪街道,山西省太原市万柏林区小井峪街道无念茶空间(万科蓝山二期店)万科蓝山,112.49939660837477,37.824807979034624,168_80,112.50067794048248,37.82604861651383,1.0,7689962561.0,112.4992707,37.8242523,140109121272.0,0,0,65
太原直送,BWLS011,BWLS011,285,140109121287,(唐***东灵唐久便利店,112.504057,37.832605,1.0,2.0,111.0,66.67,2.348422120369331,2.3668054985116496,0.1432352677939311,太原直送,0.1432352677939311,山西省,太原市,万柏林区,小井峪街道,山西省太原市万柏林区小井峪街道沙沟中街香悦澜溪,112.49761620038014,37.83195475232727,167_81,112.49488501226531,37.83054522172026,1.0,11036945414.0,112.4987781,37.8317445,140109121287.0,0,0,65
太原直送,BWLS011,BWLS011,248,140109121292,太原***原便利店,112.502847,37.839735,1.0,2.0,111.0,67.0,2.342107531442569,2.362823709980284,0.1364162533571427,太原直送,0.1364162533571427,山西省,太原市,万柏林区,小井峪街道,山西省太原市万柏林区小井峪街道光华街115号十二院城,112.49640086780508,37.83908223333001,167_83,112.49488501226531,37.8395384321331,1.0,8510469168.0,112.4961681,37.8400663,140109121292.0,0,0,65
太原直送,BWLS011,BWLS011,290,140109121356,（金***玲金虎便利店,112.50634,37.83226,1.0,2.0,111.0,52.0,2.3479864142882114,2.365375334788333,0.1432239529478235,太原直送,0.1432239529478235,山西省,太原市,万柏林区,小井峪街道,山西省太原市万柏林区小井峪街道沙沟中街西部丽景,112.4999076888706,37.83161651855912,168_81,112.50067794048248,37.83054522172026,1.0,7023514012.0,112.4988053,37.8318542,140109121356.0,0,0,65
太原直送,BWLS011,BWLS011,265,140109121358,太原***品便利店,112.510064,37.834257,1.0,2.0,111.0,23.0,2.3448654248141816,2.361293022423094,0.1407445097934528,太原直送,0.1407445097934528,山西省,太原市,万柏林区,长风西街街道,山西省太原市万柏林区长风西街街道和平南路逸宸·新境界,112.50364514122305,37.83362488258442,169_82,112.50647086869964,37.83504182692668,1.0,7689962552.0,112.5035257,37.8333869,140109121358.0,0,0,65
太原直送,BWLS011,BWLS011,250,140109121361,太原***鲜便利店,112.508696,37.826897,1.0,2.0,111.0,22.67,2.35226275736215,2.3673312843790963,0.1482173219465215,太原直送,0.1482173219465215,山西省,太原市,万柏林区,长风西街街道,山西省太原市万柏林区长风西街街道和平南路山西省中医院和平分院,112.50227299682588,37.82625972123455,168_80,112.50067794048248,37.82604861651383,1.0,5764439095.0,112.5021985,37.8262593,140109121361.0,0,0,65
太原直送,BWLS011,BWLS011,312,140109121365,太原***鲜便利店,112.504874,37.830841,1.0,2.0,111.0,22.67,2.349812654083086,2.367415350887966,0.1448474851870051,太原直送,0.1448474851870051,山西省,太原市,万柏林区,小井峪街道,山西省太原市万柏林区小井峪街道沙沟西路西部丽景,112.49843643574631,37.830192927561406,168_81,112.50067794048248,37.83054522172026,1.0,7023502549.0,112.4982548,37.8296363,140109121365.0,0,0,65
太原直送,BWLS011,BWLS011,369,140109121377,太原***大罐酒坊,112.505826,37.825049,1.0,2.0,111.0,89.67,2.354958069454528,2.370687581745852,0.1504335578419908,太原直送,0.1504335578419908,山西省,太原市,万柏林区,小井峪街道,山西省太原市万柏林区小井峪街道义井西路东巷万科蓝山,112.49939264140252,37.8244029075317,168_80,112.50067794048248,37.82604861651383,1.0,7689962561.0,112.4992707,37.8242523,140109121377.0,0,0,65
太原直送,BWLS011,BWLS011,385,140109121381,太原***敏便利店,112.501161,37.825667,1.0,2.0,111.0,33.67,2.355928895494936,2.3736632432013174,0.1505611291137221,太原直送,0.1505611291137221,山西省,太原市,万柏林区,小井峪街道,山西省太原市万柏林区小井峪街道义井西路东巷吉民综合市场,112.49471026668904,37.82500703919219,167_80,112.49488501226531,37.82604861651383,1.0,7840641476.0,112.4934964,37.8250608,140109121381.0,0,0,65
太原直送,BWLS011,BWLS011,300,140109121405,太原***烟酒商行,112.507938,37.829957,1.0,2.0,111.0,55.33,2.349627259482874,2.3657864358906124,0.1452810525189009,太原直送,0.1452810525189009,山西省,太原市,万柏林区,小井峪街道,山西省太原市万柏林区小井峪街道沙沟南街西部丽景,112.50151185038663,37.8293179273812,168_81,112.50067794048248,37.83054522172026,1.0,7840641501.0,112.5004612,37.8293659,140109121405.0,0,0,65
太原直送,AWLS005,AWLS005,209,140109121427,（唐***轩唐久便利店,112.499946,37.831002,1.0,1.0,111.0,55.67,2.3513077254536494,2.370902712707761,0.1455334596922661,太原直送,0.1455334596922661,山西省,太原市,万柏林区,小井峪街道,山西省太原市万柏林区小井峪街道西中环路太化·紫景天城,112.49349011649636,37.83033919294669,167_81,112.49488501226531,37.83054522172026,1.0,7012631162.0,112.4940606,37.8301564,140109121427.0,0,0,65
太原直送,BWLS011,BWLS011,235,140109121429,太原***宁便利店,112.503266,37.835775,1.0,2.0,111.0,57.33,2.3456986266195856,2.36521821385343,0.1402415521626891,太原直送,0.1402415521626891,山西省,太原市,万柏林区,小井峪街道,山西省太原市万柏林区小井峪街道沙沟北街十二院城,112.49682189155948,37.83512287123364,167_82,112.49488501226531,37.83504182692668,1.0,7012633364.0,112.495215,37.8339125,140109121429.0,0,0,65
太原直送,BWLS011,BWLS011,316,140109121447,太原***百货商行,112.504428,37.830395,1.0,2.0,111.0,48.0,2.350381800362864,2.368045763761327,0.1453576159992951,太原直送,0.1453576159992951,山西省,太原市,万柏林区,小井峪街道,山西省太原市万柏林区小井峪街道沙沟南街恒大雅苑,112.49798883652689,37.82974552711477,168_81,112.50067794048248,37.83054522172026,1.0,7023502549.0,112.4982548,37.8296363,140109121447.0,0,0,65
太原直送,BWLS011,BWLS011,345,140109121464,（金***艳金虎便利店,112.508901,37.828888,1.0,2.0,111.0,42.33,2.350316308624226,2.3658172310273704,0.1462163420722868,太原直送,0.1462163420722868,山西省,太原市,万柏林区,长风西街街道,山西省太原市万柏林区长风西街街道和平南路华龙苑,112.50247851439262,37.82825162580826,168_80,112.50067794048248,37.82604861651383,1.0,7689962547.0,112.5025559,37.828265,140109121464.0,0,0,65
太原直送,BWLS011,BWLS011,271,140109121473,（唐***江林唐久便利店,112.50595,37.839451,1.0,2.0,111.0,28.0,2.3413369386068745,2.36074775189388,0.1361749672773983,太原直送,0.1361749672773983,山西省,太原市,万柏林区,小井峪街道,山西省太原市万柏林区小井峪街道郭氏中医按摩十二院城,112.4995153990108,37.83880746600454,168_83,112.50067794048248,37.8395384321331,1.0,7012633395.0,112.4998304,37.8396556,140109121473.0,0,0,65
太原直送,BWLS011,BWLS011,224,140109121499,太原***博烟酒店,112.505007,37.83245,1.0,2.0,111.0,80.33,2.348251333184968,2.366218031612888,0.1432373374682693,太原直送,0.1432373374682693,山西省,太原市,万柏林区,小井峪街道,山西省太原市万柏林区小井峪街道沙沟中街便民地面停车场,112.49856973805969,37.831802568843706,168_81,112.50067794048248,37.83054522172026,1.0,11036945414.0,112.4987781,37.8317445,140109121499.0,0,0,65
太原直送,AWLS005,AWLS005,210,140109121506,太原***鲜便利店,112.497487,37.828963,1.0,1.0,112.0,58.33,2.354053442698356,2.3740914770911763,0.148012155027885,太原直送,0.148012155027885,山西省,太原市,万柏林区,小井峪街道,山西省太原市万柏林区小井峪街道新义街太化·紫景天城,112.49102220942996,37.82829251590877,166_80,112.48909208404818,37.82604861651383,1.0,5764439105.0,112.4937059,37.827883,140109121506.0,0,0,65
太原直送,BWLS011,BWLS011,25,140109121544,太原***子便利店,112.503105,37.830708,1.0,2.0,111.0,60.0,2.350528102213837,2.3687970483943896,0.1452629497463098,太原直送,0.1452629497463098,山西省,太原市,万柏林区,小井峪街道,山西省太原市万柏林区小井峪街道恒大雅苑北区(南门),112.49666089302848,37.83005461563344,167_81,112.49488501226531,37.83054522172026,1.0,7023502549.0,112.4982548,37.8296363,140109121544.0,0,0,65
太原直送,BWLS011,BWLS011,16,140109121546,太原***岩便利店,112.508453,37.826135,1.0,2.0,111.0,69.33,2.353062230739338,2.3680306866535705,0.1490038605674337,太原直送,0.1490038605674337,山西省,太原市,万柏林区,长风西街街道,山西省太原市万柏林区长风西街街道和平南路万柏林区和平南路小学,112.50202919433951,37.825496887356735,168_80,112.50067794048248,37.82604861651383,1.0,5764439095.0,112.5021985,37.8262593,140109121546.0,0,0,65
太原直送,BWLS011,BWLS011,17,140109121605,太原***志烟酒店,112.51013,37.834433,1.0,2.0,111.0,35.0,2.344677496777969,2.361124457569314,0.1405617610483031,太原直送,0.1405617610483031,山西省,太原市,万柏林区,长风西街街道,山西省太原市万柏林区长风西街街道和平南路逸宸·新境界,112.50371136177476,37.83380110466682,169_82,112.50647086869964,37.83504182692668,1.0,7689962552.0,112.5035257,37.8333869,140109121605.0,0,0,65
太原直送,BWLS011,BWLS011,26,140109121614,太原***酒便利店,112.503202,37.830643,1.0,2.0,111.0,26.33,2.350556988095584,2.368770696861978,0.1453109296680704,太原直送,0.1453109296680704,山西省,太原市,万柏林区,小井峪街道,山西省太原市万柏林区小井峪街道恒大雅苑北区(南门),112.49675826073678,37.829989896246026,167_81,112.49488501226531,37.83054522172026,1.0,7023502549.0,112.4982548,37.8296363,140109121614.0,0,0,65
太原直送,BWLS011,BWLS011,27,140109121615,太原***鲜便利店,112.504425,37.831319,1.0,2.0,111.0,71.33,2.3495116682315063,2.367416033257568,0.1444456672939673,太原直送,0.1444456672939673,山西省,太原市,万柏林区,小井峪街道,山西省太原市万柏林区小井峪街道沙沟南街34号恒大雅苑北区,112.49798571624132,37.83066965769255,168_81,112.50067794048248,37.83054522172026,1.0,7023502549.0,112.4982548,37.8296363,140109121615.0,0,0,65
太原直送,BWLS011,BWLS011,20,140109121666,太原***军烟酒店,112.505405,37.832403,1.0,2.0,111.0,85.67,2.348162984320297,2.365959722522133,0.1432224009853204,太原直送,0.1432224009853204,山西省,太原市,万柏林区,小井峪街道,山西省太原市万柏林区小井峪街道沙沟中街恒实天和福地,112.4989692163908,37.831756750470895,168_81,112.50067794048248,37.83054522172026,1.0,7023514012.0,112.4988053,37.8318542,140109121666.0,0,0,65
太原直送,BWLS011,BWLS011,39,140109121691,太原***旺烟酒店,112.506291,37.832209,1.0,2.0,111.0,24.67,2.348050816640048,2.365445963324671,0.1432815785786843,太原直送,0.1432815785786843,山西省,太原市,万柏林区,小井峪街道,山西省太原市万柏林区小井峪街道沙沟中街西部丽景,112.49985851395718,37.83156536471197,168_81,112.50067794048248,37.83054522172026,1.0,7023514012.0,112.4988053,37.8318542,140109121691.0,0,0,65
太原直送,BWLS011,BWLS011,18,140109121699,太原***烟酒商行,112.510064,37.834257,1.0,2.0,111.0,84.33,2.3448654248141816,2.361293022423094,0.1407445097934528,太原直送,0.1407445097934528,山西省,太原市,万柏林区,长风西街街道,山西省太原市万柏林区长风西街街道和平南路逸宸·新境界,112.50364514122305,37.83362488258442,169_82,112.50647086869964,37.83504182692668,1.0,7689962552.0,112.5035257,37.8333869,140109121699.0,0,0,65
太原直送,BWLS011,BWLS011,46,140109121718,太原***顺烟酒行,112.502866,37.83302,1.0,2.0,111.0,59.33,2.348428788379586,2.367391596628874,0.1430243694550001,太原直送,0.1430243694550001,山西省,太原市,万柏林区,小井峪街道,山西省太原市万柏林区小井峪街道香悦澜溪(南门),112.496420732435,37.83236625074447,167_81,112.49488501226531,37.83054522172026,1.0,5764445980.0,112.4949339,37.8322968,140109121718.0,0,0,65
太原直送,AWLS005,AWLS005,11,140109121721,太原***烟酒商行,112.499639,37.833281,1.0,1.0,112.0,73.33,2.349263621972637,2.369571342860347,0.1433546021584225,太原直送,0.1433546021584225,山西省,太原市,万柏林区,小井峪街道,山西省太原市万柏林区小井峪街道大井峪街公园美地,112.4931817045132,37.83261761873922,167_81,112.49488501226531,37.83054522172026,1.0,5764445983.0,112.49383,37.8324377,140109121721.0,0,0,65
太原直送,BWLS011,BWLS011,73,140109121731,太原***仓茶叶店,112.505002,37.831331,1.0,2.0,111.0,60.0,2.349308006833713,2.366986835094776,0.14434358740519,太原直送,0.14434358740519,山西省,太原市,万柏林区,小井峪街道,山西省太原市万柏林区小井峪街道沙沟西路西部丽景,112.49856485173456,37.83068338410743,168_81,112.50067794048248,37.83054522172026,1.0,11036945414.0,112.4987781,37.8317445,140109121731.0,0,0,65
太原直送,BWLS011,BWLS011,72,140109121736,太原***食便利店,112.505826,37.825049,1.0,2.0,111.0,33.33,2.354958069454528,2.370687581745852,0.1504335578419908,太原直送,0.1504335578419908,山西省,太原市,万柏林区,小井峪街道,山西省太原市万柏林区小井峪街道义井西路东巷万科蓝山,112.49939264140252,37.8244029075317,168_80,112.50067794048248,37.82604861651383,1.0,7689962561.0,112.4992707,37.8242523,140109121736.0,0,0,65
太原直送,BWLS011,BWLS011,62,140109121766,太原***昭便利店,112.507402,37.830089,1.0,2.0,111.0,44.0,2.3496807367489296,2.36608666345508,0.1452226745277724,太原直送,0.1452226745277724,山西省,太原市,万柏林区,小井峪街道,山西省太原市万柏林区小井峪街道沙沟南街西部丽景,112.50097386177823,37.829448353351296,168_81,112.50067794048248,37.83054522172026,1.0,7840641501.0,112.5004612,37.8293659,140109121766.0,0,0,65
太原直送,BWLS011,BWLS011,45,140109121800,（唐***久副食便利店,112.502761,37.832801,1.0,2.0,111.0,56.33,2.348670289803992,2.367617878822712,0.1432580999036294,太原直送,0.1432580999036294,山西省,太原市,万柏林区,小井峪街道,山西省太原市万柏林区小井峪街道沙沟中街香悦澜溪,112.49631536845014,37.83214690289681,167_81,112.49488501226531,37.83054522172026,1.0,5764445980.0,112.4949339,37.8322968,140109121800.0,0,0,65
太原直送,BWLS011,BWLS011,43,140109121818,太原***烟酒商行,112.508544,37.826987,1.0,2.0,111.0,89.0,2.3522281968952297,2.367380219720521,0.148147193483369,太原直送,0.148147193483369,山西省,太原市,万柏林区,小井峪街道,山西省太原市万柏林区小井峪街道和平南路山西省中医院和平分院,112.50212042810406,37.82634928355674,168_80,112.50067794048248,37.82604861651383,1.0,5764439097.0,112.502066,37.8264339,140109121818.0,0,0,65
太原直送,BWLS011,BWLS011,47,140109121848,太原***士便利店,112.503753,37.838208,1.0,2.0,111.0,42.33,2.3432429042284504,2.363202108193452,0.1377611041803854,太原直送,0.1377611041803854,山西省,太原市,万柏林区,小井峪街道,山西省太原市万柏林区小井峪街道啾啾麻辣串(十二院城店)十二院城,112.49731041081408,37.83755770648605,167_83,112.49488501226531,37.8395384321331,1.0,7012633398.0,112.4991037,37.835833,140109121848.0,0,0,65
太原直送,AWLS005,AWLS005,12,140109121851,（金***伴金虎便利店,112.499501,37.83331,1.0,1.0,111.0,47.0,2.349282611774287,2.369652440454933,0.1433528372687496,太原直送,0.1433528372687496,山西省,太原市,万柏林区,小井峪街道,山西省太原市万柏林区小井峪街道大井峪街公园美地,112.49304318762204,37.83264620943031,167_81,112.49488501226531,37.83054522172026,1.0,5764445983.0,112.49383,37.8324377,140109121851.0,0,0,65
太原直送,BWLS011,BWLS011,65,140109121857,太原***泰烟酒店,112.503284,37.830669,1.0,2.0,111.0,55.67,2.3505051059346806,2.368693079630203,0.1452717149241371,太原直送,0.1452717149241371,山西省,太原市,万柏林区,小井峪街道,山西省太原市万柏林区小井峪街道恒大雅苑北区(南门),112.49684056198146,37.83001614566024,167_81,112.49488501226531,37.83054522172026,1.0,7023502549.0,112.4982548,37.8296363,140109121857.0,0,0,65
太原直送,BWLS011,BWLS011,74,140109121860,太原***烟酒商行,112.503104,37.825711,1.0,2.0,111.0,83.33,2.355239269176067,2.372216781295508,0.1501926547638078,太原直送,0.1501926547638078,山西省,太原市,万柏林区,小井峪街道,山西省太原市万柏林区小井峪街道悦尔海伦钢琴教室万科蓝山,112.49666047996428,37.82505686721552,167_80,112.49488501226531,37.82604861651383,1.0,7840641470.0,112.4964863,37.8246798,140109121860.0,0,0,65
太原直送,BWLS011,BWLS011,66,140109121877,（唐***久副食便利店,112.503557,37.830563,1.0,2.0,111.0,48.33,2.3505139135304014,2.3685663400540413,0.1453314215715243,太原直送,0.1453314215715243,山西省,太原市,万柏林区,小井峪街道,山西省太原市万柏林区小井峪街道沙沟南街恒大雅苑,112.49711458744363,37.82991094683968,167_81,112.49488501226531,37.83054522172026,1.0,7023502549.0,112.4982548,37.8296363,140109121877.0,0,0,65
太原直送,BWLS011,BWLS011,57,140109121949,太原***鑫烟酒店,112.50995,37.834241,1.0,2.0,111.0,78.0,2.344918337457617,2.361387099205038,0.1407743884838425,太原直送,0.1407743884838425,山西省,太原市,万柏林区,长风西街街道,山西省太原市万柏林区长风西街街道和平南路沙沟小区,112.50353072619896,37.83360854308743,168_82,112.50067794048248,37.83504182692668,1.0,7689962552.0,112.5035257,37.8333869,140109121949.0,0,0,65
太原直送,BWLS011,BWLS011,53,140109121966,太原***冠烟酒店,112.502208,37.839002,1.0,2.0,111.0,56.0,2.343012343076749,2.3637908914387933,0.1372527985361304,太原直送,0.1372527985361304,山西省,太原市,万柏林区,小井峪街道,山西省太原市万柏林区小井峪街道红舞星艺术中心十二院城,112.49575958091472,37.83834720427004,167_83,112.49488501226531,37.8395384321331,1.0,8510469168.0,112.4961681,37.8400663,140109121966.0,0,0,65
太原直送,AWLS005,AWLS005,29,140109122011,太原***英烟酒店,112.497542,37.829106,1.0,1.0,112.0,62.67,2.353900277356284,2.373953648771812,0.1478610109866659,太原直送,0.1478610109866659,山西省,太原市,万柏林区,小井峪街道,山西省太原市万柏林区小井峪街道太化·紫景天城(南门),112.49107739706314,37.82843570208346,166_81,112.48909208404818,37.83054522172026,1.0,5764445979.0,112.4936273,37.829088,140109122011.0,0,0,65
太原直送,BWLS011,BWLS011,63,140109122014,太原***烟酒商店,112.50773,37.83,1.0,2.0,111.0,62.0,2.349655753901412,2.365908562917218,0.1452663010405381,太原直送,0.1452663010405381,山西省,太原市,万柏林区,小井峪街道,山西省太原市万柏林区小井峪街道沙沟南街西部丽景,112.50130307997064,37.82936031554317,168_81,112.50067794048248,37.83054522172026,1.0,7840641501.0,112.5004612,37.8293659,140109122014.0,0,0,65
太原直送,BWLS011,BWLS011,102,140109122020,太原***小北烟店,112.50312,37.825567,1.0,2.0,111.0,48.67,2.355369708993687,2.3723037310673374,0.1503322031535489,太原直送,0.1503322031535489,山西省,太原市,万柏林区,小井峪街道,山西省太原市万柏林区小井峪街道西安老店面皮(万科蓝山店)万科蓝山,112.49667655636765,37.82491289390226,167_80,112.49488501226531,37.82604861651383,1.0,7840641470.0,112.4964863,37.8246798,140109122020.0,0,0,65
太原直送,BWLS011,BWLS011,69,140109122028,太原***丫烟酒行,112.500445,37.825711,1.0,2.0,111.0,31.33,2.3561266261260245,2.374155247079896,0.1506437550248934,太原直送,0.1506437550248934,山西省,太原市,万柏林区,神堂沟街道,山西省太原市万柏林区神堂沟街道义井西路东巷吉民综合市场,112.4939915988629,37.82504889918082,167_80,112.49488501226531,37.82604861651383,1.0,7840641476.0,112.4934964,37.8250608,140109122028.0,0,0,65
太原直送,BWLS011,BWLS011,70,140109122035,太原***态蔬果店,112.506011,37.826138,1.0,2.0,111.0,56.0,2.353869445599096,2.369806479488566,0.1493293057273067,太原直送,0.1493293057273067,山西省,太原市,万柏林区,小井峪街道,山西省太原市万柏林区小井峪街道三米粥铺万科蓝山,112.4995781964579,37.82549261992929,168_80,112.50067794048248,37.82604861651383,1.0,7689962558.0,112.4998445,37.8265982,140109122035.0,0,0,65
太原直送,BWLS012,BWLS012,7,140109122086,太原***辰烟酒店,112.510109,37.831838,1.0,2.0,111.0,75.67,2.3471326782099484,2.362916260828978,0.1431402140595026,太原直送,0.1431402140595026,山西省,太原市,万柏林区,长风西街街道,山西省太原市万柏林区长风西街街道沙沟中街天和广场,112.5036905909145,37.83120564662972,169_81,112.50647086869964,37.83054522172026,1.0,1904099000.0,112.5030713,37.8313325,140109122086.0,0,0,65
太原直送,BWLS011,BWLS011,64,140109122089,太原***亮烟酒店,112.503622,37.830546,1.0,2.0,111.0,57.0,2.350508249970209,2.368530535120251,0.1453375926937019,太原直送,0.1453375926937019,山西省,太原市,万柏林区,小井峪街道,山西省太原市万柏林区小井峪街道沙沟南街恒大雅苑,112.49717983057516,37.829894138808285,167_81,112.49488501226531,37.83054522172026,1.0,7023502549.0,112.4982548,37.8296363,140109122089.0,0,0,65
太原直送,BWLS011,BWLS011,51,140109122093,（唐***张朦唐久便利店,112.503764,37.838112,1.0,2.0,111.0,36.67,2.3433296885402144,2.363259546721217,0.1378538153334856,太原直送,0.1378538153334856,山西省,太原市,万柏林区,小井峪街道,山西省太原市万柏林区小井峪街道啾啾麻辣串(十二院城店)十二院城,112.49732146296338,37.8374617244248,167_83,112.49488501226531,37.8395384321331,1.0,7012633398.0,112.4991037,37.835833,140109122093.0,0,0,65
太原直送,BWLS011,BWLS011,48,140109122109,太原***雄烟酒店,112.502079,37.832907,1.0,2.0,111.0,34.67,2.348798475021646,2.368043608996468,0.1432721155424187,太原直送,0.1432721155424187,山西省,太原市,万柏林区,小井峪街道,山西省太原市万柏林区小井峪街道沙沟中街香悦澜溪,112.49563082254502,37.832250875972,167_81,112.49488501226531,37.83054522172026,1.0,5764445980.0,112.4949339,37.8322968,140109122109.0,0,0,65
太原直送,BWLS011,BWLS011,50,140109122126,太原***销部二部,112.50374,37.838191,1.0,2.0,111.0,59.33,2.34326327447963,2.363223210238933,0.1377800758927043,太原直送,0.1377800758927043,山西省,太原市,万柏林区,小井峪街道,山西省太原市万柏林区小井峪街道啾啾麻辣串(十二院城店)十二院城,112.49729736460452,37.83754066493343,167_83,112.49488501226531,37.8395384321331,1.0,7012633398.0,112.4991037,37.835833,140109122126.0,0,0,65
太原直送,BWLS011,BWLS011,105,140109122134,太原***食便利店,112.505423,37.831377,3.0,2.0,111.0,16.0,2.3491243689894308,2.366648241460696,0.1442337036063308,太原直送,0.1442337036063308,山西省,太原市,万柏林区,小井峪街道,山西省太原市万柏林区小井峪街道东北家常菜馆西部丽景,112.49898740415094,37.83073064853341,168_81,112.50067794048248,37.83054522172026,1.0,11036945414.0,112.4987781,37.8317445,140109122134.0,0,0,65
太原直送,BWLS011,BWLS011,60,140109122138,太原***英烟酒店,112.509076,37.828761,1.0,2.0,111.0,89.67,2.35037813545672,2.3657768223938658,0.1463204435921371,太原直送,0.1463204435921371,山西省,太原市,万柏林区,长风西街街道,山西省太原市万柏林区长风西街街道和平南路和平花园,112.50265417127926,37.82812512560627,168_80,112.50067794048248,37.82604861651383,1.0,7689962547.0,112.5025559,37.828265,140109122138.0,0,0,65
太原直送,BWLS011,BWLS011,110,140109122147,万柏***烟酒商行,112.501761,37.825545,1.0,2.0,111.0,39.67,2.3558436035356847,2.373309309737986,0.1505783830036701,太原直送,0.1505783830036701,山西省,太原市,万柏林区,神堂沟街道,山西省太原市万柏林区神堂沟街道义井西路东巷万科蓝山,112.49531251147133,37.82488681958782,167_80,112.49488501226531,37.82604861651383,1.0,7840641470.0,112.4964863,37.8246798,140109122147.0,0,0,65
太原直送,BWLS011,BWLS011,109,140109122159,太原***烟酒商行,112.503185,37.83067,1.0,2.0,111.0,63.0,2.3505372124722896,2.3687646437689818,0.1452871232869592,太原直送,0.1452871232869592,山西省,太原市,万柏林区,小井峪街道,山西省太原市万柏林区小井峪街道恒大雅苑北区(南门),112.49674119445106,37.830016849423245,167_81,112.49488501226531,37.83054522172026,1.0,7023502549.0,112.4982548,37.8296363,140109122159.0,0,0,65
太原直送,AWLS005,AWLS005,30,140109122178,太原***酒经销部,112.504938,37.841327,1.0,1.0,111.0,57.67,2.33990717921139,2.360208565348412,0.1344869862886364,太原直送,0.1344869862886364,山西省,太原市,万柏林区,小井峪街道,山西省太原市万柏林区小井峪街道光华街光华苑,112.49849943375791,37.840680739833424,168_83,112.50067794048248,37.8395384321331,1.0,7215232962.0,112.4986511,37.8406605,140109122178.0,0,0,65
太原直送,BWLS011,BWLS011,104,140109122187,太原***烟酒商店,112.509289,37.837583,1.0,2.0,111.0,59.0,2.341985556564343,2.3595839411822164,0.1375434244738698,太原直送,0.1375434244738698,山西省,太原市,万柏林区,小井峪街道,山西省太原市万柏林区小井峪街道和平南路134号沙沟北小区,112.5028669118054,37.8369491030301,168_82,112.50067794048248,37.83504182692668,1.0,7840653423.0,112.502322,37.8355511,140109122187.0,0,0,65
太原直送,BWLS011,BWLS011,54,140109122201,太原***酒经销部,112.503668,37.838245,1.0,2.0,111.0,78.0,2.343236484202349,2.363239029579525,0.1377392022228937,太原直送,0.1377392022228937,山西省,太原市,万柏林区,小井峪街道,山西省太原市万柏林区小井峪街道啾啾麻辣串(十二院城店)十二院城,112.49722509114468,37.83759445790341,167_83,112.49488501226531,37.8395384321331,1.0,7012633398.0,112.4991037,37.835833,140109122201.0,0,0,65
太原直送,BWLS011,BWLS011,111,140109122202,（金***平金虎便利店,112.504166,37.825176,1.0,2.0,111.0,66.67,2.3553901133311235,2.3718094560105376,0.1505539053561877,太原直送,0.1505539053561877,山西省,太原市,万柏林区,神堂沟街道,山西省太原市万柏林区神堂沟街道义井西路东巷万科蓝山,112.49772648219434,37.824524966636,167_80,112.49488501226531,37.82604861651383,1.0,7840641470.0,112.4964863,37.8246798,140109122202.0,0,0,65
太原直送,BWLS011,BWLS011,107,140109122228,太原***斌烟酒店,112.503205,37.83067,1.0,2.0,111.0,81.0,2.350530535572132,2.368750048090769,0.1452838059557928,太原直送,0.1452838059557928,山西省,太原市,万柏林区,小井峪街道,山西省太原市万柏林区小井峪街道恒大雅苑北区(南门),112.49676126867926,37.830016909301705,167_81,112.49488501226531,37.83054522172026,1.0,7023502549.0,112.4982548,37.8296363,140109122228.0,0,0,65
太原直送,BWLS011,BWLS011,97,140109122231,太原***九苑茶馆,112.503536,37.835591,1.0,2.0,111.0,23.0,2.3457817327477413,2.3651464947685588,0.1403768889561223,太原直送,0.1403768889561223,山西省,太原市,万柏林区,小井峪街道,山西省太原市万柏林区小井峪街道沙沟北街紫荆假日,112.49709291520642,37.83493965103941,167_82,112.49488501226531,37.83504182692668,1.0,7012633364.0,112.495215,37.8339125,140109122231.0,0,0,65
太原直送,BWLS011,BWLS011,134,140109122241,太原***烟酒商行,112.504365,37.830304,1.0,2.0,111.0,74.0,2.3504885964328763,2.3681539652248067,0.1454574009976796,太原直送,0.1454574009976796,山西省,太原市,万柏林区,小井峪街道,山西省太原市万柏林区小井峪街道沙沟南街恒大雅苑,112.49792561384388,37.82965432502582,168_81,112.50067794048248,37.83054522172026,1.0,7023502549.0,112.4982548,37.8296363,140109122241.0,0,0,65
太原直送,BWLS011,BWLS011,108,140109122294,太原***酒便利店,112.502832,37.831579,1.0,2.0,111.0,71.67,2.349798299605524,2.3684009697050894,0.144450161014103,太原直送,0.144450161014103,山西省,太原市,万柏林区,小井峪街道,山西省太原市万柏林区小井峪街道义井西路46号恒大雅苑北区,112.49638677656957,37.83092492985272,167_81,112.49488501226531,37.83054522172026,1.0,5764445980.0,112.4949339,37.8322968,140109122294.0,0,0,65
太原直送,BWLS011,BWLS011,135,140109122327,（唐***斌唐久便利店,112.509395,37.834757,1.0,2.0,111.0,64.67,2.344615794252863,2.361438828291131,0.1403320383946543,太原直送,0.1403320383946543,山西省,太原市,万柏林区,小井峪街道,山西省太原市万柏林区小井峪街道沙沟北街沙沟小区,112.50297363355014,37.83412297992686,168_82,112.50067794048248,37.83504182692668,1.0,7012631132.0,112.5035459,37.8342441,140109122327.0,0,0,65
太原直送,AWLS005,AWLS005,36,140109122342,太原***烟酒商行,112.497541,37.828992,1.0,1.0,112.0,36.33,2.354007995074146,2.374032224560147,0.147972882329837,太原直送,0.147972882329837,山西省,太原市,万柏林区,小井峪街道,山西省太原市万柏林区小井峪街道新义街太化·紫景天城,112.49107640685,37.82832168201346,166_81,112.48909208404818,37.83054522172026,1.0,5764445979.0,112.4936273,37.829088,140109122342.0,0,0,65
太原直送,BWLS011,BWLS011,140,140109122362,太原***酒经销部,112.504292,37.830899,1.0,2.0,111.0,70.33,2.3499519793368067,2.3678002824773805,0.1448814409681192,太原直送,0.1448814409681192,山西省,太原市,万柏林区,小井峪街道,山西省太原市万柏林区小井峪街道义井西路28号恒大雅苑北区,112.49785227302633,37.83024919648378,168_81,112.50067794048248,37.83054522172026,1.0,7023502549.0,112.4982548,37.8296363,140109122362.0,0,0,65
太原直送,BWLS011,BWLS011,377,140109122400,太原***烟酒商行,112.500719,37.825686,1.0,2.0,111.0,69.67,2.356058627383665,2.373972537762388,0.1506197713615317,太原直送,0.1506197713615317,山西省,太原市,万柏林区,小井峪街道,山西省太原市万柏林区小井峪街道义井西路东巷吉民综合市场,112.49426662087124,37.825024716959625,167_80,112.49488501226531,37.82604861651383,1.0,7840641476.0,112.4934964,37.8250608,140109122400.0,0,0,65
太原直送,BWLS011,BWLS011,136,140109122402,太原***烟酒商行,112.504894,37.831011,1.0,2.0,111.0,75.33,2.3496457061584883,2.3672844848475707,0.1446764383892582,太原直送,0.1446764383892582,山西省,太原市,万柏林区,小井峪街道,山西省太原市万柏林区小井峪街道沙沟西路西部丽景,112.4984564897134,37.830363013008565,168_81,112.50067794048248,37.83054522172026,1.0,7023502549.0,112.4982548,37.8296363,140109122402.0,0,0,65
太原直送,BWLS011,BWLS011,156,140109122471,（唐***唐久便利店,112.506072,37.826579,1.0,2.0,111.0,56.0,2.353433225623574,2.369459859499623,0.148884113783166,太原直送,0.148884113783166,山西省,太原市,万柏林区,小井峪街道,山西省太原市万柏林区小井峪街道梵想艺术少儿创意美术万科蓝山,112.49963936975314,37.825933867099714,168_80,112.50067794048248,37.82604861651383,1.0,7689962558.0,112.4998445,37.8265982,140109122471.0,0,0,65
太原直送,BWLS011,BWLS011,153,140109122503,（唐***和唐久便利店,112.503339,37.827784,1.0,2.0,111.0,47.67,2.35320648140468,2.3706263765043194,0.1481089038410566,太原直送,0.1481089038410566,山西省,太原市,万柏林区,小井峪街道,山西省太原市万柏林区小井峪街道新义街万科蓝山,112.49689610707046,37.82713087787654,167_80,112.49488501226531,37.82604861651383,1.0,7840641485.0,112.4970871,37.8271096,140109122503.0,0,0,65
太原直送,BWLS011,BWLS011,146,140109122526,太原***星烟酒店,112.503748,37.83264,1.0,2.0,111.0,16.0,2.3484922845523686,2.3670071671613067,0.1432511948780885,太原直送,0.1432511948780885,山西省,太原市,万柏林区,小井峪街道,山西省太原市万柏林区小井峪街道沙沟中街香悦澜溪,112.49730605044012,37.83198883318227,167_81,112.49488501226531,37.83054522172026,1.0,11036945414.0,112.4987781,37.8317445,140109122526.0,0,0,65
太原直送,BWLS011,BWLS011,150,140109122539,太原***烟酒商行,112.507935,37.827359,1.0,2.0,111.0,66.67,2.3520790932228417,2.3675685858629265,0.1478566914955121,太原直送,0.1478566914955121,山西省,太原市,万柏林区,小井峪街道,山西省太原市万柏林区小井峪街道蜜儿堂小儿推拿健康管理中心万科蓝山店万科蓝山四期,112.50150914582971,37.826719530102885,168_80,112.50067794048248,37.82604861651383,1.0,5764439097.0,112.502066,37.8264339,140109122539.0,0,0,65
太原直送,BWLS011,BWLS011,155,140109122545,太原***烟酒商行,112.50343,37.827757,1.0,2.0,122.0,67.33,2.35320159865342,2.3705785030907576,0.1481208606679029,太原直送,0.1481208606679029,山西省,太原市,万柏林区,小井峪街道,山西省太原市万柏林区小井峪街道新义街万科蓝山,112.49698744790868,37.82710414625716,167_80,112.49488501226531,37.82604861651383,1.0,7840641485.0,112.4970871,37.8271096,140109122545.0,0,0,65
太原直送,BWLS011,BWLS011,145,140109122557,太原***烟酒商行,112.506394,37.832294,1.0,2.0,111.0,58.0,2.347936378663188,2.3653126865116585,0.1431824270013617,太原直送,0.1431824270013617,山西省,太原市,万柏林区,小井峪街道,山西省太原市万柏林区小井峪街道沙沟中街恒实天和福地,112.49996188423252,37.83165068471679,168_81,112.50067794048248,37.83054522172026,1.0,7023514012.0,112.4988053,37.8318542,140109122557.0,0,0,65
太原直送,BWLS011,BWLS011,160,140109122584,太原***烟酒商行,112.508042,37.82715,1.0,2.0,111.0,83.33,2.3522407910947334,2.3676339374415485,0.1480499437689812,太原直送,0.1480499437689812,山西省,太原市,万柏林区,小井峪街道,山西省太原市万柏林区小井峪街道和平南路203号万科蓝山,112.50161656402403,37.826510817029366,168_80,112.50067794048248,37.82604861651383,1.0,5764439097.0,112.502066,37.8264339,140109122584.0,0,0,65
太原直送,BWLS011,BWLS011,139,140109122588,太原***烟酒商店,112.509926,37.834639,1.0,2.0,111.0,89.33,2.3445508466205194,2.3611322687439618,0.1403823959939387,太原直送,0.1403823959939387,山西省,太原市,万柏林区,小井峪街道,山西省太原市万柏林区小井峪街道和平南路沙沟小区,112.50350659148482,37.83400653320346,168_82,112.50067794048248,37.83504182692668,1.0,7012631132.0,112.5035459,37.8342441,140109122588.0,0,0,65
太原直送,AWLS005,AWLS005,60,140109122610,太原***烟酒商行,112.499463,37.833269,1.0,1.0,111.0,23.5,2.3493339867536887,2.369708195536524,0.1434004294833138,太原直送,0.1434004294833138,山西省,太原市,万柏林区,小井峪街道,山西省太原市万柏林区小井峪街道大井峪街公园美地,112.4930050510878,37.8326050892427,167_81,112.49488501226531,37.83054522172026,1.0,5764445983.0,112.49383,37.8324377,140109122610.0,0,0,65
太原直送,BWLS011,BWLS011,149,140109122634,太原***豆便利店,112.50892,37.8289,1.0,2.0,111.0,20.67,2.35029868946949,2.36579517036133,0.1462020484740217,太原直送,0.1462020484740217,山西省,太原市,万柏林区,长风西街街道,山西省太原市万柏林区长风西街街道新中巷华龙苑,112.50249758268636,37.82826368394167,168_80,112.50067794048248,37.82604861651383,1.0,7689962547.0,112.5025559,37.828265,140109122634.0,0,0,65
太原直送,BWLS011,BWLS011,158,140109122635,太原***烟酒商行,112.506072,37.826579,1.0,2.0,111.0,48.67,2.353433225623574,2.369459859499623,0.148884113783166,太原直送,0.148884113783166,山西省,太原市,万柏林区,小井峪街道,山西省太原市万柏林区小井峪街道梵想艺术少儿创意美术万科蓝山,112.49963936975314,37.825933867099714,168_80,112.50067794048248,37.82604861651383,1.0,7689962558.0,112.4998445,37.8265982,140109122635.0,0,0,65
太原直送,BWLS011,BWLS011,199,140109218806,太原***有限公司,112.5096,37.829365,2.0,2.0,111.0,12.0,2.349634643032183,2.3649812887547257,0.1456565835552878,太原直送,0.1456565835552878,山西省,太原市,万柏林区,长风西街街道,山西省太原市万柏林区长风西街街道和平南路318号和平花园,112.50318002017929,37.82873076809585,168_81,112.50067794048248,37.83054522172026,1.0,7012633186.0,112.5027325,37.8290606,140109218806.0,0,0,65
太原直送,BWLS011,BWLS011,280,140109218874,（天***南路加油站,112.509191,37.838065,1.0,2.0,111.0,35.67,2.341563569109323,2.359326120401541,0.1370784931635866,太原直送,0.1370784931635866,山西省,太原市,万柏林区,小井峪街道,山西省太原市万柏林区小井峪街道和平南路132号沙沟北小区,112.50276849570162,37.837430887772776,168_83,112.50067794048248,37.8395384321331,1.0,7840653418.0,112.5043529,37.8384815,140109218874.0,0,0,65
太原直送,BWLS011,BWLS011,352,140109220672,太原***有限公司,112.508279,37.827288,1.0,2.0,111.0,79.33,2.3520320275500035,2.3673667851032247,0.1478824574484703,太原直送,0.1478824574484703,山西省,太原市,万柏林区,小井峪街道,山西省太原市万柏林区小井峪街道和平南路336号万科蓝山,112.50185441903288,37.82664954151669,168_80,112.50067794048248,37.82604861651383,1.0,5764439097.0,112.502066,37.8264339,140109220672.0,0,0,65
太原直送,BWLS011,BWLS011,339,140109220723,山西***有限公司,112.503197,37.830615,1.0,2.0,111.0,85.0,2.350585050939444,2.3687934889991964,0.145339371128401,太原直送,0.145339371128401,山西省,太原市,万柏林区,小井峪街道,山西省太原市万柏林区小井峪街道沙沟南街恒大雅苑,112.49675324548969,37.82996187705213,167_81,112.49488501226531,37.83054522172026,1.0,7023502549.0,112.4982548,37.8296363,140109220723.0,0,0,65
太原直送,BWLS011,BWLS011,245,140109220819,太原***嘉便利店,112.508453,37.826135,1.0,2.0,111.0,83.67,2.353062230739338,2.3680306866535705,0.1490038605674337,太原直送,0.1490038605674337,山西省,太原市,万柏林区,长风西街街道,山西省太原市万柏林区长风西街街道和平南路万柏林区和平南路小学,112.50202919433951,37.825496887356735,168_80,112.50067794048248,37.82604861651383,1.0,5764439095.0,112.5021985,37.8262593,140109220819.0,0,0,65
太原直送,BWLS011,BWLS011,247,140109221219,太原***有限公司,112.504003,37.837035,1.0,2.0,111.0,63.0,2.344264696537488,2.3638196137888783,0.1388748521655366,太原直送,0.1388748521655366,山西省,太原市,万柏林区,小井峪街道,山西省太原市万柏林区小井峪街道十二院城欣院,112.49756147659436,37.83638527189186,167_82,112.49488501226531,37.83504182692668,1.0,7012633398.0,112.4991037,37.835833,140109221219.0,0,0,65
太原直送,BWLS011,BWLS011,362,140109221302,山西***有限公司,112.503514,37.827695,1.0,2.0,111.0,24.33,2.3532320514010108,2.370559690538927,0.1481685470840562,太原直送,0.1481685470840562,山西省,太原市,万柏林区,小井峪街道,山西省太原市万柏林区小井峪街道新义街万科蓝山,112.49707176687566,37.827042388454494,167_80,112.49488501226531,37.82604861651383,1.0,7840641484.0,112.4970603,37.8269993,140109221302.0,0,0,65
太原直送,BWLS011,BWLS011,56,140109221734,品谦***有限公司,112.51016,37.836295,1.0,2.0,111.0,83.0,2.342911050363841,2.359828804303396,0.1387101711951927,太原直送,0.1387101711951927,山西省,太原市,万柏林区,小井峪街道,山西省太原市万柏林区小井峪街道和平南路271号大商浴乐园,112.5037412519214,37.83566348028174,169_82,112.50647086869964,37.83504182692668,1.0,7840653423.0,112.502322,37.8355511,140109221734.0,0,0,65
太原直送,BWLS011,BWLS011,402,140109221767,太原***食便利店,112.503148,37.830736,1.0,2.0,111.0,77.0,2.350487352208047,2.3687465243847856,0.145228185535726,太原直送,0.145228185535726,山西省,太原市,万柏林区,小井峪街道,山西省太原市万柏林区小井峪街道恒大雅苑北区(南门),112.49670404932226,37.83008274860606,167_81,112.49488501226531,37.83054522172026,1.0,7023502549.0,112.4982548,37.8296363,140109221767.0,0,0,65
太原直送,BWLS011,BWLS011,59,140109221790,山西***有限公司,112.505195,37.830313,1.0,2.0,111.0,32.0,2.350203556948208,2.3675424107578307,0.1453199865951014,太原直送,0.1453199865951014,山西省,太原市,万柏林区,小井峪街道,山西省太原市万柏林区小井峪街道沙沟南街西部丽景,112.49875868628462,37.82966580694614,168_81,112.50067794048248,37.83054522172026,1.0,7023502549.0,112.4982548,37.8296363,140109221790.0,0,0,65
太原直送,BWLS011,BWLS011,61,140109221898,太原***有限公司,112.507385,37.830128,1.0,2.0,111.0,65.0,2.349649598433134,2.366072350787691,0.1451863722564863,太原直送,0.1451863722564863,山西省,太原市,万柏林区,小井峪街道,山西省太原市万柏林区小井峪街道沙沟南街西部丽景,112.50095679455616,37.82948730863882,168_81,112.50067794048248,37.83054522172026,1.0,7840641501.0,112.5004612,37.8293659,140109221898.0,0,0,65
太原直送,BWLS011,BWLS011,49,140109222084,山西***有限公司,112.50272,37.835757,1.0,2.0,111.0,51.33,2.3458982834268407,2.365629568790516,0.1403538489853395,太原直送,0.1403538489853395,山西省,太原市,万柏林区,小井峪街道,山西省太原市万柏林区小井峪街道沙沟北街十二院城,112.49627386665117,37.83510323349744,167_82,112.49488501226531,37.83504182692668,1.0,7012633364.0,112.495215,37.8339125,140109222084.0,0,0,65
太原直送,BWLS011,BWLS011,392,140109222232,山西***有限公司,112.508275,37.827146,1.0,2.0,111.0,73.67,2.352167325928366,2.36746704164641,0.1480237938069414,太原直送,0.1480237938069414,山西省,太原市,万柏林区,小井峪街道,山西省太原市万柏林区小井峪街道和平南路338号万科蓝山,112.50185042108006,37.82650750855517,168_80,112.50067794048248,37.82604861651383,1.0,5764439097.0,112.502066,37.8264339,140109222232.0,0,0,65
太原直送,AWLS005,AWLS005,33,140109222238,山西***有限公司,112.498964,37.833166,1.0,1.0,112.0,62.67,2.3495985198569564,2.3701432898846,0.1435990806725445,太原直送,0.1435990806725445,山西省,太原市,万柏林区,小井峪街道,山西省太原市万柏林区小井峪街道大井峪街太化·紫景天城,112.49250420658149,37.83250057756137,167_81,112.49488501226531,37.83054522172026,1.0,11036945410.0,112.4938211,37.8323574,140109222238.0,0,0,65
太原直送,BWLS011,BWLS011,138,140109222367,太原***福商贸行,112.505002,37.831331,1.0,2.0,111.0,64.0,2.349308006833713,2.366986835094776,0.14434358740519,太原直送,0.14434358740519,山西省,太原市,万柏林区,小井峪街道,山西省太原市万柏林区小井峪街道沙沟西路西部丽景,112.49856485173456,37.83068338410743,168_81,112.50067794048248,37.83054522172026,1.0,11036945414.0,112.4987781,37.8317445,140109222367.0,0,0,65
太原直送,BWLS011,BWLS011,42,140109222647,太原***有限公司,112.508923,37.828158,1.0,2.0,111.0,44.0,2.350997767050618,2.366301526993126,0.1469378206078991,太原直送,0.1469378206078991,山西省,太原市,万柏林区,长风西街街道,山西省太原市万柏林区长风西街街道和平南路和泉石化加油站,112.50250068118832,37.82752158198642,168_80,112.50067794048248,37.82604861651383,1.0,7823201828.0,112.5023356,37.8270848,140109222647.0,0,0,65
太原直送,BWLS011,BWLS011,41,140109122666,太原***学烟酒店,112.509364,37.828893,1.0,2.0,111.0,35.0,2.350158171051681,2.3654766322413696,0.1461538625592877,太原直送,0.1461538625592877,山西省,太原市,万柏林区,长风西街街道,山西省太原市万柏林区长风西街街道新中巷和平花园,112.50294321141035,37.828257998641575,168_80,112.50067794048248,37.82604861651383,1.0,7689962547.0,112.5025559,37.828265,140109122666.0,0,0,65
太原直送,BWLS011,BWLS011,154,140109122696,太原***斌烟酒店,112.50439,37.8258,1.0,2.0,111.0,46.0,2.3547271359463267,2.37121879415734,0.1499029548007617,太原直送,0.1499029548007617,山西省,太原市,万柏林区,小井峪街道,山西省太原市万柏林区小井峪街道新义街16号万科蓝山二期,112.49795123856708,37.82514972840399,168_80,112.50067794048248,37.82604861651383,1.0,7840641470.0,112.4964863,37.8246798,140109122696.0,0,0,65
太原直送,BWLS011,BWLS011,141,140109122740,太原***鲜便利店,112.506291,37.832116,1.0,2.0,111.0,67.33,2.3481385129955585,2.365509574841324,0.1433735747374655,太原直送,0.1433735747374655,山西省,太原市,万柏林区,小井峪街道,山西省太原市万柏林区小井峪街道西部丽景北区(东北门),112.49985852493724,37.83147235058281,168_81,112.50067794048248,37.83054522172026,1.0,11036945414.0,112.4987781,37.8317445,140109122740.0,0,0,65
太原直送,BWLS011,BWLS011,152,140109122737,太原***烟酒商行,112.505182,37.827156,1.0,2.0,111.0,83.33,2.3531848902663763,2.369712956456324,0.1484429846439321,太原直送,0.1484429846439321,山西省,太原市,万柏林区,小井峪街道,山西省太原市万柏林区小井峪街道和平南路77号万科蓝山,112.49874601102518,37.82650829601078,168_80,112.50067794048248,37.82604861651383,1.0,7689962558.0,112.4998445,37.8265982,140109122737.0,0,0,65
太原直送,BWLS011,BWLS011,131,140109122727,太原***烟酒商行,112.504896,37.830994,1.0,2.0,111.0,67.5,2.3496610679402266,2.3672946531534675,0.144692923842185,太原直送,0.144692923842185,山西省,太原市,万柏林区,小井峪街道,山西省太原市万柏林区小井峪街道沙沟西路西部丽景,112.49845849912631,37.8303460164158,168_81,112.50067794048248,37.83054522172026,1.0,7023502549.0,112.4982548,37.8296363,140109122727.0,0,0,65
太原直送,AWLS005,AWLS005,45,140109122767,（唐***仙唐久便利店,112.498675,37.833119,1.0,1.0,111.0,40.0,2.349739845101149,2.3703866601727577,0.1437024317817839,太原直送,0.1437024317817839,山西省,太原市,万柏林区,小井峪街道,山西省太原市万柏林区小井峪街道大井峪街太化·紫景天城,112.49221413681715,37.832452704084375,167_81,112.49488501226531,37.83054522172026,1.0,11036945410.0,112.4938211,37.8323574,140109122767.0,0,0,65
太原直送,BWLS011,BWLS011,161,140109222771,山西***有限公司,112.507979,37.824643,1.0,2.0,111.0,63.67,2.354627009811953,2.369398997772424,0.1505440819029389,太原直送,0.1505440819029389,山西省,太原市,万柏林区,小井峪街道,山西省太原市万柏林区小井峪街道义井西路东巷锅炉厂宿舍,112.50155362802904,37.82400325995904,168_80,112.50067794048248,37.82604861651383,1.0,7840641492.0,112.5015639,37.8239345,140109222771.0,0,0,65
太原直送,BWLS011,BWLS011,298,140109222785,山西***有限公司,112.508545,37.831965,1.0,2.0,111.0,29.5,2.3475316278917338,2.3639691954729467,0.1432104744353588,太原直送,0.1432104744353588,山西省,太原市,万柏林区,小井峪街道,山西省太原市万柏林区小井峪街道沙沟中街圣心苑,112.50212084466207,37.83132803349629,168_81,112.50067794048248,37.83054522172026,1.0,11036945415.0,112.5028956,37.8312266,140109222785.0,0,0,65
太原直送,BWLS011,BWLS011,124,140109122821,太原***烟酒商行,112.50633,37.832256,1.0,2.0,111.0,43.33,2.34799351487392,2.365385365701955,0.1432293731676539,太原直送,0.1432293731676539,山西省,太原市,万柏林区,小井峪街道,山西省太原市万柏林区小井峪街道沙沟中街西部丽景,112.4998976524189,37.8316124881366,168_81,112.50067794048248,37.83054522172026,1.0,7023514012.0,112.4988053,37.8318542,140109122821.0,0,0,65
太原直送,BWLS011,BWLS011,79,140109122822,太原***酒便利店,112.503431,37.836575,1.0,2.0,111.0,44.33,2.3448895205446187,2.3645516373868767,0.1394251141939584,太原直送,0.1394251141939584,山西省,太原市,万柏林区,小井峪街道,山西省太原市万柏林区小井峪街道十二院城锦院,112.49698740928852,37.83592348889619,167_82,112.49488501226531,37.83504182692668,1.0,7012633398.0,112.4991037,37.835833,140109122822.0,0,0,65
太原直送,BWLS011,BWLS011,84,140109222828,太原***有限公司,112.503606,37.838235,1.0,2.0,111.0,20.67,2.34326665849301,2.3632911903749787,0.1377597010486015,太原直送,0.1377597010486015,山西省,太原市,万柏林区,小井峪街道,山西省太原市万柏林区小井峪街道啾啾麻辣串(十二院城店)十二院城,112.49716286232436,37.83758427079831,167_83,112.49488501226531,37.8395384321331,1.0,7012633398.0,112.4991037,37.835833,140109222828.0,0,0,65
太原直送,AWLS005,AWLS005,73,140109122843,太原***工商户）,112.500057,37.83105,1.0,1.0,111.0,48.33,2.3512253046666984,2.370788848111532,0.1454654912513629,太原直送,0.1454654912513629,山西省,太原市,万柏林区,小井峪街道,山西省太原市万柏林区小井峪街道西中环路太化·紫景天城,112.49360152376018,37.83038753299978,167_81,112.49488501226531,37.83054522172026,1.0,7012631162.0,112.4940606,37.8301564,140109122843.0,0,0,65
太原直送,BWLS011,BWLS011,157,140109222852,太原***有限公司,112.502846,37.825313,1.0,2.0,111.0,32.0,2.355700496087094,2.3726773425554453,0.1506271313840866,太原直送,0.1506271313840866,山西省,太原市,万柏林区,神堂沟街道,山西省太原市万柏林区神堂沟街道义井西路东巷富力现代广场,112.49640156928186,37.82465803602324,167_80,112.49488501226531,37.82604861651383,1.0,7840641470.0,112.4964863,37.8246798,140109222852.0,0,0,65
太原直送,BWLS011,BWLS011,159,140109122851,太原***久便利店,112.500719,37.825686,1.0,2.0,111.0,32.67,2.356058627383665,2.373972537762388,0.1506197713615317,太原直送,0.1506197713615317,山西省,太原市,万柏林区,小井峪街道,山西省太原市万柏林区小井峪街道义井西路东巷吉民综合市场,112.49426662087124,37.825024716959625,167_80,112.49488501226531,37.82604861651383,1.0,7840641476.0,112.4934964,37.8250608,140109122851.0,0,0,65
太原直送,BWLS011,BWLS011,11,140109122859,太原***烟酒商行,112.507164,37.830096,1.0,2.0,111.0,66.33,2.3497532030053714,2.366255338002429,0.1452485320063516,太原直送,0.1452485320063516,山西省,太原市,万柏林区,小井峪街道,山西省太原市万柏林区小井峪街道沙沟南街西部丽景,112.50073498404193,37.82945464609625,168_81,112.50067794048248,37.83054522172026,1.0,7840641501.0,112.5004612,37.8293659,140109122859.0,0,0,65
太原直送,BWLS011,BWLS011,121,140109122866,太原***工商户）,112.506072,37.832534,1.0,2.0,111.0,37.0,2.3478172732974727,2.365383459827385,0.1429924337928364,太原直送,0.1429924337928364,山西省,太原市,万柏林区,小井峪街道,山西省太原市万柏林区小井峪街道沙沟中街恒实天和福地,112.49963866669152,37.831889761021365,168_81,112.50067794048248,37.83054522172026,1.0,7023514012.0,112.4988053,37.8318542,140109122866.0,0,0,65
太原直送,BWLS011,BWLS011,147,140109222871,山西***有限公司,112.505561,37.830272,1.0,2.0,111.0,36.67,2.35012035075504,2.367303549917076,0.1453053201538034,太原直送,0.1453053201538034,山西省,太原市,万柏林区,小井峪街道,山西省太原市万柏林区小井峪街道沙沟南街西部丽景,112.49912604503652,37.82962589369048,168_81,112.50067794048248,37.83054522172026,1.0,7023502549.0,112.4982548,37.8296363,140109222871.0,0,0,65
太原直送,BWLS011,BWLS011,22,140109122896,太原***百货超市,112.509139,37.828214,1.0,2.0,111.0,19.0,2.350873367734846,2.36610587022178,0.1468554022057023,太原直送,0.1468554022057023,山西省,太原市,万柏林区,长风西街街道,山西省太原市万柏林区长风西街街道和平南路和泉石化加油站,112.50271746678378,37.82757823061458,168_80,112.50067794048248,37.82604861651383,1.0,7823201828.0,112.5023356,37.8270848,140109122896.0,0,0,65
太原直送,BWLS011,BWLS011,181,140109122902,太原***昇烟酒行,112.505971,37.826247,1.0,2.0,111.0,61.0,2.35377992307012,2.369760916448108,0.1492271292359362,太原直送,0.1492271292359362,山西省,太原市,万柏林区,小井峪街道,山西省太原市万柏林区小井峪街道华莱士·全鸡汉堡(万科蓝山3.2期店)万科蓝山,112.49953803580274,37.825601516704666,168_80,112.50067794048248,37.82604861651383,1.0,7689962558.0,112.4998445,37.8265982,140109122902.0,0,0,65
太原直送,BWLS011,BWLS011,125,140109122904,太原***淑珍烟店,112.506344,37.832219,1.0,2.0,111.0,83.33,2.3480237447958205,2.365400460333935,0.1432639269914065,太原直送,0.1432639269914065,山西省,太原市,万柏林区,小井峪街道,山西省太原市万柏林区小井峪街道沙沟中街西部丽景,112.49991170848054,37.83157552425365,168_81,112.50067794048248,37.83054522172026,1.0,7023514012.0,112.4988053,37.8318542,140109122904.0,0,0,65
太原直送,AWLS005,AWLS005,150,140109122927,太原***萍便利店,112.500153,37.830969,1.0,1.0,111.0,35.0,2.3512694571094963,2.3707740425761776,0.1455271255677057,太原直送,0.1455271255677057,山西省,太原市,万柏林区,小井峪街道,山西省太原市万柏林区小井峪街道西中环路太化·紫景天城,112.49369789047816,37.830306808582414,167_81,112.49488501226531,37.83054522172026,1.0,7012631162.0,112.4940606,37.8301564,140109122927.0,0,0,65
太原直送,BWLS011,BWLS011,148,140109122940,太原***百货商行,112.506253,37.832222,1.0,2.0,111.0,29.33,2.3480512078029703,2.365464792668448,0.1432742944180814,太原直送,0.1432742944180814,山西省,太原市,万柏林区,小井峪街道,山西省太原市万柏林区小井峪街道沙沟中街西部丽景,112.49982037209294,37.8315782533796,168_81,112.50067794048248,37.83054522172026,1.0,7023514012.0,112.4988053,37.8318542,140109122940.0,0,0,65
太原直送,BWLS011,BWLS011,113,140109122935,太原***盛祥超市,112.505951,37.832382,1.0,2.0,111.0,37.33,2.3480008924301945,2.36557569011224,0.1431607407252386,太原直送,0.1431607407252386,山西省,太原市,万柏林区,小井峪街道,山西省太原市万柏林区小井峪街道沙沟中街恒实天和福地,112.49951723756298,37.83173737694028,168_81,112.50067794048248,37.83054522172026,1.0,7023514012.0,112.4988053,37.8318542,140109122935.0,0,0,65
太原直送,BWLS011,BWLS011,214,140109122944,太原***汀兰商店,112.506232,37.824879,1.0,2.0,111.0,36.33,2.3549836290787645,2.3705085490881475,0.1505444845120499,太原直送,0.1505444845120499,山西省,太原市,万柏林区,神堂沟街道,山西省太原市万柏林区神堂沟街道义井西路东巷锅炉厂宿舍,112.4998001613747,37.82423409367566,168_80,112.50067794048248,37.82604861651383,1.0,7840641489.0,112.4999946,37.8241505,140109122944.0,0,0,65
太原直送,BWLS011,BWLS011,171,140109122951,太原***全烟酒店,112.502121,37.827785,1.0,2.0,111.0,32.33,2.353611905782259,2.371513940909685,0.1483097790032735,太原直送,0.1483097790032735,山西省,太原市,万柏林区,小井峪街道,山西省太原市万柏林区小井峪街道新义街万科蓝山,112.49567358433214,37.82712823008543,167_80,112.49488501226531,37.82604861651383,1.0,7840641484.0,112.4970603,37.8269993,140109122951.0,0,0,65
太原直送,BWLS011,BWLS011,192,140109122974,太原***烟酒商行,112.506053,37.827274,1.0,2.0,111.0,57.67,2.352784023313868,2.3689975399096563,0.1481989647770827,太原直送,0.1481989647770827,山西省,太原市,万柏林区,小井峪街道,山西省太原市万柏林区小井峪街道新义街万科蓝山,112.499620217519,37.826628913471744,168_80,112.50067794048248,37.82604861651383,1.0,7689962558.0,112.4998445,37.8265982,140109122974.0,0,0,65
太原直送,BWLS011,BWLS011,128,140109122989,太原***烟酒商行,112.506291,37.832116,1.0,2.0,,21.67,2.3481385129955585,2.365509574841324,0.1433735747374655,太原直送,0.1433735747374655,山西省,太原市,万柏林区,小井峪街道,山西省太原市万柏林区小井峪街道西部丽景北区(东北门),112.49985852493724,37.83147235058281,168_81,112.50067794048248,37.83054522172026,1.0,11036945414.0,112.4987781,37.8317445,140109122989.0,0,0,65
太原直送,BWLS011,BWLS011,118,140109123022,太原***烟酒商行,112.507363,37.833749,1.0,2.0,111.0,31.67,2.346241849877376,2.3636106391944103,0.1416035399840003,太原直送,0.1416035399840003,山西省,太原市,万柏林区,小井峪街道,山西省太原市万柏林区小井峪街道和平南路229号恒实天和福地,112.50093428619374,37.83310879273107,168_82,112.50067794048248,37.83504182692668,1.0,7012633349.0,112.5006916,37.8345789,140109123022.0,0,0,65
太原直送,BWLS011,BWLS011,10,140109223043,太原***有限公司,112.502141,37.825491,1.0,2.0,111.0,36.67,2.355767731757103,2.373069277442404,0.1505676572441769,太原直送,0.1505676572441769,山西省,太原市,万柏林区,神堂沟街道,山西省太原市万柏林区神堂沟街道义井西路东巷万科蓝山,112.49569392988138,37.82483395034112,167_80,112.49488501226531,37.82604861651383,1.0,7840641470.0,112.4964863,37.8246798,140109223043.0,0,0,65
太原直送,BWLS011,BWLS011,95,140109223050,山西***有限公司,112.506101,37.839445,1.0,2.0,111.0,12.33,2.3412921676031813,2.360641452971839,0.1361573092712989,太原直送,0.1361573092712989,山西省,太原市,万柏林区,小井峪街道,山西省太原市万柏林区小井峪街道郭氏中医按摩十二院城,112.49966695767743,37.83880191550204,168_83,112.50067794048248,37.8395384321331,1.0,7012633395.0,112.4998304,37.8396556,140109223050.0,0,0,65
太原直送,BWLS011,BWLS011,178,140109123078,太原***酒便利店,112.506363,37.827379,1.0,2.0,111.0,33.67,2.352581988160243,2.3686997783030703,0.1480509067719603,太原直送,0.1480509067719603,山西省,太原市,万柏林区,小井峪街道,山西省太原市万柏林区小井峪街道新义街万科蓝山,112.4999313499928,37.826734853527626,168_80,112.50067794048248,37.82604861651383,1.0,7689962557.0,112.499882,37.8267303,140109123078.0,0,0,65
太原直送,AWLS005,AWLS005,118,140109123084,太原***鹏便利店,112.497445,37.828951,1.0,1.0,111.0,34.0,2.354078848658214,2.3741303545418444,0.1480323720271974,太原直送,0.1480323720271974,山西省,太原市,万柏林区,小井峪街道,山西省太原市万柏林区小井峪街道新义街太化·紫景天城,112.49098005463368,37.82828038830106,166_80,112.48909208404818,37.82604861651383,1.0,5764439105.0,112.4937059,37.827883,140109123084.0,0,0,65
太原直送,BWLS011,BWLS011,117,140109123101,太原***堂烟酒店,112.5094,37.832865,1.0,2.0,111.0,36.33,2.3463988751567806,2.3627298390971405,0.1422081626806285,太原直送,0.1422081626806285,山西省,太原市,万柏林区,小井峪街道,山西省太原市万柏林区小井峪街道和平南路493号沙沟天主堂,112.50297887497996,37.83223070515628,168_81,112.50067794048248,37.83054522172026,1.0,1904099392.0,112.5029131,37.831343,140109123101.0,0,0,65
太原直送,BWLS011,BWLS011,68,140109223105,太原***有限公司,112.502842,37.832921,1.0,2.0,111.0,37.33,2.348530115981696,2.3674767504269165,0.143126014005141,太原直送,0.143126014005141,山西省,太原市,万柏林区,小井峪街道,山西省太原市万柏林区小井峪街道香悦澜溪(南门),112.49639665502912,37.83226716377349,167_81,112.49488501226531,37.83054522172026,1.0,5764445980.0,112.4949339,37.8322968,140109223105.0,0,0,65
太原直送,AWLS005,AWLS005,51,140109123123,太原***乐烟酒店,112.499639,37.833281,1.0,1.0,111.0,34.33,2.349263621972637,2.369571342860347,0.1433546021584225,太原直送,0.1433546021584225,山西省,太原市,万柏林区,小井峪街道,山西省太原市万柏林区小井峪街道大井峪街公园美地,112.4931817045132,37.83261761873922,167_81,112.49488501226531,37.83054522172026,1.0,5764445983.0,112.49383,37.8324377,140109123123.0,0,0,65
太原直送,BWLS011,BWLS011,182,140109123131,太原***邻便利店,112.506872,37.830108,1.0,2.0,111.0,33.67,2.3498389232987824,2.36645996392438,0.1452774052149842,太原直送,0.1452774052149842,山西省,太原市,万柏林区,小井峪街道,山西省太原市万柏林区小井峪街道沙沟南街西部丽景,112.50044190608928,37.82946577842512,168_81,112.50067794048248,37.83054522172026,1.0,7840641501.0,112.5004612,37.8293659,140109123131.0,0,0,65
太原直送,BWLS011,BWLS011,187,140109123143,太原***烟酒商行,112.503284,37.827031,1.0,2.0,111.0,44.67,2.3539347433072595,2.371181855046133,0.1488609009276795,太原直送,0.1488609009276795,山西省,太原市,万柏林区,小井峪街道,山西省太原市万柏林区小井峪街道万科蓝山二期(西门)万科蓝山三期,112.49684099197462,37.826377601322825,167_80,112.49488501226531,37.82604861651383,1.0,7840641484.0,112.4970603,37.8269993,140109123143.0,0,0,65
太原直送,BWLS011,BWLS011,156,140109123155,太原***烟酒商行,112.504896,37.830994,1.0,2.0,111.0,41.5,2.3496610679402266,2.3672946531534675,0.144692923842185,太原直送,0.144692923842185,山西省,太原市,万柏林区,小井峪街道,山西省太原市万柏林区小井峪街道沙沟西路西部丽景,112.49845849912631,37.8303460164158,168_81,112.50067794048248,37.83054522172026,1.0,7023502549.0,112.4982548,37.8296363,140109123155.0,0,0,65
太原直送,BWLS011,BWLS011,138,140109123150,太原***烟酒商行,112.507835,37.83212,1.0,2.0,111.0,48.0,2.3476212449875686,2.364380760784942,0.1431515878116573,太原直送,0.1431515878116573,山西省,太原市,万柏林区,小井峪街道,山西省太原市万柏林区小井峪街道沙沟中街恒实天和福地,112.501408216245,37.83148094816578,168_81,112.50067794048248,37.83054522172026,1.0,11036945415.0,112.5028956,37.8312266,140109123150.0,0,0,65
