station_name,line_code,line_name,deliver_no,customer_code,customer_name,longitude,latitude,order_cycle_type,order_weekday,city_village_code,avg_order_qty,distance_to_平城直送,distance_to_灵丘中转站,distance_to_太原直送,nearest_station,distance_to_station,province,city,district,township,full_address,lon_84,lat_84,grid_id,LonGridCenter,LatGridCenter,group,customer_osmid_mapping,OSM_X,OSM_Y,BB_RETAIL_CUSTOMER_CODE,kmeans_cluster,dbscan_label,kmeans_label
太原直送,AWLS005,AWLS005,117,140109106132,太原***食品商店,112.515901,37.841654,1.0,1.0,111.0,54.33,2.335952995051271,2.3519752893927266,0.132778602135284,太原直送,0.132778602135284,山西省,太原市,万柏林区,下元街道,山西省太原市万柏林区下元街道南内环西街辅路山西三建集团有限公司,112.50950238211216,37.841040120560606,170_83,112.5122637969168,37.8395384321331,1.0,5764607170.0,112.5092649,37.8406254,140109106132.0,0,0,85
太原直送,AWLS006,AWLS006,41,140109108511,（唐***久副食便利店,112.515428,37.843483,1.0,1.0,111.0,38.67,2.334383325273936,2.3510701419608893,0.1309984344372093,太原直送,0.1309984344372093,山西省,太原市,万柏林区,下元街道,山西省太原市万柏林区下元街道众纺路纺织苑,112.50902747555376,37.84286804113752,169_84,112.50647086869964,37.84403503733952,1.0,7023513858.0,112.5088919,37.8440768,140109108511.0,0,0,85
太原直送,AWLS005,AWLS005,159,140109108513,（唐***久副食便利店,112.519202,37.846972,1.0,1.0,111.0,72.5,2.3298432651099046,2.345930571756327,0.1272285310848131,太原直送,0.1272285310848131,山西省,太原市,万柏林区,下元街道,山西省太原市万柏林区下元街道千峰南路IU酒店(太原千峰南路店),112.51281444541192,37.84636844686193,170_85,112.5122637969168,37.84853164254594,1.0,7840653443.0,112.5127391,37.8464101,140109108513.0,0,0,85
太原直送,AWLS015,AWLS015,197,140109110311,太原***月民烟店,112.511188,37.849127,1.0,1.0,111.0,15.33,2.33046777045403,2.350319172675058,0.1258507245946513,太原直送,0.1258507245946513,山西省,太原市,万柏林区,小井峪街道,山西省太原市万柏林区小井峪街道和平南路和平南路59号小区,112.5047714906674,37.84850055363792,169_85,112.50647086869964,37.84853164254594,1.0,4225827176.0,112.5047699,37.8482146,140109110311.0,0,0,85
太原直送,AWLS015,AWLS015,206,140109110835,太原***酒类商行,112.511504,37.843343,1.0,1.0,111.0,94.67,2.335816807898472,2.354032025444852,0.1315509502854321,太原直送,0.1315509502854321,山西省,太原市,万柏林区,下元街道,山西省太原市万柏林区下元街道和平南路纺织苑,112.50508932321164,37.84271655134868,169_84,112.50647086869964,37.84403503733952,1.0,7023514679.0,112.5049557,37.8422002,140109110835.0,0,0,85
太原直送,AWLS006,AWLS006,47,140109111271,太原***类经销部,112.512479,37.84694,1.0,1.0,111.0,67.0,2.3321002624632183,2.35086508851912,0.1278640551718916,太原直送,0.1278640551718916,山西省,太原市,万柏林区,下元街道,山西省太原市万柏林区下元街道众纺路69号和平南路90号院,112.506067441122,37.84631699385681,169_85,112.50647086869964,37.84853164254594,1.0,7840653450.0,112.5049545,37.8462196,140109111271.0,0,0,85
太原直送,BWLS011,BWLS011,273,140109111858,太原***酒经销部,112.508975,37.839806,1.0,2.0,111.0,66.33,2.339993629735982,2.358294677380662,0.1353819924989973,太原直送,0.1353819924989973,山西省,太原市,万柏林区,小井峪街道,山西省太原市万柏林区小井峪街道九院沙河南沿岸山西面食博物馆,112.5025514981332,37.83917152007399,168_83,112.50067794048248,37.8395384321331,1.0,8510469167.0,112.5022169,37.8393848,140109111858.0,0,0,85
太原直送,AWLS015,AWLS015,200,140109112420,（唐***虹唐久便利店,112.511286,37.84694,1.0,1.0,111.0,64.33,2.3324972097325247,2.351737776391962,0.1280077578039728,太原直送,0.1280077578039728,山西省,太原市,万柏林区,下元街道,山西省太原市万柏林区下元街道和平南路和平南路95号小区,112.50487010552489,37.846313487096246,169_85,112.50647086869964,37.84853164254594,1.0,7840653450.0,112.5049545,37.8462196,140109112420.0,0,0,85
太原直送,AWLS005,AWLS005,155,140109113276,太原***酒类商行,112.519195,37.848941,1.0,1.0,111.0,70.67,2.3279869269950777,2.344590548086594,0.1252640315812915,太原直送,0.1252640315812915,山西省,太原市,万柏林区,下元街道,山西省太原市万柏林区下元街道千峰南路鸿峰花园,112.51280718943327,37.84833774663154,170_85,112.5122637969168,37.84853164254594,1.0,4225827172.0,112.5128393,37.8484131,140109113276.0,0,0,85
太原直送,AWLS005,AWLS005,174,140109113438,太原***烟酒商行,112.518967,37.851071,1.0,1.0,111.0,64.33,2.3260518688644933,2.343303077844816,0.1231537683548505,太原直送,0.1231537683548505,山西省,太原市,万柏林区,下元街道,山西省太原市万柏林区下元街道千峰南路鸿峰花园,112.512578138527,37.85046744590581,170_85,112.5122637969168,37.84853164254594,1.0,7012151153.0,112.5125877,37.8504971,140109113438.0,0,0,85
太原直送,BWLS013,BWLS013,32,140109114181,太原***鲜便利店,112.521436,37.845003,1.0,2.0,111.0,97.0,2.330966553051548,2.345647064576429,0.12907295630379,太原直送,0.12907295630379,山西省,太原市,万柏林区,下元街道,山西省太原市万柏林区下元街道纺织街大唐四季花园,112.51505646062168,37.84440544694505,170_84,112.5122637969168,37.84403503733952,1.0,8898481092.0,112.5129788,37.8443337,140109114181.0,0,0,85
太原直送,AWLS006,AWLS006,43,140109114682,太原***庆粮油店,112.515441,37.841849,1.0,1.0,111.0,41.67,2.3359210305624605,2.3521775868690264,0.1326246385103416,太原直送,0.1326246385103416,山西省,太原市,万柏林区,下元街道,山西省太原市万柏林区下元街道众纺路山西三建集团有限公司,112.50904071437938,37.8412338190835,169_83,112.50647086869964,37.8395384321331,1.0,2002383079.0,112.5089601,37.8411019,140109114682.0,0,0,85
太原直送,AWLS006,AWLS006,58,140109115636,（唐***久副食便利店,112.515157,37.844812,1.0,1.0,111.0,67.0,2.333218981551668,2.3503600746664315,0.1297000295181161,太原直送,0.1297000295181161,山西省,太原市,万柏林区,下元街道,山西省太原市万柏林区下元街道纺织街纺织苑,112.50875534835316,37.84419646744115,169_84,112.50647086869964,37.84403503733952,1.0,8898481093.0,112.5088889,37.8441918,140109115636.0,0,0,85
太原直送,AWLS006,AWLS006,60,140109116038,太原***烟酒商店,112.515389,37.844336,1.0,1.0,111.0,25.0,2.333591310098879,2.350515788666394,0.1301525246201549,太原直送,0.1301525246201549,山西省,太原市,万柏林区,下元街道,山西省太原市万柏林区下元街道众纺路纺织苑,112.50898823553652,37.84372106433223,169_84,112.50647086869964,37.84403503733952,1.0,7023513858.0,112.5088919,37.8440768,140109116038.0,0,0,85
太原直送,AWLS006,AWLS006,55,140109116461,太原***食便利店,112.512478,37.844646,1.0,1.0,111.0,60.0,2.3342641958377386,2.3524308350055687,0.1301429922585163,太原直送,0.1301429922585163,山西省,太原市,万柏林区,下元街道,山西省太原市万柏林区下元街道纺织街纺织苑,112.5060667078127,37.84402262160852,169_84,112.50647086869964,37.84403503733952,1.0,11681071712.0,112.5050661,37.8440131,140109116461.0,0,0,85
太原直送,AWLS006,AWLS006,42,140109116699,太原***香烟商店,112.515448,37.842265,1.0,1.0,111.0,57.33,2.335526123933748,2.3518880601695265,0.1322096808444831,太原直送,0.1322096808444831,山西省,太原市,万柏林区,下元街道,山西省太原市万柏林区下元街道众纺路太原市纺织医院门诊部,112.5090476904829,37.84164990534234,169_83,112.50647086869964,37.8395384321331,1.0,2002383079.0,112.5089601,37.8411019,140109116699.0,0,0,85
太原直送,BWLS013,BWLS013,27,140109117609,太原***食便利店,112.519756,37.842804,1.0,2.0,111.0,35.33,2.333595851563417,2.3483769431862904,0.1313554098238794,太原直送,0.1313554098238794,山西省,太原市,万柏林区,下元街道,山西省太原市万柏林区下元街道千泓巷千泓花苑,112.51337087556064,37.84220135255983,170_84,112.5122637969168,37.84403503733952,1.0,3906869173.0,112.5129831,37.8442067,140109117609.0,0,0,85
太原直送,AWLS006,AWLS006,46,140109118787,太原***兴便利店,112.512308,37.842908,3.0,1.0,111.0,20.0,2.335960006438891,2.353741524693179,0.1318890497729023,太原直送,0.1318890497729023,山西省,太原市,万柏林区,下元街道,山西省太原市万柏林区下元街道众纺路86号纺织苑,112.50589629599575,37.84228384522184,169_84,112.50647086869964,37.84403503733952,1.0,5765498302.0,112.5064392,37.8416702,140109118787.0,0,0,85
太原直送,AWLS006,AWLS006,68,140109118839,太原***烟酒超市,112.515045,37.846937,1.0,1.0,111.0,53.0,2.33125114653913,2.348991043525071,0.1275952097063223,太原直送,0.1275952097063223,山西省,太原市,万柏林区,下元街道,山西省太原市万柏林区下元街道纺织北街纺织苑,112.50864269663404,37.8463214844431,169_85,112.50647086869964,37.84853164254594,1.0,7840653447.0,112.5088255,37.8462789,140109118839.0,0,0,85
太原直送,AWLS015,AWLS015,201,140109118912,太原***食便利店,112.51133,37.845388,1.0,1.0,111.0,41.67,2.333946071948106,2.352763883418179,0.1295422919127171,太原直送,0.1295422919127171,山西省,太原市,万柏林区,小井峪街道,山西省太原市万柏林区小井峪街道和平南路和平南路95号小区,112.5049144487359,37.84476136644543,169_84,112.50647086869964,37.84403503733952,1.0,7840653429.0,112.5048361,37.844852,140109118912.0,0,0,85
太原直送,BWLS013,BWLS013,28,140109118922,太原***多便利店,112.520354,37.844644,1.0,2.0,111.0,62.67,2.331661550279112,2.346681769974999,0.1294850613854703,太原直送,0.1294850613854703,山西省,太原市,万柏林区,下元街道,山西省太原市万柏林区下元街道长风艺术钢琴·小提琴(千峰校区)星光广场,112.513970746519,37.84404334002033,170_84,112.5122637969168,37.84403503733952,1.0,3906869173.0,112.5129831,37.8442067,140109118922.0,0,0,85
太原直送,BWLS011,BWLS011,276,140109118927,太原***兵烟酒店,112.510566,37.838825,1.0,2.0,111.0,54.33,2.340389785959809,2.357802891983128,0.1361494269286496,太原直送,0.1361494269286496,山西省,太原市,万柏林区,小井峪街道,山西省太原市万柏林区小井峪街道和平南路149号金诺信大厦,112.50414843679908,37.83819507305027,169_83,112.50647086869964,37.8395384321331,1.0,7840653418.0,112.5043529,37.8384815,140109118927.0,0,0,85
太原直送,BWLS012,BWLS012,120,140109118938,太原***烟酒商店,112.518978,37.838908,1.0,2.0,111.0,64.33,2.3375308877621217,2.3516118831229287,0.1352907626188815,太原直送,0.1352907626188815,山西省,太原市,万柏林区,长风西街街道,山西省太原市万柏林区长风西街街道千峰南路润景·园著,112.51259060664394,37.83830252576163,170_83,112.5122637969168,37.8395384321331,1.0,4244971232.0,112.5123705,37.8371215,140109118938.0,0,0,85
太原直送,BWLS012,BWLS012,118,140109118955,（唐***好唐久便利店,112.517915,37.840594,1.0,2.0,111.0,64.67,2.336288911941539,2.351231800220892,0.1336783553347316,太原直送,0.1336783553347316,山西省,太原市,万柏林区,长风西街街道,山西省太原市万柏林区长风西街街道海粤荟·汤之味(润景旗舰店)润景·园著,112.51152366297872,37.839985752945616,170_83,112.5122637969168,37.8395384321331,1.0,5765498298.0,112.5103361,37.8405989,140109118955.0,0,0,85
太原直送,AWLS006,AWLS006,45,140109118965,太原***食便利店,112.51294,37.842349,1.0,1.0,111.0,39.0,2.336277584312489,2.3536616632472893,0.1323744289694952,太原直送,0.1323744289694952,山西省,太原市,万柏林区,下元街道,山西省太原市万柏林区下元街道南内环西街辅路纺织苑,112.5065306520701,37.84172660937911,169_83,112.50647086869964,37.8395384321331,1.0,5765498302.0,112.5064392,37.8416702,140109118965.0,0,0,85
太原直送,BWLS013,BWLS013,30,140109118994,太原***类经销部,112.520638,37.844788,1.0,2.0,111.0,94.33,2.3314320972659663,2.3463761216916974,0.1293263432174559,太原直送,0.1293263432174559,山西省,太原市,万柏林区,下元街道,山西省太原市万柏林区下元街道纺织街星光广场,112.51425571807756,37.84418816540636,170_84,112.5122637969168,37.84403503733952,1.0,3906869173.0,112.5129831,37.8442067,140109118994.0,0,0,85
太原直送,AWLS006,AWLS006,44,140109119010,太原***庆日杂店,112.515441,37.841849,1.0,1.0,111.0,26.33,2.3359210305624605,2.3521775868690264,0.1326246385103416,太原直送,0.1326246385103416,山西省,太原市,万柏林区,下元街道,山西省太原市万柏林区下元街道众纺路山西三建集团有限公司,112.50904071437938,37.8412338190835,169_83,112.50647086869964,37.8395384321331,1.0,2002383079.0,112.5089601,37.8411019,140109119010.0,0,0,85
太原直送,AWLS005,AWLS005,114,140109119032,太原***鲜便利店,112.517948,37.841071,1.0,1.0,111.0,42.0,2.3358276903070125,2.350881235098868,0.1332002154990736,太原直送,0.1332002154990736,山西省,太原市,万柏林区,下元街道,山西省太原市万柏林区下元街道南内环西街辅路,112.51155672352304,37.84046292274992,170_83,112.5122637969168,37.8395384321331,1.0,5765498298.0,112.5103361,37.8405989,140109119032.0,0,0,85
太原直送,AWLS006,AWLS006,73,140109119061,太原***酒类商行,112.515356,37.845167,1.0,1.0,111.0,16.0,2.332818110126252,2.3499722575596533,0.1293280717593848,太原直送,0.1293280717593848,山西省,太原市,万柏林区,下元街道,山西省太原市万柏林区下元街道众纺路晶颖佳苑,112.50895501956336,37.84455210184835,169_84,112.50647086869964,37.84403503733952,1.0,8898481093.0,112.5088889,37.8441918,140109119061.0,0,0,85
太原直送,BWLS013,BWLS013,29,140109119096,太原***食便利店,112.520362,37.844788,1.0,2.0,111.0,22.0,2.3315229430417324,2.3465774191355737,0.1293408395905918,太原直送,0.1293408395905918,山西省,太原市,万柏林区,下元街道,山西省太原市万柏林区下元街道纺织街星光广场,112.51397875747328,37.84418738572035,170_84,112.5122637969168,37.84403503733952,1.0,3906869173.0,112.5129831,37.8442067,140109119096.0,0,0,85
太原直送,BWLS013,BWLS013,56,140109119150,（唐***斌唐久便利店,112.521649,37.849079,1.0,2.0,111.0,35.0,2.3270474512781187,2.3427042303485504,0.1249914926384945,太原直送,0.1249914926384945,山西省,太原市,万柏林区,下元街道,山西省太原市万柏林区下元街道后王南街三益东苑,112.51526971835509,37.84848270425898,171_85,112.51805672513396,37.84853164254594,1.0,7840653442.0,112.5142463,37.8464437,140109119150.0,0,0,85
太原直送,BWLS013,BWLS013,25,140109119173,太原***食便利店,112.520393,37.842522,1.0,2.0,111.0,30.33,2.333652556869807,2.3481056295477827,0.1316020107787072,太原直送,0.1316020107787072,山西省,太原市,万柏林区,下元街道,山西省太原市万柏林区下元街道愚公健康咨询服务部千泓花苑,112.51401013160186,37.84192111170222,170_84,112.5122637969168,37.84403503733952,1.0,1904099233.0,112.5131231,37.8399958,140109119173.0,0,0,85
太原直送,AWLS006,AWLS006,63,140109119310,太原***酒经销部,112.515396,37.843805,1.0,1.0,111.0,30.0,2.3340900597674006,2.350873472695627,0.130680670540822,太原直送,0.130680670540822,山西省,太原市,万柏林区,下元街道,山西省太原市万柏林区下元街道众纺路纺织苑,112.50899532309316,37.84318999973714,169_84,112.50647086869964,37.84403503733952,1.0,7023513858.0,112.5088919,37.8440768,140109119310.0,0,0,85
太原直送,AWLS006,AWLS006,56,140109119329,太原***生鲜超市,112.514635,37.844751,1.0,1.0,111.0,23.67,2.3334494707792555,2.3507830314763187,0.1298106229397234,太原直送,0.1298106229397234,山西省,太原市,万柏林区,下元街道,山西省太原市万柏林区下元街道纺织街纺织苑,112.5082314821307,37.84413394063701,169_84,112.50647086869964,37.84403503733952,1.0,8898481093.0,112.5088889,37.8441918,140109119329.0,0,0,85
太原直送,AWLS015,AWLS015,207,140109119438,太原***酒经销部,112.511613,37.844099,1.0,1.0,111.0,47.67,2.335067566927347,2.3534363910275977,0.1307873340044811,太原直送,0.1307873340044811,山西省,太原市,万柏林区,下元街道,山西省太原市万柏林区下元街道和平南路纺织苑,112.5051986306893,37.84347299279699,169_84,112.50647086869964,37.84403503733952,1.0,11681071712.0,112.5050661,37.8440131,140109119438.0,0,0,85
太原直送,AWLS005,AWLS005,145,140109119462,（唐***旭唐久便利店,112.518011,37.841043,1.0,1.0,111.0,45.0,2.335833359647044,2.350854469987666,0.1332237423434719,太原直送,0.1332237423434719,山西省,太原市,万柏林区,下元街道,山西省太原市万柏林区下元街道南内环西街辅路,112.51161994938872,37.84043509879579,170_83,112.5122637969168,37.8395384321331,1.0,5765498298.0,112.5103361,37.8405989,140109119462.0,0,0,85
太原直送,AWLS005,AWLS005,147,140109119507,太原***鲜便利店,112.517873,37.848072,1.0,1.0,111.0,57.0,2.329243913810873,2.346149728434655,0.1262229972746616,太原直送,0.1262229972746616,山西省,太原市,万柏林区,下元街道,山西省太原市万柏林区下元街道煤气化第二幼儿园煤气化大王小区,112.51148063530783,37.84746482933016,170_85,112.5122637969168,37.84853164254594,1.0,7840653446.0,112.5106162,37.8463085,140109119507.0,0,0,85
太原直送,BWLS012,BWLS012,143,140109119660,太原***酒便利店,112.515589,37.840923,1.0,2.0,111.0,67.33,2.3367460332428087,2.352702863551831,0.1335339058666389,太原直送,0.1335339058666389,山西省,太原市,万柏林区,长风西街街道,山西省太原市万柏林区长风西街街道润景巷润景·园著,112.509189352931,37.84030810162821,169_83,112.50647086869964,37.8395384321331,1.0,5764607170.0,112.5092649,37.8406254,140109119660.0,0,0,85
太原直送,AWLS006,AWLS006,48,140109119824,(金***汇美金虎便利店,112.515307,37.846942,1.0,1.0,111.0,50.67,2.331159583137326,2.348796146919943,0.1275653487315415,太原直送,0.1275653487315415,山西省,太原市,万柏林区,下元街道,山西省太原市万柏林区下元街道纺织北街大王综合市场,112.50890563514058,37.84632724576225,169_85,112.50647086869964,37.84853164254594,1.0,7840653447.0,112.5088255,37.8462789,140109119824.0,0,0,85
太原直送,AWLS005,AWLS005,160,140109119923,太原***鲜便利店,112.518952,37.847275,1.0,1.0,111.0,60.67,2.329639741531935,2.3459060554122764,0.1269423274759006,太原直送,0.1269423274759006,山西省,太原市,万柏林区,下元街道,山西省太原市万柏林区下元街道农家饭庄(千峰南路)千峰茶城,112.51256353203696,37.84667078391872,170_85,112.5122637969168,37.84853164254594,1.0,7840653443.0,112.5127391,37.8464101,140109119923.0,0,0,85
太原直送,BWLS012,BWLS012,137,140109119981,太原***烟酒商行,112.518822,37.836764,1.0,2.0,111.0,76.0,2.3396069511338835,2.353194943910297,0.1374402993375631,太原直送,0.1374402993375631,山西省,太原市,万柏林区,长风西街街道,山西省太原市万柏林区长风西街街道千峰南路小王小区,112.512434310322,37.83615774709666,170_82,112.5122637969168,37.83504182692668,1.0,4244971232.0,112.5123705,37.8371215,140109119981.0,0,0,85
太原直送,AWLS015,AWLS015,202,140109120000,太原***副食商店,112.511272,37.844649,1.0,1.0,111.0,97.67,2.334662271029581,2.3533104008948724,0.1302828111340872,太原直送,0.1302828111340872,山西省,太原市,万柏林区,小井峪街道,山西省太原市万柏林区小井峪街道纺织街纺织苑,112.50485632462976,37.84402207702439,169_84,112.50647086869964,37.84403503733952,1.0,7023513823.0,112.5049073,37.8440095,140109120000.0,0,0,85
太原直送,AWLS006,AWLS006,74,140109120017,太原***秀便利店,112.515796,37.844656,1.0,1.0,111.0,63.33,2.333154635042007,2.3499999590980867,0.1297971855550019,太原直送,0.1297971855550019,山西省,太原市,万柏林区,下元街道,山西省太原市万柏林区下元街道纺织街晶颖佳苑,112.5093966537643,37.84404229483858,170_84,112.5122637969168,37.84403503733952,1.0,7023513858.0,112.5088919,37.8440768,140109120017.0,0,0,85
太原直送,AWLS006,AWLS006,72,140109120065,太原***磊烟酒店,112.515348,37.845885,1.0,1.0,111.0,55.33,2.332143287625565,2.349487785515808,0.1286138965625365,太原直送,0.1286138965625365,山西省,太原市,万柏林区,下元街道,山西省太原市万柏林区下元街道众纺路晶颖佳苑,112.50894690640555,37.84527019411082,169_84,112.50647086869964,37.84403503733952,1.0,7840653447.0,112.5088255,37.8462789,140109120065.0,0,0,85
太原直送,AWLS006,AWLS006,77,140109120069,太原***祥便利店,112.512326,37.844724,1.0,1.0,111.0,59.0,2.334241125186941,2.3524887041320706,0.1300829006826021,太原直送,0.1300829006826021,山西省,太原市,万柏林区,下元街道,山西省太原市万柏林区下元街道纺织街纺织苑,112.5059141473161,37.844100188099816,169_84,112.50647086869964,37.84403503733952,1.0,11681071712.0,112.5050661,37.8440131,140109120069.0,0,0,85
太原直送,BWLS012,BWLS012,135,140109120194,太原***鲜便利店,112.518654,37.836262,1.0,2.0,111.0,62.0,2.340136278637209,2.3536614320902247,0.1379517672304353,太原直送,0.1379517672304353,山西省,太原市,万柏林区,长风西街街道,山西省太原市万柏林区长风西街街道千峰南路小王小区,112.51226577835877,37.835655190016176,170_82,112.5122637969168,37.83504182692668,1.0,4244971232.0,112.5123705,37.8371215,140109120194.0,0,0,85
太原直送,AWLS015,AWLS015,205,140109120195,太原***食便利店,112.511411,37.843936,1.0,1.0,111.0,67.33,2.33528845468242,2.353695279475661,0.1309735010336057,太原直送,0.1309735010336057,山西省,太原市,万柏林区,下元街道,山西省太原市万柏林区下元街道和平南路纺织苑,112.504995914817,37.84330937223832,169_84,112.50647086869964,37.84403503733952,1.0,7023515291.0,112.5047419,37.8438678,140109120195.0,0,0,85
太原直送,BWLS013,BWLS013,33,140109120245,太原***方烟酒店,112.520362,37.845028,1.0,2.0,111.0,30.67,2.3312963222743672,2.3464132360002097,0.1291011850681461,太原直送,0.1291011850681461,山西省,太原市,万柏林区,下元街道,山西省太原市万柏林区下元街道纺织街大唐四季花园,112.51397872928244,37.84442742421926,170_84,112.5122637969168,37.84403503733952,1.0,8898481092.0,112.5129788,37.8443337,140109120245.0,0,0,85
太原直送,AWLS006,AWLS006,76,140109120355,（唐***久副食便利店,112.512729,37.845,1.0,1.0,111.0,69.0,2.333846921329892,2.3520057815358406,0.1297628889359361,太原直送,0.1297628889359361,山西省,太原市,万柏林区,下元街道,山西省太原市万柏林区下元街道众纺路83号纺织苑A区,112.50631857576955,37.84437741435973,169_84,112.50647086869964,37.84403503733952,1.0,1904099011.0,112.5050624,37.8441814,140109120355.0,0,0,85
太原直送,AWLS005,AWLS005,157,140109120438,太原***月百货店,112.518972,37.85074,1.0,1.0,111.0,17.67,2.326362609493623,2.34352530961903,0.1234836760466705,太原直送,0.1234836760466705,山西省,太原市,万柏林区,下元街道,山西省太原市万柏林区下元街道千峰南路36号鸿峰花园,112.51258319500556,37.85013640579773,170_85,112.5122637969168,37.84853164254594,1.0,7012151153.0,112.5125877,37.8504971,140109120438.0,0,0,85
太原直送,AWLS006,AWLS006,59,140109120506,太原***食便利店,112.515317,37.844767,1.0,1.0,111.0,29.33,2.333208456436761,2.350273949432494,0.1297299639713215,太原直送,0.1297299639713215,山西省,太原市,万柏林区,下元街道,山西省太原市万柏林区下元街道纺织街晶颖佳苑,112.5089159269623,37.84415192453815,169_84,112.50647086869964,37.84403503733952,1.0,8898481093.0,112.5088889,37.8441918,140109120506.0,0,0,85
太原直送,AWLS005,AWLS005,151,140109120513,太原***食便利店,112.517008,37.848706,1.0,1.0,111.0,31.33,2.328931752381333,2.3463489734446963,0.1256586144838448,太原直送,0.1256586144838448,山西省,太原市,万柏林区,下元街道,山西省太原市万柏林区下元街道大众街煤气化大王小区,112.51061249545889,37.84809644786407,170_85,112.5122637969168,37.84853164254594,1.0,7840653446.0,112.5106162,37.8463085,140109120513.0,0,0,85
太原直送,AWLS015,AWLS015,204,140109120583,太原***龙便利店,112.511435,37.843506,1.0,1.0,111.0,59.0,2.335686013856528,2.3539711987707026,0.1313974395983421,太原直送,0.1313974395983421,山西省,太原市,万柏林区,下元街道,山西省太原市万柏林区下元街道和平南路纺织苑,112.5050200528683,37.84287937424035,169_84,112.50647086869964,37.84403503733952,1.0,7023514679.0,112.5049557,37.8422002,140109120583.0,0,0,85
太原直送,AWLS006,AWLS006,57,140109120601,太原***品便利店,112.514558,37.844721,1.0,1.0,111.0,35.67,2.333503293244945,2.3508597674425444,0.1298480092608269,太原直送,0.1298480092608269,山西省,太原市,万柏林区,下元街道,山西省太原市万柏林区下元街道纺织街纺织苑,112.50815420893886,37.84410371177134,169_84,112.50647086869964,37.84403503733952,1.0,7023513858.0,112.5088919,37.8440768,140109120601.0,0,0,85
太原直送,AWLS005,AWLS005,122,140109120664,太原***酒便利店,112.509589,37.841025,1.0,1.0,111.0,17.67,2.338639768621063,2.3570137757155702,0.1340918578437889,太原直送,0.1340918578437889,山西省,太原市,万柏林区,小井峪街道,山西省太原市万柏林区小井峪街道光华街2号庆大玻璃市场,112.50316760494586,37.84039253091344,168_83,112.50067794048248,37.8395384321331,1.0,8510469167.0,112.5022169,37.8393848,140109120664.0,0,0,85
太原直送,AWLS005,AWLS005,121,140109120665,太原***酒便利店,112.508451,37.841305,1.0,1.0,111.0,31.0,2.338754757493827,2.357654371371898,0.1339696234524836,太原直送,0.1339696234524836,山西省,太原市,万柏林区,小井峪街道,山西省太原市万柏林区小井峪街道光华街市容环卫,112.50202539741436,37.84066920182231,168_83,112.50067794048248,37.8395384321331,1.0,7215232952.0,112.5008667,37.8406617,140109120665.0,0,0,85
太原直送,AWLS006,AWLS006,53,140109120857,太原***彤便利店,112.517948,37.849997,1.0,1.0,111.0,72.33,2.3274024253285,2.344780844510628,0.1242977873535932,太原直送,0.1242977873535932,山西省,太原市,万柏林区,下元街道,山西省太原市万柏林区下元街道鸿峰花园鸿峰花园西区,112.51155567403345,37.849390358110256,170_85,112.5122637969168,37.84853164254594,1.0,4225827173.0,112.512665,37.8484104,140109120857.0,0,0,85
太原直送,AWLS015,AWLS015,199,140109120867,太原***子干果店,112.511177,37.848042,1.0,1.0,111.0,58.0,2.3314944276306973,2.3510664468759668,0.126928276034143,太原直送,0.126928276034143,山西省,太原市,万柏林区,小井峪街道,山西省太原市万柏林区小井峪街道和平南路途客中国轻居酒店(太原公元时代城店),112.5047605785242,37.84741534462288,169_85,112.50647086869964,37.84853164254594,1.0,4225827176.0,112.5047699,37.8482146,140109120867.0,0,0,85
太原直送,AWLS006,AWLS006,69,140109120891,太原***品经销部,112.515211,37.84731,1.0,1.0,111.0,56.0,2.330844208162571,2.3486151481573168,0.1272080634747645,太原直送,0.1272080634747645,山西省,太原市,万柏林区,下元街道,山西省太原市万柏林区下元街道众纺路大王综合市场,112.50880924786034,37.84669502675896,169_85,112.50647086869964,37.84853164254594,1.0,7840653447.0,112.5088255,37.8462789,140109120891.0,0,0,85
太原直送,AWLS015,AWLS015,198,140109120904,太原***饮经销部,112.511276,37.848928,1.0,1.0,111.0,51.0,2.3306260678045287,2.350390312624907,0.1260368775954068,太原直送,0.1260368775954068,山西省,太原市,万柏林区,下元街道,山西省太原市万柏林区下元街道和平南路,112.50485983470782,37.84830178041381,169_85,112.50647086869964,37.84853164254594,1.0,4225827175.0,112.5049291,37.8482204,140109120904.0,0,0,85
太原直送,AWLS015,AWLS015,203,140109120971,太原***酒便利店,112.511472,37.84396,1.0,1.0,111.0,73.0,2.33524553790174,2.353634312833026,0.1309422938931458,太原直送,0.1309422938931458,山西省,太原市,万柏林区,下元街道,山西省太原市万柏林区下元街道和平南路纺织苑,112.50505713402532,37.84333355564279,169_84,112.50647086869964,37.84403503733952,1.0,7023515291.0,112.5047419,37.8438678,140109120971.0,0,0,85
太原直送,AWLS006,AWLS006,70,140109121019,太原***果经销部,112.51536,37.846189,1.0,1.0,111.0,81.67,2.331852478824718,2.3492714540810264,0.1283100970500721,太原直送,0.1283100970500721,山西省,太原市,万柏林区,下元街道,山西省太原市万柏林区下元街道众纺路9号晶颖佳苑,112.50895891359984,37.8455742779046,169_84,112.50647086869964,37.84403503733952,1.0,7840653447.0,112.5088255,37.8462789,140109121019.0,0,0,85
太原直送,BWLS014,BWLS014,118,140109121092,太原***烟酒商行,112.521117,37.840166,1.0,2.0,111.0,87.0,2.3356398268468053,2.349191983836564,0.1339194859047726,太原直送,0.1339194859047726,山西省,太原市,万柏林区,下元街道,山西省太原市万柏林区下元街道南内环西街辅路来福花园,112.51473692386756,37.839566781398034,170_83,112.5122637969168,37.8395384321331,1.0,1904099101.0,112.5131162,37.8397576,140109121092.0,0,0,85
太原直送,AWLS006,AWLS006,75,140109121161,太原***马食品店,112.516727,37.846053,1.0,1.0,111.0,56.33,2.3315282895002585,2.348365723488782,0.1283257279581929,太原直送,0.1283257279581929,山西省,太原市,万柏林区,下元街道,山西省太原市万柏林区下元街道晶颖佳苑,112.51033080875088,37.84544220867959,170_84,112.5122637969168,37.84403503733952,1.0,7840653451.0,112.5106913,37.8447207,140109121161.0,0,0,85
太原直送,BWLS012,BWLS012,136,140109121165,太原***前堂茶馆,112.517915,37.840594,1.0,2.0,111.0,68.5,2.336288911941539,2.351231800220892,0.1336783553347316,太原直送,0.1336783553347316,山西省,太原市,万柏林区,长风西街街道,山西省太原市万柏林区长风西街街道海粤荟·汤之味(润景旗舰店)润景·园著,112.51152366297872,37.839985752945616,170_83,112.5122637969168,37.8395384321331,1.0,5765498298.0,112.5103361,37.8405989,140109121165.0,0,0,85
太原直送,AWLS005,AWLS005,185,140109121253,太原***享便利店,112.515781,37.849002,1.0,1.0,111.0,25.67,2.329058927290805,2.3470439572470694,0.1254702340198656,太原直送,0.1254702340198656,山西省,太原市,万柏林区,下元街道,山西省太原市万柏林区下元街道大众街众纺路4号院,112.50938108869984,37.84838895393663,170_85,112.5122637969168,37.84853164254594,1.0,4225827174.0,112.5087613,37.8483254,140109121253.0,0,0,85
太原直送,BWLS013,BWLS013,31,140109121308,太原***食便利店,112.520958,37.844838,1.0,2.0,111.0,43.67,2.331279588449655,2.346108540141527,0.1292603313085609,太原直送,0.1292603313085609,山西省,太原市,万柏林区,下元街道,山西省太原市万柏林区下元街道纺织街星光广场,112.51457682382588,37.84423907580439,170_84,112.5122637969168,37.84403503733952,1.0,3906869173.0,112.5129831,37.8442067,140109121308.0,0,0,85
太原直送,AWLS006,AWLS006,50,140109121349,太原***食便利店,112.517851,37.851048,1.0,1.0,111.0,62.33,2.326442736016731,2.3441346656167217,0.1232571798679495,太原直送,0.1232571798679495,山西省,太原市,万柏林区,下元街道,山西省太原市万柏林区下元街道后王街鸿峰花园,112.51145820754252,37.850441252478056,170_85,112.5122637969168,37.84853164254594,1.0,7012151153.0,112.5125877,37.8504971,140109121349.0,0,0,85
太原直送,AWLS006,AWLS006,52,140109121455,太原***鲜便利店,112.517888,37.850727,1.0,1.0,111.0,59.33,2.326733398420412,2.344326601018723,0.1235744175830897,太原直送,0.1235744175830897,山西省,太原市,万柏林区,下元街道,山西省太原市万柏林区下元街道移村南街22号鸿峰花园西区,112.51149537610952,37.85012030581529,170_85,112.5122637969168,37.84853164254594,1.0,7012151153.0,112.5125877,37.8504971,140109121455.0,0,0,85
太原直送,BWLS012,BWLS012,117,140109121498,太原***前堂烟店,112.516996,37.840822,1.0,2.0,111.0,35.67,2.3363767250377183,2.351745773595641,0.1335186460761144,太原直送,0.1335186460761144,山西省,太原市,万柏林区,长风西街街道,山西省太原市万柏林区长风西街街道润景·园著(北门),112.5106013801289,37.84021114940005,170_83,112.5122637969168,37.8395384321331,1.0,5765498298.0,112.5103361,37.8405989,140109121498.0,0,0,85
太原直送,BWLS012,BWLS012,142,140109121513,太原***萱烟酒店,112.516778,37.840803,1.0,2.0,111.0,66.0,2.3364666009333384,2.3519177437061827,0.1335545762038847,太原直送,0.1335545762038847,山西省,太原市,万柏林区,长风西街街道,山西省太原市万柏林区长风西街街道意顺得羊蝎子馆润景·园著,112.51038260764072,37.84019151852522,170_83,112.5122637969168,37.8395384321331,1.0,5765498305.0,112.5101956,37.8405286,140109121513.0,0,0,85
太原直送,BWLS014,BWLS014,25,140109121520,太原***烟酒商行,112.521019,37.839835,1.0,2.0,111.0,67.33,2.335984654122539,2.349490201225152,0.1342546786521774,太原直送,0.1342546786521774,山西省,太原市,万柏林区,长风西街街道,山西省太原市万柏林区长风西街街道蒙香楼华夏广场,112.51463862291244,37.83923545345916,170_83,112.5122637969168,37.8395384321331,1.0,1904099101.0,112.5131162,37.8397576,140109121520.0,0,0,85
太原直送,AWLS005,AWLS005,26,140109121557,太原***纳烟酒店,112.516407,37.8416,1.0,1.0,111.0,80.33,2.3358367856091733,2.351643078855716,0.1327899643986685,太原直送,0.1327899643986685,山西省,太原市,万柏林区,下元街道,山西省太原市万柏林区下元街道南内环西街91-93号山西三建集团有限公司,112.51001019343325,37.84098757440916,170_83,112.5122637969168,37.8395384321331,1.0,5765498305.0,112.5101956,37.8405286,140109121557.0,0,0,85
太原直送,AWLS005,AWLS005,223,140109121574,太原***多便利店,112.519506,37.842,3.0,1.0,111.0,17.0,2.334437337820398,2.34910953930824,0.1321725864844893,太原直送,0.1321725864844893,山西省,太原市,万柏林区,下元街道,山西省太原市万柏林区下元街道千峰南路来福花园,112.5131200952172,37.84139651510412,170_83,112.5122637969168,37.8395384321331,1.0,2002528166.0,112.5129538,37.8400569,140109121574.0,0,0,85
太原直送,AWLS005,AWLS005,16,140109121644,太原***百货商店,112.519009,37.844222,1.0,1.0,111.0,50.0,2.332503061976338,2.3479515214147835,0.1299852395351069,太原直送,0.1299852395351069,山西省,太原市,万柏林区,下元街道,山西省太原市万柏林区下元街道蜀之源老火锅(千峰南路店)星光广场,112.51262109109572,37.84361745494488,170_84,112.5122637969168,37.84403503733952,1.0,1108618464.0,112.5128209,37.8442034,140109121644.0,0,0,85
太原直送,AWLS005,AWLS005,217,140109121700,太原***泉庆商行,112.519421,37.842786,1.0,1.0,111.0,64.33,2.3337231414872286,2.3486335099853326,0.1313930250546068,太原直送,0.1313930250546068,山西省,太原市,万柏林区,下元街道,山西省太原市万柏林区下元街道千峰南路千泓花苑,112.51303470513614,37.842182398348896,170_84,112.5122637969168,37.84403503733952,1.0,3906869173.0,112.5129831,37.8442067,140109121700.0,0,0,85
太原直送,AWLS015,AWLS015,56,140109121711,太原***烟酒商行,112.511362,37.848972,1.0,1.0,111.0,58.33,2.3305559258121167,2.350297381486216,0.1259823305150313,太原直送,0.1259823305150313,山西省,太原市,万柏林区,下元街道,山西省太原市万柏林区下元街道和平南路和平南路派出所,112.50494614271337,37.84834604084769,169_85,112.50647086869964,37.84853164254594,1.0,4225827175.0,112.5049291,37.8482204,140109121711.0,0,0,85
太原直送,BWLS013,BWLS013,6,140109121716,（金***源金虎便利店,112.520093,37.84474,1.0,2.0,111.0,66.67,2.331656835543555,2.346806461278385,0.1294034590302714,太原直送,0.1294034590302714,山西省,太原市,万柏林区,下元街道,山西省太原市万柏林区下元街道千峰南路82号星光广场,112.51370882525876,37.84413861689762,170_84,112.5122637969168,37.84403503733952,1.0,3906869173.0,112.5129831,37.8442067,140109121716.0,0,0,85
太原直送,AWLS015,AWLS015,59,140109121820,太原***烟酒商行,112.511279,37.846122,1.0,1.0,111.0,76.67,2.3332708819228403,2.352300609325684,0.1288202477757253,太原直送,0.1288202477757253,山西省,太原市,万柏林区,小井峪街道,山西省太原市万柏林区小井峪街道大众街93号和平南路95号小区,112.50486317647008,37.84549533439983,169_84,112.50647086869964,37.84403503733952,1.0,7840653429.0,112.5048361,37.844852,140109121820.0,0,0,85
太原直送,AWLS006,AWLS006,78,140109121834,太原***燕便利店,112.51291,37.846888,1.0,1.0,111.0,32.67,2.3320060335517976,2.350585345218713,0.1278665073973615,太原直送,0.1278665073973615,山西省,太原市,万柏林区,下元街道,山西省太原市万柏林区下元街道纺织北街和平南路90号院,112.50650000874867,37.84626624881075,169_84,112.50647086869964,37.84403503733952,1.0,7840653450.0,112.5049545,37.8462196,140109121834.0,0,0,85
太原直送,BWLS013,BWLS013,15,140109121903,太原***品经销部,112.519893,37.844978,1.0,2.0,111.0,33.67,2.331497985394157,2.346789553319601,0.1291771311997611,太原直送,0.1291771311997611,山西省,太原市,万柏林区,下元街道,山西省太原市万柏林区下元街道纺织街八方地下商场,112.5135080989895,37.84437608840536,170_84,112.5122637969168,37.84403503733952,1.0,8898481092.0,112.5129788,37.8443337,140109121903.0,0,0,85
太原直送,BWLS012,BWLS012,55,140109121915,太原***虎烟酒店,112.516707,37.841079,1.0,2.0,111.0,60.0,2.336229504501644,2.351780675557354,0.133285055021182,太原直送,0.133285055021182,山西省,太原市,万柏林区,长风西街街道,山西省太原市万柏林区长风西街街道南内环西街辅路润景·园著,112.51031132267244,37.84046735745267,170_83,112.5122637969168,37.8395384321331,1.0,5765498305.0,112.5101956,37.8405286,140109121915.0,0,0,85
太原直送,BWLS014,BWLS014,8,140109121935,太原***鲜便利店,112.521096,37.840322,1.0,2.0,111.0,31.0,2.335499368807021,2.349100368784823,0.1337646233127409,太原直送,0.1337646233127409,山西省,太原市,万柏林区,下元街道,山西省太原市万柏林区下元街道南内环西街53号来福花园,112.51471583275296,37.83972274683848,170_83,112.5122637969168,37.8395384321331,1.0,1904099101.0,112.5131162,37.8397576,140109121935.0,0,0,85
太原直送,AWLS006,AWLS006,18,140109121941,太原***梅烟酒店,112.512809,37.844984,1.0,1.0,111.0,43.0,2.333835442619081,2.351958227498522,0.1297698344647181,太原直送,0.1297698344647181,山西省,太原市,万柏林区,下元街道,山西省太原市万柏林区下元街道众纺路83号纺织苑,112.5063988673999,37.844361646228975,169_84,112.50647086869964,37.84403503733952,1.0,1904099011.0,112.5050624,37.8441814,140109121941.0,0,0,85
太原直送,BWLS011,BWLS011,396,140109121965,太原***鸿便利店,112.511005,37.837799,1.0,2.0,111.0,34.33,2.341211850242522,2.358183797943878,0.1371148703824663,太原直送,0.1371148703824663,山西省,太原市,万柏林区,小井峪街道,山西省太原市万柏林区小井峪街道和平南路56号和平里,112.50458915921456,37.83717020785817,169_82,112.50647086869964,37.83504182692668,1.0,7840653418.0,112.5043529,37.8384815,140109121965.0,0,0,85
太原直送,AWLS006,AWLS006,14,140109121977,太原***利烟酒店,112.513029,37.842313,1.0,1.0,111.0,57.0,2.3362820257186425,2.353621257633648,0.1324005989261387,太原直送,0.1324005989261387,山西省,太原市,万柏林区,下元街道,山西省太原市万柏林区下元街道纺织南一条15号纺织苑,112.506619978363,37.8416908642714,169_83,112.50647086869964,37.8395384321331,1.0,5765498302.0,112.5064392,37.8416702,140109121977.0,0,0,85
太原直送,BWLS013,BWLS013,13,140109121988,太原***烟酒商行,112.521367,37.845023,1.0,2.0,111.0,55.67,2.330970355032429,2.3456836939530032,0.1290561268440992,太原直送,0.1290561268440992,山西省,太原市,万柏林区,下元街道,山西省太原市万柏林区下元街道纺织街大唐四季花园,112.51498721952498,37.84442525629311,170_84,112.5122637969168,37.84403503733952,1.0,8898481092.0,112.5129788,37.8443337,140109121988.0,0,0,85
太原直送,AWLS006,AWLS006,13,140109121989,太原***骏便利店,112.515419,37.842876,1.0,1.0,111.0,64.67,2.33495911352405,2.35149155962126,0.1316037627311642,太原直送,0.1316037627311642,山西省,太原市,万柏林区,下元街道,山西省太原市万柏林区下元街道众纺路纺织苑,112.50901851476767,37.84226091834659,169_84,112.50647086869964,37.84403503733952,1.0,2002383079.0,112.5089601,37.8411019,140109121989.0,0,0,85
太原直送,AWLS005,AWLS005,28,140109122043,太原***卓便利店,112.516709,37.848759,1.0,1.0,111.0,52.67,2.328980731586241,2.346531341527952,0.1256306288768754,太原直送,0.1256306288768754,山西省,太原市,万柏林区,下元街道,山西省太原市万柏林区下元街道大众街煤气化大王小区,112.51031242637708,37.848148595209565,170_85,112.5122637969168,37.84853164254594,1.0,4225827174.0,112.5087613,37.8483254,140109122043.0,0,0,85
太原直送,AWLS006,AWLS006,5,140109122088,太原***生活超市,112.515266,37.847456,1.0,1.0,111.0,34.67,2.330688231166493,2.3484753096128133,0.1270575062638937,太原直送,0.1270575062638937,山西省,太原市,万柏林区,下元街道,山西省太原市万柏林区下元街道众纺路大王综合市场,112.50886442775582,37.8468412100178,169_85,112.50647086869964,37.84853164254594,1.0,7840653447.0,112.5088255,37.8462789,140109122088.0,0,0,85
太原直送,AWLS006,AWLS006,9,140109122168,太原***副食商店,112.516482,37.844759,1.0,1.0,111.0,47.33,2.3328305005784253,2.3494286748313926,0.1296355799038165,太原直送,0.1296355799038165,山西省,太原市,万柏林区,下元街道,山西省太原市万柏林区下元街道纺织街晶颖佳苑,112.51008508897422,37.84414729409274,170_84,112.5122637969168,37.84403503733952,1.0,7840653451.0,112.5106913,37.8447207,140109122168.0,0,0,85
太原直送,AWLS006,AWLS006,7,140109122170,太原***副食商行,112.516482,37.844759,1.0,1.0,111.0,55.0,2.3328305005784253,2.3494286748313926,0.1296355799038165,太原直送,0.1296355799038165,山西省,太原市,万柏林区,下元街道,山西省太原市万柏林区下元街道纺织街晶颖佳苑,112.51008508897422,37.84414729409274,170_84,112.5122637969168,37.84403503733952,1.0,7840653451.0,112.5106913,37.8447207,140109122170.0,0,0,85
太原直送,BWLS011,BWLS011,103,140109122174,（唐***刚唐久便利店,112.511005,37.837799,1.0,2.0,111.0,36.33,2.341211850242522,2.358183797943878,0.1371148703824663,太原直送,0.1371148703824663,山西省,太原市,万柏林区,小井峪街道,山西省太原市万柏林区小井峪街道和平南路56号和平里,112.50458915921456,37.83717020785817,169_82,112.50647086869964,37.83504182692668,1.0,7840653418.0,112.5043529,37.8384815,140109122174.0,0,0,85
太原直送,AWLS006,AWLS006,10,140109122179,太原***烟酒商行,112.511404,37.845636,1.0,1.0,111.0,81.0,2.333687580503012,2.3525406185196887,0.1292870703898882,太原直送,0.1292870703898882,山西省,太原市,万柏林区,下元街道,山西省太原市万柏林区下元街道和平南路和平南路95号小区,112.50498868893357,37.8450096242171,169_84,112.50647086869964,37.84403503733952,1.0,7840653429.0,112.5048361,37.844852,140109122179.0,0,0,85
太原直送,AWLS015,AWLS015,58,140109122180,太原***珍烟酒店,112.511205,37.847315,1.0,1.0,111.0,68.33,2.332170584835505,2.351541420839738,0.1276458935022942,太原直送,0.1276458935022942,山西省,太原市,万柏林区,小井峪街道,山西省太原市万柏林区小井峪街道和平南路和平南路95号小区,112.50478876625746,37.8466883091959,169_85,112.50647086869964,37.84853164254594,1.0,7840653450.0,112.5049545,37.8462196,140109122180.0,0,0,85
太原直送,AWLS006,AWLS006,16,140109122199,太原***芳便利店,112.514544,37.845,1.0,1.0,111.0,50.67,2.3332447027746577,2.350679473469957,0.1295717339931818,太原直送,0.1295717339931818,山西省,太原市,万柏林区,下元街道,山西省太原市万柏林区下元街道青禾饺子宴纺织苑,112.50814012576755,37.84438271577485,169_84,112.50647086869964,37.84403503733952,1.0,8898481093.0,112.5088889,37.8441918,140109122199.0,0,0,85
太原直送,AWLS005,AWLS005,215,140109122227,太原***一便利店,112.519165,37.845465,1.0,1.0,111.0,55.0,2.3312781299090006,2.3469876857591303,0.1287348471393829,太原直送,0.1287348471393829,山西省,太原市,万柏林区,下元街道,山西省太原市万柏林区下元街道千峰南路八方地下商场,112.51277749269336,37.844861098538544,170_84,112.5122637969168,37.84403503733952,1.0,8898481094.0,112.5128163,37.8443281,140109122227.0,0,0,85
太原直送,AWLS006,AWLS006,11,140109122252,太原***妈便利店,112.512343,37.844696,1.0,1.0,111.0,55.67,2.334261886071269,2.352495386301531,0.1301087603084428,太原直送,0.1301087603084428,山西省,太原市,万柏林区,下元街道,山西省太原市万柏林区下元街道纺织街纺织苑,112.5059312122908,37.84407223350604,169_84,112.50647086869964,37.84403503733952,1.0,11681071712.0,112.5050661,37.8440131,140109122252.0,0,0,85
太原直送,AWLS006,AWLS006,6,140109122286,太原***利便利店,112.515394,37.843877,1.0,1.0,111.0,27.67,2.3340227796679702,2.3508257366134124,0.130609151888372,太原直送,0.130609151888372,山西省,太原市,万柏林区,下元街道,山西省太原市万柏林区下元街道众纺路纺织苑,112.50899330745868,37.843262005437694,169_84,112.50647086869964,37.84403503733952,1.0,7023513858.0,112.5088919,37.8440768,140109122286.0,0,0,85
太原直送,AWLS005,AWLS005,37,140109122343,太原***义烟酒店,112.510112,37.840401,1.0,1.0,111.0,30.67,2.339054243046318,2.357057755209229,0.1346426846323237,太原直送,0.1346426846323237,山西省,太原市,万柏林区,小井峪街道,山西省太原市万柏林区小井峪街道九院沙河北沿岸庆大玻璃市场,112.50369259230156,37.83976997943964,169_83,112.50647086869964,37.8395384321331,1.0,7215232941.0,112.5045401,37.8396495,140109122343.0,0,0,85
太原直送,AWLS006,AWLS006,8,140109122519,太原***多便利店,112.514504,37.845189,1.0,1.0,111.0,35.33,2.3330796470813,2.3505796453402703,0.129387600012521,太原直送,0.129387600012521,山西省,太原市,万柏林区,下元街道,山西省太原市万柏林区下元街道趁义塑钢铝合金装潢部纺织苑A区,112.50809995971532,37.84457162968927,169_84,112.50647086869964,37.84403503733952,1.0,8898481093.0,112.5088889,37.8441918,140109122519.0,0,0,85
太原直送,BWLS012,BWLS012,81,140109122537,（唐***唐久便利店,112.516036,37.841329,1.0,2.0,122.0,46.67,2.336215128905938,2.3520990809198468,0.1330909202199726,太原直送,0.1330909202199726,山西省,太原市,万柏林区,长风西街街道,山西省太原市万柏林区长风西街街道南内环西街润景·园著,112.509637902355,37.840715459644045,170_83,112.5122637969168,37.8395384321331,1.0,5764607170.0,112.5092649,37.8406254,140109122537.0,0,0,85
太原直送,AWLS005,AWLS005,47,140109122570,（金***忠金虎便利店,112.519397,37.842853,1.0,1.0,111.0,35.67,2.333667781874705,2.348605156704082,0.1313275862718878,太原直送,0.1313275862718878,山西省,太原市,万柏林区,下元街道,山西省太原市万柏林区下元街道千峰南路千泓花苑,112.51301061316994,37.84224934078091,170_84,112.5122637969168,37.84403503733952,1.0,3906869173.0,112.5129831,37.8442067,140109122570.0,0,0,85
太原直送,BWLS013,BWLS013,2,140109122593,太原***烟酒商行,112.519248,37.845316,1.0,2.0,111.0,47.33,2.331391430028429,2.347028996076739,0.128878342455202,太原直送,0.128878342455202,山西省,太原市,万柏林区,下元街道,山西省太原市万柏林区下元街道千峰南路八方地下商场,112.51286080139072,37.844712310799856,170_84,112.5122637969168,37.84403503733952,1.0,8898481094.0,112.5128163,37.8443281,140109122593.0,0,0,85
太原直送,AWLS015,AWLS015,81,140109122619,太原***烟酒商行,112.511603,37.84418,1.0,1.0,111.0,65.0,2.33499449896504,2.3533884253089226,0.1307081186040079,太原直送,0.1307081186040079,山西省,太原市,万柏林区,下元街道,山西省太原市万柏林区下元街道和平南路纺织苑,112.50518858476404,37.84355397632945,169_84,112.50647086869964,37.84403503733952,1.0,11681071712.0,112.5050661,37.8440131,140109122619.0,0,0,85
太原直送,BWLS013,BWLS013,1,140109122656,（唐***飞唐久便利店,112.518958,37.839011,1.0,2.0,111.0,71.33,2.337440199586933,2.3515558812411843,0.1351891890980925,太原直送,0.1351891890980925,山西省,太原市,万柏林区,长风西街街道,山西省太原市万柏林区长风西街街道千峰南路润景·园著,112.51257052428332,37.83840548489027,170_83,112.5122637969168,37.8395384321331,1.0,4244971232.0,112.5123705,37.8371215,140109122656.0,0,0,85
太原直送,BWLS012,BWLS012,141,140109220280,太原***有限公司,112.516778,37.840803,1.0,2.0,111.0,81.33,2.3364666009333384,2.3519177437061827,0.1335545762038847,太原直送,0.1335545762038847,山西省,太原市,万柏林区,长风西街街道,山西省太原市万柏林区长风西街街道意顺得羊蝎子馆润景·园著,112.51038260764072,37.84019151852522,170_83,112.5122637969168,37.8395384321331,1.0,5765498305.0,112.5101956,37.8405286,140109220280.0,0,0,85
太原直送,AWLS005,AWLS005,130,140109220494,山西***有限公司,112.518924,37.840879,3.0,1.0,111.0,16.0,2.3356874472251192,2.350301228538162,0.1333269224762926,太原直送,0.1333269224762926,山西省,太原市,万柏林区,下元街道,山西省太原市万柏林区下元街道千峰南路97号,112.51253618532968,37.84027368158173,170_83,112.5122637969168,37.8395384321331,1.0,2002528166.0,112.5129538,37.8400569,140109220494.0,0,0,85
太原直送,BWLS012,BWLS012,119,140109221187,太原***有限公司,112.51899,37.839717,1.0,2.0,111.0,68.67,2.336762977279679,2.351048920247297,0.1344825597800676,太原直送,0.1344825597800676,山西省,太原市,万柏林区,长风西街街道,山西省太原市万柏林区长风西街街道梅森凯瑟(润景园著店)润景·园著,112.51260255374048,37.8391116867651,170_83,112.5122637969168,37.8395384321331,1.0,2002528195.0,112.5129338,37.8397993,140109221187.0,0,0,85
太原直送,AWLS005,AWLS005,163,140109221280,太原***有限公司,112.519165,37.845465,1.0,1.0,111.0,77.0,2.3312781299090006,2.3469876857591303,0.1287348471393829,太原直送,0.1287348471393829,山西省,太原市,万柏林区,下元街道,山西省太原市万柏林区下元街道千峰南路八方地下商场,112.51277749269336,37.844861098538544,170_84,112.5122637969168,37.84403503733952,1.0,8898481094.0,112.5128163,37.8443281,140109221280.0,0,0,85
太原直送,AWLS005,AWLS005,10,140109221735,(石***平南路加油站,112.510779,37.840619,1.0,1.0,111.0,37.67,2.3386269197544127,2.356421667642064,0.1343428493519491,太原直送,0.1343428493519491,山西省,太原市,万柏林区,小井峪街道,山西省太原市万柏林区小井峪街道加油站(和平南路)中国石化和平南路加油站,112.5043620026364,37.83998998328981,169_83,112.50647086869964,37.8395384321331,1.0,7215232941.0,112.5045401,37.8396495,140109221735.0,0,0,85
太原直送,AWLS015,AWLS015,70,140109222274,山西***有限公司,112.511311,37.848503,1.0,1.0,111.0,32.67,2.331015120783214,2.35065424705144,0.1264540150568545,太原直送,0.1264540150568545,山西省,太原市,万柏林区,下元街道,山西省太原市万柏林区下元街道和平南路和平南路派出所,112.5048950122924,37.8478768142808,169_85,112.50647086869964,37.84853164254594,1.0,4225827175.0,112.5049291,37.8482204,140109222274.0,0,0,85
太原直送,BWLS014,BWLS014,40,140109222540,太原***责任公司,112.521096,37.840322,1.0,2.0,111.0,32.67,2.335499368807021,2.349100368784823,0.1337646233127409,太原直送,0.1337646233127409,山西省,太原市,万柏林区,下元街道,山西省太原市万柏林区下元街道南内环西街53号来福花园,112.51471583275296,37.83972274683848,170_83,112.5122637969168,37.8395384321331,1.0,1904099101.0,112.5131162,37.8397576,140109222540.0,0,0,85
太原直送,AWLS006,AWLS006,3,140109222583,太原***曼烟酒店,112.512879,37.84493,1.0,1.0,111.0,42.33,2.3338631310471074,2.351943919156664,0.1298157061568444,太原直送,0.1298157061568444,山西省,太原市,万柏林区,下元街道,山西省太原市万柏林区下元街道纺织街纺织苑,112.50646912721317,37.84430784264116,169_84,112.50647086869964,37.84403503733952,1.0,1904099011.0,112.5050624,37.8441814,140109222583.0,0,0,85
太原直送,BWLS013,BWLS013,3,140109222639,（唐***怡唐久便利店,112.520357,37.844646,1.0,2.0,111.0,47.33,2.3316586741873264,2.3466782136547795,0.1294829035239797,太原直送,0.1294829035239797,山西省,太原市,万柏林区,下元街道,山西省太原市万柏林区下元街道长风艺术钢琴·小提琴(千峰校区)星光广场,112.51397375673496,37.84404534882288,170_84,112.5122637969168,37.84403503733952,1.0,3906869173.0,112.5129831,37.8442067,140109222639.0,0,0,85
太原直送,AWLS005,AWLS005,25,140109122662,太原***烟酒商行,112.519195,37.848941,1.0,1.0,111.0,34.67,2.3279869269950777,2.344590548086594,0.1252640315812915,太原直送,0.1252640315812915,山西省,太原市,万柏林区,下元街道,山西省太原市万柏林区下元街道千峰南路鸿峰花园,112.51280718943327,37.84833774663154,170_85,112.5122637969168,37.84853164254594,1.0,4225827172.0,112.5128393,37.8484131,140109122662.0,0,0,85
太原直送,AWLS005,AWLS005,15,140109122685,太原***烟酒商行,112.519201,37.845835,1.0,1.0,111.0,58.0,2.33091695550485,2.3467084528822504,0.1283633130142698,太原直送,0.1283633130142698,山西省,太原市,万柏林区,下元街道,山西省太原市万柏林区下元街道千峰南路IU酒店(太原千峰南路店),112.51281357552712,37.84523126053377,170_84,112.5122637969168,37.84403503733952,1.0,8898481094.0,112.5128163,37.8443281,140109122685.0,0,0,85
太原直送,BWLS012,BWLS012,82,140109122798,太原***智烟酒店,112.516054,37.840674,1.0,2.0,111.0,31.33,2.336827410539769,2.3525340133679267,0.1337420707257057,太原直送,0.1337420707257057,山西省,太原市,万柏林区,长风西街街道,山西省太原市万柏林区长风西街街道阳坊胜利涮羊肉(太原润景店)润景·园著,112.50965604365372,37.84006040828605,170_83,112.5122637969168,37.8395384321331,1.0,5764607170.0,112.5092649,37.8406254,140109122798.0,0,0,85
太原直送,AWLS006,AWLS006,19,140109122829,太原***达烟酒店,112.513179,37.846826,1.0,1.0,111.0,81.0,2.331975128604292,2.3504309265600667,0.1278981496543236,太原直送,0.1278981496543236,山西省,太原市,万柏林区,下元街道,山西省太原市万柏林区下元街道纺织北街纺织苑,112.50676998926836,37.84620502628933,169_84,112.50647086869964,37.84403503733952,1.0,7840653450.0,112.5049545,37.8462196,140109122829.0,0,0,85
太原直送,AWLS005,AWLS005,40,140109122844,太原***工商户）,112.510997,37.841366,1.0,1.0,111.0,44.33,2.3378499280392204,2.355752249936733,0.1335747751074255,太原直送,0.1335747751074255,山西省,太原市,万柏林区,长风西街街道,山西省太原市万柏林区长风西街街道光华街山西启东龙城名邸商住楼,112.50458070959024,37.84073774407665,169_83,112.50647086869964,37.8395384321331,1.0,7012633309.0,112.504735,37.8406205,140109122844.0,0,0,85
太原直送,BWLS013,BWLS013,16,140109222868,太原***烟酒商行,112.519196,37.847124,1.0,2.0,111.0,38.0,2.329701757091238,2.345831080996458,0.1270772212868989,太原直送,0.1270772212868989,山西省,太原市,万柏林区,下元街道,山西省太原市万柏林区下元街道千峰南路千峰茶城,112.51280840649684,37.84652045437728,170_85,112.5122637969168,37.84853164254594,1.0,7840653443.0,112.5127391,37.8464101,140109222868.0,0,0,85
太原直送,BWLS013,BWLS013,12,140109122879,太原***宝便利店,112.521334,37.845048,1.0,2.0,111.0,34.33,2.330957597903919,2.345690651318927,0.129032673017341,太原直送,0.129032673017341,山西省,太原市,万柏林区,下元街道,山西省太原市万柏林区下元街道纺织街大唐四季花园,112.5149541023668,37.84445016755982,170_84,112.5122637969168,37.84403503733952,1.0,8898481092.0,112.5129788,37.8443337,140109122879.0,0,0,85
太原直送,AWLS006,AWLS006,1,140109122884,太原***工商户）,112.514254,37.842741,1.0,1.0,111.0,30.0,2.3354721742485007,2.352434321229824,0.1318483231785699,太原直送,0.1318483231785699,山西省,太原市,万柏林区,下元街道,山西省太原市万柏林区下元街道众纺路93号纺织苑,112.507849348613,37.84212251036966,169_84,112.50647086869964,37.84403503733952,1.0,5765498302.0,112.5064392,37.8416702,140109122884.0,0,0,85
太原直送,BWLS011,BWLS011,180,140109122899,太原***工商户）,112.510846,37.83819,1.0,2.0,111.0,44.67,2.340895784790516,2.358032525583352,0.1367456793394229,太原直送,0.1367456793394229,山西省,太原市,万柏林区,小井峪街道,山西省太原市万柏林区小井峪街道和平南路和平里,112.50442953337298,37.837560799989646,169_83,112.50647086869964,37.8395384321331,1.0,7840653418.0,112.5043529,37.8384815,140109122899.0,0,0,85
太原直送,BWLS011,BWLS011,272,140109122903,太原***烟酒商行,112.510555,37.838243,1.0,2.0,111.0,57.33,2.340942406073248,2.358208695658001,0.1367283827301416,太原直送,0.1367283827301416,山西省,太原市,万柏林区,小井峪街道,山西省太原市万柏林区小井峪街道和平南路金诺信大厦,112.50413746525324,37.83761294964674,169_83,112.50647086869964,37.8395384321331,1.0,7840653418.0,112.5043529,37.8384815,140109122903.0,0,0,85
太原直送,AWLS006,AWLS006,17,140109122959,太原***烟酒商行,112.512755,37.844995,1.0,1.0,111.0,34.33,2.333843001795967,2.351990189776524,0.1297649419065117,太原直送,0.1297649419065117,山西省,太原市,万柏林区,下元街道,山西省太原市万柏林区下元街道众纺路83号纺织苑A区,112.50634467053597,37.84437248975672,169_84,112.50647086869964,37.84403503733952,1.0,1904099011.0,112.5050624,37.8441814,140109122959.0,0,0,85
太原直送,BWLS014,BWLS014,36,140109122984,太原***品经销部,112.5216,37.84908,1.0,2.0,111.0,24.67,2.327062642440461,2.3427393182821192,0.1249927158597626,太原直送,0.1249927158597626,山西省,太原市,万柏林区,下元街道,山西省太原市万柏林区下元街道后王南街三益东苑,112.51522054893516,37.84848356694351,171_85,112.51805672513396,37.84853164254594,1.0,7840653442.0,112.5142463,37.8464437,140109122984.0,0,0,85
太原直送,AWLS005,AWLS005,32,140109123030,太原***娜便利店,112.518994,37.84424,1.0,1.0,111.0,36.0,2.3324910128671426,2.3479501529063542,0.1299682330802404,太原直送,0.1299682330802404,山西省,太原市,万柏林区,下元街道,山西省太原市万柏林区下元街道川尚串(千峰南路店)星光广场,112.51260603629314,37.84363541508801,170_84,112.5122637969168,37.84403503733952,1.0,1108618464.0,112.5128209,37.8442034,140109123030.0,0,0,85
太原直送,AWLS006,AWLS006,4,140109223034,山西***有限公司,112.513421,37.844907,1.0,1.0,111.0,34.0,2.333704895977212,2.351563509651614,0.1297795117882633,太原直送,0.1297795117882633,山西省,太原市,万柏林区,下元街道,山西省太原市万柏林区下元街道纺织街纺织苑,112.50701308992758,37.844286425044615,169_84,112.50647086869964,37.84403503733952,1.0,8898481093.0,112.5088889,37.8441918,140109223034.0,0,0,85
太原直送,BWLS013,BWLS013,4,140109123061,太原***烟酒商店,112.519284,37.844359,1.0,2.0,111.0,24.33,2.3322830768851817,2.3476572032023766,0.1298312640969052,太原直送,0.1298312640969052,山西省,太原市,万柏林区,下元街道,山西省太原市万柏林区下元街道千峰南路星光广场,112.5128970401021,37.84375525974623,170_84,112.5122637969168,37.84403503733952,1.0,1108618464.0,112.5128209,37.8442034,140109123061.0,0,0,85
太原直送,AWLS005,AWLS005,24,140109123062,太原***生活超市,112.519243,37.844276,1.0,1.0,111.0,26.0,2.3323749520360115,2.347743883819098,0.1299166401543673,太原直送,0.1299166401543673,山西省,太原市,万柏林区,下元街道,山西省太原市万柏林区下元街道千峰南路星光广场,112.51285590606672,37.84367212981852,170_84,112.5122637969168,37.84403503733952,1.0,1108618464.0,112.5128209,37.8442034,140109123062.0,0,0,85
太原直送,BWLS013,BWLS013,9,140109123087,太原***兴烟酒店,112.521118,37.84463,1.0,2.0,111.0,38.0,2.331423383395214,2.346134195141655,0.1294603514362564,太原直送,0.1294603514362564,山西省,太原市,万柏林区,下元街道,山西省太原市万柏林区下元街道纺织街晋煤悦城,112.51473740319622,37.8440314929994,170_84,112.5122637969168,37.84403503733952,1.0,3906869173.0,112.5129831,37.8442067,140109123087.0,0,0,85
太原直送,AWLS006,AWLS006,49,140109123166,（唐***鑫唐久便利店,112.517821,37.851069,1.0,1.0,111.0,55.0,2.3264328501257,2.344142276323899,0.1232385437271921,太原直送,0.1232385437271921,山西省,太原市,万柏林区,下元街道,山西省太原市万柏林区下元街道后王街鸿峰花园,112.51142809898674,37.85046216992916,170_85,112.5122637969168,37.84853164254594,1.0,7012151153.0,112.5125877,37.8504971,140109123166.0,0,0,85
太原直送,AWLS005,AWLS005,32,140109123180,太原***烟酒商行,112.519308,37.842332,1.0,1.0,111.0,34.0,2.3341890312247653,2.349026622379792,0.1318530073453007,太原直送,0.1318530073453007,山西省,太原市,万柏林区,下元街道,山西省太原市万柏林区下元街道千峰南路千泓花苑,112.51292136243212,37.84172800490798,170_83,112.5122637969168,37.8395384321331,1.0,2002528166.0,112.5129538,37.8400569,140109123180.0,0,0,85
