station_name,line_code,line_name,deliver_no,customer_code,customer_name,longitude,latitude,order_cycle_type,order_weekday,city_village_code,avg_order_qty,distance_to_平城直送,distance_to_灵丘中转站,distance_to_太原直送,nearest_station,distance_to_station,province,city,district,township,full_address,lon_84,lat_84,grid_id,LonGridCenter,LatGridCenter,group,customer_osmid_mapping,OSM_X,OSM_Y,BB_RETAIL_CUSTOMER_CODE,kmeans_cluster,dbscan_label,kmeans_label
太原直送,AWLS050,AWLS050,77,140105120734,太原***果便利店,112.608246,37.883914,1.0,1.0,111.0,29.33,2.266730447758184,2.255931927747161,0.1210727428036518,太原直送,0.1210727428036518,山西省,太原市,杏花岭区,杨家峪街道,山西省太原市杏花岭区杨家峪街道新街南二巷富康苑南区,112.60199894862994,37.88344063441362,185_93,112.59915772017418,37.88450448419733,1.0,1102894397.0,112.6021382,37.8818446,140105120734.0,0,0,31
太原直送,DWLS067,DWLS067,790,140107101615,太原***阳修车部,112.596152,37.882207,1.0,4.0,111.0,22.0,2.272011959302368,2.265832626006603,0.1147042090640094,太原直送,0.1147042090640094,山西省,太原市,杏花岭区,职工新街街道,山西省太原市杏花岭区职工新街街道迎春街首钢长钢小区,112.58991027277624,37.88173578186882,183_92,112.58757186373984,37.88000787899091,1.0,7843312075.0,112.5898921,37.8816635,140107101615.0,0,0,31
太原直送,DWLS067,DWLS067,531,140107101766,太原***宏亮商店,112.600723,37.885319,1.0,4.0,112.0,34.67,2.267658541204116,2.2603794996710125,0.1150920426267582,太原直送,0.1150920426267582,山西省,太原市,杏花岭区,职工新街街道,山西省太原市杏花岭区职工新街街道新村路馨春龙城苑,112.59447992342524,37.884848159144255,184_93,112.593364791957,37.88450448419733,1.0,7023600952.0,112.5943198,37.8853683,140107101766.0,0,0,31
太原直送,DWLS067,DWLS067,775,140107103410,太原***小小超市,112.597053,37.882236,1.0,4.0,111.0,67.67,2.2717101684644976,2.265162198856848,0.1152242658861415,太原直送,0.1152242658861415,山西省,太原市,杏花岭区,职工新街街道,山西省太原市杏花岭区职工新街街道迎春街首钢长钢小区,112.5908111675006,37.88176482188344,184_92,112.593364791957,37.88000787899091,1.0,7217345176.0,112.5911055,37.881698,140107103410.0,0,0,31
太原直送,BWLS056,BWLS056,64,140107103873,太原***晋喜商店,112.597981,37.876185,1.0,2.0,111.0,17.33,2.277193982092872,2.2686863532293264,0.1206375559599926,太原直送,0.1206375559599926,山西省,太原市,杏花岭区,大东关街道,山西省太原市杏花岭区大东关街道大东关街建材小区,112.59173971502972,37.87571272927556,184_91,112.593364791957,37.87551127378448,1.0,7843312062.0,112.5933467,37.8762558,140107103873.0,0,0,31
太原直送,BWLS055,BWLS055,55,140107103876,太原***发顺烟店,112.600135,37.875429,1.0,2.0,111.0,97.67,2.2772629890893183,2.2676604631966004,0.1225192440394547,太原直送,0.1225192440394547,山西省,太原市,杏花岭区,杨家峪街道,山西省太原市杏花岭区杨家峪街道大东关街东盛巷东昌盛东区,112.59389326122466,37.87495644563605,184_91,112.593364791957,37.87551127378448,1.0,7843312061.0,112.5941672,37.8740595,140107103876.0,0,0,31
太原直送,BWLS056,BWLS056,1,140107104509,太原***亮清商店,112.599805,37.882173,1.0,2.0,111.0,25.0,2.2709348017483864,2.2632204608338484,0.1169603481697959,太原直送,0.1169603481697959,山西省,太原市,杏花岭区,职工新街街道,山西省太原市杏花岭区职工新街街道迎春街融田绿洲,112.59356258028096,37.8817016960818,184_92,112.593364791957,37.88000787899091,1.0,7217345191.0,112.5935798,37.8809049,140107104509.0,0,0,31
太原直送,BWLS055,BWLS055,52,140107105180,太原***良小卖部,112.599766,37.876601,1.0,2.0,111.0,44.0,2.2762572727951884,2.2671123914345275,0.1213581505009031,太原直送,0.1213581505009031,山西省,太原市,杏花岭区,大东关街道,山西省太原市杏花岭区大东关街道大东关街东盛巷东昌盛东区,112.59352423671604,37.8761286948025,184_91,112.593364791957,37.87551127378448,1.0,7843312057.0,112.5933682,37.8761988,140107105180.0,0,0,31
太原直送,DWLS067,DWLS067,699,140107107083,太原***顺便利店,112.604148,37.880783,1.0,4.0,111.0,57.0,2.2709480851567254,2.2610551561826187,0.120770346629455,太原直送,0.120770346629455,山西省,太原市,杏花岭区,杨家峪街道,山西省太原市杏花岭区杨家峪街道马道坡东煤小区,112.5979039461,37.88031059644599,185_92,112.59915772017418,37.88000787899091,1.0,5353501391.0,112.5971978,37.880197,140107107083.0,0,0,31
太原直送,DWLS067,DWLS067,526,140107108218,太原***百货商店,112.600649,37.885389,1.0,4.0,111.0,35.67,2.267614259348352,2.260384442751491,0.114990928563951,太原直送,0.114990928563951,山西省,太原市,杏花岭区,职工新街街道,山西省太原市杏花岭区职工新街街道新村路肿瘤医院家属院,112.5944059406418,37.884918182325634,184_93,112.593364791957,37.88450448419733,1.0,7023600952.0,112.5943198,37.8853683,140107108218.0,0,0,31
太原直送,BWLS055,BWLS055,51,140107108327,太原***光便利店,112.599699,37.876541,1.0,2.0,111.0,57.67,2.276334720765815,2.267202269438036,0.1213662986170345,太原直送,0.1213662986170345,山西省,太原市,杏花岭区,大东关街道,山西省太原市杏花岭区大东关街道大东关街东盛巷东昌盛东区,112.59345726302836,37.876068690660325,184_91,112.593364791957,37.87551127378448,1.0,7843312057.0,112.5933682,37.8761988,140107108327.0,0,0,31
太原直送,DWLS067,DWLS067,679,140107109841,（唐***阳唐久便利店,112.604081,37.880777,1.0,4.0,111.0,62.0,2.270973980645308,2.2611075541921943,0.1207323506770175,太原直送,0.1207323506770175,山西省,太原市,杏花岭区,杨家峪街道,山西省太原市杏花岭区杨家峪街道马道坡东煤小区,112.59783698235216,37.88030461455105,185_92,112.59915772017418,37.88000787899091,1.0,5353501391.0,112.5971978,37.880197,140107109841.0,0,0,31
太原直送,DWLS067,DWLS067,869,140107110049,（金***华金虎便利店,112.60813,37.886157,1.0,4.0,111.0,36.0,2.264625568544391,2.254458807101161,0.1193356709663989,太原直送,0.1193356709663989,山西省,太原市,杏花岭区,杨家峪街道,山西省太原市杏花岭区杨家峪街道凯旋街富康苑,112.60188277565835,37.88568409843935,185_93,112.59915772017418,37.88450448419733,1.0,7843330832.0,112.6018478,37.8857139,140107110049.0,0,0,31
太原直送,DWLS067,DWLS067,896,140107112488,太原***联便利店,112.608187,37.885441,1.0,4.0,111.0,33.33,2.2652914562475166,2.2549145307831493,0.1199018066586146,太原直送,0.1199018066586146,山西省,太原市,杏花岭区,杨家峪街道,山西省太原市杏花岭区杨家峪街道剪子湾路富康苑,112.60193981600176,37.884967940997605,185_93,112.59915772017418,37.88450448419733,1.0,7546957520.0,112.6018531,37.8856253,140107112488.0,0,0,31
太原直送,DWLS067,DWLS067,518,140107112846,太原***烟酒商店,112.604726,37.885958,1.0,4.0,111.0,45.67,2.265839421576469,2.257049637589078,0.1172059286640364,太原直送,0.1172059286640364,山西省,太原市,杏花岭区,职工新街街道,山西省太原市杏花岭区职工新街街道凯旋街富康苑,112.59848102985484,37.88548636712366,185_93,112.59915772017418,37.88450448419733,1.0,7546957517.0,112.5994514,37.8856157,140107112846.0,0,0,31
太原直送,BWLS056,BWLS056,2,140107113262,太原***红副食店,112.603026,37.880679,1.0,2.0,111.0,20.0,2.271385320149136,2.261935175079956,0.1201401722364319,太原直送,0.1201401722364319,山西省,太原市,杏花岭区,职工新街街道,山西省太原市杏花岭区职工新街街道马道坡东煤小区,112.59678252131656,37.88020687388727,185_92,112.59915772017418,37.88000787899091,1.0,5353501375.0,112.5968814,37.8802139,140107113262.0,0,0,31
太原直送,DWLS067,DWLS067,614,140107113344,（唐***鑫玉唐久便利店,112.604206,37.888035,1.0,4.0,111.0,49.67,2.2640161472050018,2.25598587923417,0.1153073893252296,太原直送,0.1153073893252296,山西省,太原市,杏花岭区,杨家峪街道,山西省太原市杏花岭区杨家峪街道道场沟街华聚苑B区高层,112.59796107519036,37.887563906487685,185_94,112.59915772017418,37.88900108940375,0.0,7546957510.0,112.5972067,37.8875467,140107113344.0,0,0,31
太原直送,DWLS067,DWLS067,519,140107113936,太原***田便利店,112.60066,37.885061,1.0,4.0,111.0,48.0,2.2679235011227754,2.260603575249755,0.115250711984787,太原直送,0.115250711984787,山西省,太原市,杏花岭区,职工新街街道,山西省太原市杏花岭区职工新街街道新村路老5肿瘤医院家属院,112.5944169748792,37.88459012065609,184_93,112.593364791957,37.88450448419733,1.0,7023600952.0,112.5943198,37.8853683,140107113936.0,0,0,31
太原直送,DWLS067,DWLS067,976,140107115141,（唐***融唐久便利店,112.608567,37.881777,1.0,4.0,111.0,51.0,2.26867306947211,2.257185238096558,0.1228821981899685,太原直送,0.1228821981899685,山西省,太原市,杏花岭区,职工新街街道,山西省太原市杏花岭区职工新街街道华旗幼儿园长华湾,112.60231995202072,37.88130309573138,186_92,112.60495064839132,37.88000787899091,1.0,2016391778.0,112.6021429,37.8817206,140107115141.0,0,0,31
太原直送,BWLS055,BWLS055,53,140107115235,太原***宇粮油店,112.599881,37.876079,1.0,2.0,111.0,21.67,2.2767200973514536,2.267391952748579,0.1218457231091829,太原直送,0.1218457231091829,山西省,太原市,杏花岭区,杨家峪街道,山西省太原市杏花岭区杨家峪街道大东关街东盛巷东昌盛东区,112.59363926331166,37.87560658969274,184_91,112.593364791957,37.87551127378448,1.0,7843312057.0,112.5933682,37.8761988,140107115235.0,0,0,31
太原直送,BWLS056,BWLS056,29,140107115623,（唐***洁唐久便利店,112.597809,37.880098,1.0,2.0,111.0,62.67,2.2735174081147944,2.266097399056362,0.117385647678922,太原直送,0.117385647678922,山西省,太原市,杏花岭区,职工新街街道,山西省太原市杏花岭区职工新街街道马道坡宏泰苑小区,112.59156729409985,37.87962643580398,184_92,112.593364791957,37.88000787899091,1.0,7843312066.0,112.5928748,37.8784252,140107115623.0,0,0,31
太原直送,DWLS067,DWLS067,690,140107115716,太原***杏烟酒店,112.604072,37.880781,1.0,4.0,111.0,47.67,2.270972876366646,2.261111257137072,0.1207235398959134,太原直送,0.1207235398959134,山西省,太原市,杏花岭区,杨家峪街道,山西省太原市杏花岭区杨家峪街道马道坡东煤小区,112.59782798664672,37.88030861783907,185_92,112.59915772017418,37.88000787899091,1.0,5353501395.0,112.5971889,37.8802846,140107115716.0,0,0,31
太原直送,DWLS067,DWLS067,576,140107115886,太原***有福商店,112.606271,37.887548,1.0,4.0,111.0,21.33,2.263857796029816,2.2548339182622663,0.1170539213738707,太原直送,0.1170539213738707,山西省,太原市,杏花岭区,杨家峪街道,山西省太原市杏花岭区杨家峪街道聚诚路华聚苑A区,112.60002490989226,37.887076127275904,185_94,112.59915772017418,37.88900108940375,0.0,7546957513.0,112.5994261,37.8875582,140107115886.0,0,0,31
太原直送,DWLS067,DWLS067,539,140107116478,太原***庆丰商店,112.605501,37.885814,1.0,4.0,111.0,59.0,2.2657431815386704,2.2565908111471984,0.1178270423332423,太原直送,0.1178270423332423,山西省,太原市,杏花岭区,杨家峪街道,山西省太原市杏花岭区杨家峪街道凯旋街富康苑西区,112.59925559322416,37.88534208601405,185_93,112.59915772017418,37.88450448419733,1.0,7546957517.0,112.5994514,37.8856157,140107116478.0,0,0,31
太原直送,DWLS067,DWLS067,874,140107116485,（唐***凯唐久便利店,112.60818,37.88606,1.0,4.0,111.0,61.67,2.264703088036484,2.254490089209748,0.1194408994356636,太原直送,0.1194408994356636,山西省,太原市,杏花岭区,杨家峪街道,山西省太原市杏花岭区杨家峪街道剪子湾路富康苑,112.60193274952329,37.88558705785846,185_93,112.59915772017418,37.88450448419733,1.0,7546957520.0,112.6018531,37.8856253,140107116485.0,0,0,31
太原直送,BWLS056,BWLS056,31,140107116659,太原***丰生鲜店,112.597763,37.880054,1.0,2.0,111.0,31.0,2.2735732951327936,2.266161054218784,0.1173932077294062,太原直送,0.1173932077294062,山西省,太原市,杏花岭区,职工新街街道,山西省太原市杏花岭区职工新街街道马道坡宏泰苑小区,112.5915213074705,37.8795824284695,184_92,112.593364791957,37.88000787899091,1.0,7843312066.0,112.5928748,37.8784252,140107116659.0,0,0,31
太原直送,DWLS067,DWLS067,584,140107117469,太原***童游乐园,112.605798,37.887716,1.0,4.0,111.0,51.33,2.2638400661287927,2.2550585454318086,0.1166110224378425,太原直送,0.1166110224378425,山西省,太原市,杏花岭区,杨家峪街道,山西省太原市杏花岭区杨家峪街道聚诚路山西机械化建设集团市政工程公司,112.59955219057328,37.887244331962286,185_94,112.59915772017418,37.88900108940375,0.0,7546957513.0,112.5994261,37.8875582,140107117469.0,0,0,31
太原直送,BWLS056,BWLS056,63,140107118651,太原***车棚商店,112.597981,37.876185,1.0,2.0,111.0,16.33,2.277193982092872,2.2686863532293264,0.1206375559599926,太原直送,0.1206375559599926,山西省,太原市,杏花岭区,大东关街道,山西省太原市杏花岭区大东关街道大东关街建材小区,112.59173971502972,37.87571272927556,184_91,112.593364791957,37.87551127378448,1.0,7843312062.0,112.5933467,37.8762558,140107118651.0,0,0,31
太原直送,DWLS067,DWLS067,585,140107118727,太原***辉便利店,112.600515,37.886253,1.0,4.0,111.0,11.0,2.266831542142463,2.259883155779736,0.1142409619357229,太原直送,0.1142409619357229,山西省,太原市,杏花岭区,职工新街街道,山西省太原市杏花岭区职工新街街道新村路山西省第三人民医院,112.5942718856692,37.88578235914064,184_93,112.593364791957,37.88450448419733,1.0,4246390928.0,112.5943175,37.8854352,140107118727.0,0,0,31
太原直送,DWLS067,DWLS067,769,140107118941,（唐***王婧唐久便利店,112.597062,37.882213,1.0,4.0,111.0,49.0,2.271729342132333,2.2651716236020643,0.1152480206380952,太原直送,0.1152480206380952,山西省,太原市,杏花岭区,职工新街街道,山西省太原市杏花岭区职工新街街道迎春街首钢长钢小区,112.5908201689136,37.88174181786716,184_92,112.593364791957,37.88000787899091,1.0,7217345176.0,112.5911055,37.881698,140107118941.0,0,0,31
太原直送,DWLS067,DWLS067,927,140107119068,太原***盈鼎酒行,112.608259,37.883937,1.0,4.0,111.0,27.0,2.266704608069604,2.2559066032726114,0.1210643349298205,太原直送,0.1210643349298205,山西省,太原市,杏花岭区,杨家峪街道,山西省太原市杏花岭区杨家峪街道新街南二巷杨家峪街办剪子湾社区,112.6020119361813,37.88346363264878,185_93,112.59915772017418,37.88450448419733,1.0,1102894397.0,112.6021382,37.8818446,140107119068.0,0,0,31
太原直送,DWLS067,DWLS067,594,140107119157,太原***鲜便利店,112.604206,37.888035,1.0,4.0,111.0,43.67,2.2640161472050018,2.25598587923417,0.1153073893252296,太原直送,0.1153073893252296,山西省,太原市,杏花岭区,杨家峪街道,山西省太原市杏花岭区杨家峪街道道场沟街华聚苑B区高层,112.59796107519036,37.887563906487685,185_94,112.59915772017418,37.88900108940375,0.0,7546957510.0,112.5972067,37.8875467,140107119157.0,0,0,31
太原直送,BWLS056,BWLS056,65,140107119202,太原***生活超市,112.597981,37.876185,1.0,2.0,111.0,51.0,2.277193982092872,2.2686863532293264,0.1206375559599926,太原直送,0.1206375559599926,山西省,太原市,杏花岭区,大东关街道,山西省太原市杏花岭区大东关街道大东关街建材小区,112.59173971502972,37.87571272927556,184_91,112.593364791957,37.87551127378448,1.0,7843312062.0,112.5933467,37.8762558,140107119202.0,0,0,31
太原直送,BWLS056,BWLS056,70,140107119206,（唐***军唐久便利店,112.600653,37.878396,1.0,2.0,111.0,35.33,2.274278131571641,2.265228078320152,0.1204612751426714,太原直送,0.1204612751426714,山西省,太原市,杏花岭区,大东关街道,山西省太原市杏花岭区大东关街道新原里东区北巷宜佳·上东城,112.59441074895048,37.87792391121807,184_92,112.593364791957,37.88000787899091,1.0,7843312082.0,112.5949395,37.8766458,140107119206.0,0,0,31
太原直送,BWLS055,BWLS055,50,140107119232,太原***森烟酒店,112.599634,37.876647,1.0,2.0,111.0,59.33,2.276253334852913,2.267175495338642,0.1212424508866395,太原直送,0.1212424508866395,山西省,太原市,杏花岭区,大东关街道,山西省太原市杏花岭区大东关街道大东关街东盛巷东昌盛东区,112.59339226930844,37.87617471583872,184_91,112.593364791957,37.87551127378448,1.0,7843312057.0,112.5933682,37.8761988,140107119232.0,0,0,31
太原直送,BWLS056,BWLS056,30,140107119335,（金***译金虎便利店,112.597763,37.880054,1.0,2.0,111.0,50.67,2.2735732951327936,2.266161054218784,0.1173932077294062,太原直送,0.1173932077294062,山西省,太原市,杏花岭区,职工新街街道,山西省太原市杏花岭区职工新街街道马道坡宏泰苑小区,112.5915213074705,37.8795824284695,184_92,112.593364791957,37.88000787899091,1.0,7843312066.0,112.5928748,37.8784252,140107119335.0,0,0,31
太原直送,DWLS067,DWLS067,720,140107119364,太原***烟酒商行,112.599361,37.882007,1.0,4.0,111.0,58.33,2.2712275626339133,2.263655654494513,0.1168162005887867,太原直送,0.1168162005887867,山西省,太原市,杏花岭区,职工新街街道,山西省太原市杏花岭区职工新街街道黄家医圈肿瘤康复中心万嘉广场,112.59311872414972,37.88153570671542,184_92,112.593364791957,37.88000787899091,1.0,7217345191.0,112.5935798,37.8809049,140107119364.0,0,0,31
太原直送,BWLS056,BWLS056,69,140107119424,太原***好加盟店,112.601005,37.877716,1.0,2.0,111.0,46.0,2.274820035498412,2.265446538738443,0.1212150752711883,太原直送,0.1212150752711883,山西省,太原市,杏花岭区,大东关街道,山西省太原市杏花岭区大东关街道新原里东区北巷宜佳·上东城,112.594762704438,37.877243737654005,184_91,112.593364791957,37.87551127378448,1.0,7843312082.0,112.5949395,37.8766458,140107119424.0,0,0,31
太原直送,BWLS056,BWLS056,66,140107119437,太原***宇彤商店,112.597929,37.876234,1.0,2.0,111.0,56.0,2.27716304063302,2.2686898096077446,0.1205673802361128,太原直送,0.1205673802361128,山西省,太原市,杏花岭区,大东关街道,山西省太原市杏花岭区大东关街道大东关街建材小区,112.59168771920923,37.87576173911882,184_91,112.593364791957,37.87551127378448,1.0,7843312062.0,112.5933467,37.8762558,140107119437.0,0,0,31
太原直送,DWLS067,DWLS067,802,140107119567,太原***方烟酒店,112.596134,37.882225,1.0,4.0,111.0,23.0,2.272000294454425,2.265833164711819,0.1146790076910368,太原直送,0.1146790076910368,山西省,太原市,杏花岭区,职工新街街道,山西省太原市杏花岭区职工新街街道迎春街首钢长钢小区,112.58989227226014,37.88175378408374,183_92,112.58757186373984,37.88000787899091,1.0,7843312075.0,112.5898921,37.8816635,140107119567.0,0,0,31
太原直送,BWLS056,BWLS056,67,140107119692,太原***利店二部,112.599636,37.876795,1.0,2.0,111.0,54.67,2.2761116583869483,2.267071341304454,0.1211249088874784,太原直送,0.1211249088874784,山西省,太原市,杏花岭区,大东关街道,山西省太原市杏花岭区大东关街道大东关街宜佳·上东城,112.59339425161002,37.87632274214389,184_91,112.593364791957,37.87551127378448,1.0,7843312062.0,112.5933467,37.8762558,140107119692.0,0,0,31
太原直送,DWLS067,DWLS067,672,140107119701,太原***恒烟酒行,112.602006,37.880656,1.0,4.0,111.0,59.33,2.2717150119805924,2.2626857550842048,0.1195177674573942,太原直送,0.1195177674573942,山西省,太原市,杏花岭区,职工新街街道,山西省太原市杏花岭区职工新街街道马道坡中国石油马道坡加油站(马道坡街),112.59576297611542,37.88018409250149,184_92,112.593364791957,37.88000787899091,1.0,5353501375.0,112.5968814,37.8802139,140107119701.0,0,0,31
太原直送,DWLS067,DWLS067,527,140107119725,太原***盛峰商店,112.605493,37.885785,1.0,4.0,111.0,56.0,2.26577324442496,2.256616680473893,0.1178434256290917,太原直送,0.1178434256290917,山西省,太原市,杏花岭区,杨家峪街道,山西省太原市杏花岭区杨家峪街道凯旋街富康苑西区,112.59924760142847,37.88531308344557,185_93,112.59915772017418,37.88450448419733,1.0,7546957517.0,112.5994514,37.8856157,140107119725.0,0,0,31
太原直送,BWLS056,BWLS056,50,140107119760,太原***价便利店,112.596015,37.882126,1.0,2.0,111.0,29.67,2.272130828311831,2.265987578836657,0.1146868552755675,太原直送,0.1146868552755675,山西省,太原市,杏花岭区,职工新街街道,山西省太原市杏花岭区职工新街街道迎春街太原铁路迎春小区,112.589773293623,37.88165475872229,183_92,112.58757186373984,37.88000787899091,1.0,7843312075.0,112.5898921,37.8816635,140107119760.0,0,0,31
太原直送,BWLS055,BWLS055,54,140107119783,太原***瑶便利店,112.600078,37.875605,1.0,2.0,111.0,87.67,2.277112425440826,2.267579266933794,0.1223438534173216,太原直送,0.1223438534173216,山西省,太原市,杏花岭区,杨家峪街道,山西省太原市杏花岭区杨家峪街道大东关街东盛巷东昌盛东区,112.59383625851795,37.87513248356377,184_91,112.593364791957,37.87551127378448,1.0,7843312061.0,112.5941672,37.8740595,140107119783.0,0,0,31
太原直送,DWLS067,DWLS067,755,140107119872,（唐***新春唐久便利店,112.601897,37.883839,1.0,4.0,111.0,57.0,2.2687137246122515,2.2605576668700595,0.1169807147866623,太原直送,0.1169807147866623,山西省,太原市,杏花岭区,职工新街街道,山西省太原市杏花岭区职工新街街道新街南二巷馨春龙城苑,112.59565365247876,37.883367692582425,184_93,112.593364791957,37.88450448419733,1.0,4246390949.0,112.5967502,37.8833194,140107119872.0,0,0,31
太原直送,DWLS067,DWLS067,554,140107119937,太原***娱乐中心,112.605946,37.886106,1.0,4.0,111.0,50.0,2.265330737975804,2.256067670496829,0.1179051863914412,太原直送,0.1179051863914412,山西省,太原市,杏花岭区,杨家峪街道,山西省太原市杏花岭区杨家峪街道凯旋街华聚苑A区,112.5997002844675,37.88563398205285,185_93,112.59915772017418,37.88450448419733,1.0,7546957517.0,112.5994514,37.8856157,140107119937.0,0,0,31
太原直送,DWLS067,DWLS067,857,140107120008,太原***烟酒商店,112.60787,37.886143,1.0,4.0,111.0,71.67,2.2647169809839376,2.2546557874921804,0.1191700169044256,太原直送,0.1191700169044256,山西省,太原市,杏花岭区,杨家峪街道,山西省太原市杏花岭区杨家峪街道凯旋街富康苑,112.60162296949665,37.885670212517056,185_93,112.59915772017418,37.88450448419733,1.0,7843330832.0,112.6018478,37.8857139,140107120008.0,0,0,31
太原直送,DWLS067,DWLS067,628,140107120033,太原***好便利店,112.608795,37.887882,1.0,4.0,111.0,62.0,2.262780505282164,2.252783304622528,0.1185287801548645,太原直送,0.1185287801548645,山西省,太原市,杏花岭区,杨家峪街道,山西省太原市杏花岭区杨家峪街道道场沟街富康苑北区,112.6025470679052,37.887409105301295,186_94,112.60495064839132,37.88900108940375,0.0,7546957515.0,112.6016396,37.8875721,140107120033.0,0,0,31
太原直送,DWLS067,DWLS067,935,140107120046,（唐***鑫唐久便利店,112.608253,37.88398,1.0,4.0,111.0,63.0,2.266665385648482,2.255881068402759,0.1210283560534483,太原直送,0.1210283560534483,山西省,太原市,杏花岭区,杨家峪街道,山西省太原市杏花岭区杨家峪街道剪子湾路杨家峪街办剪子湾社区,112.60200593571616,37.8835066432615,185_93,112.59915772017418,37.88450448419733,1.0,1102894397.0,112.6021382,37.8818446,140107120046.0,0,0,31
太原直送,BWLS056,BWLS056,45,140107120052,太原***安便利店,112.595357,37.879597,1.0,2.0,111.0,54.0,2.274740095529157,2.2682130254808475,0.1163351873338467,太原直送,0.1163351873338467,山西省,太原市,杏花岭区,职工新街街道,山西省太原市杏花岭区职工新街街道马道坡太原铁路迎春小区,112.58911562661712,37.87912524855054,183_92,112.58757186373984,37.88000787899091,1.0,5353501397.0,112.5892664,37.8791147,140107120052.0,0,0,31
太原直送,DWLS067,DWLS067,27,140107120068,太原***食品商行,112.600285,37.880712,1.0,4.0,111.0,91.33,2.2721818547697685,2.2638869278093345,0.1184054535272726,太原直送,0.1184054535272726,山西省,太原市,杏花岭区,职工新街街道,山西省太原市杏花岭区职工新街街道马道坡铁路宿舍东站小区,112.59404260230534,37.880240377208125,184_92,112.593364791957,37.88000787899091,1.0,7217345191.0,112.5935798,37.8809049,140107120068.0,0,0,31
太原直送,DWLS067,DWLS067,532,140107120084,太原***盛峰商店,112.605512,37.885845,1.0,4.0,111.0,68.33,2.2657103079663505,2.256561393306189,0.1178111606130752,太原直送,0.1178111606130752,山西省,太原市,杏花岭区,杨家峪街道,山西省太原市杏花岭区杨家峪街道凯旋街富康苑西区,112.59926658296564,37.88537308791182,185_93,112.59915772017418,37.88450448419733,1.0,7546957517.0,112.5994514,37.8856157,140107120084.0,0,0,31
太原直送,DWLS067,DWLS067,642,140107120101,太原***英便利店,112.60799,37.887645,1.0,4.0,111.0,56.33,2.263248286462844,2.253527677012198,0.1181496957803954,太原直送,0.1181496957803954,山西省,太原市,杏花岭区,杨家峪街道,山西省太原市杏花岭区杨家峪街道剪子湾路富康苑北区,112.60174270718882,37.88717243568434,185_94,112.59915772017418,37.88900108940375,0.0,7546957515.0,112.6016396,37.8875721,140107120101.0,0,0,31
太原直送,DWLS067,DWLS067,564,140107120164,太原***拾号商店,112.606128,37.886533,1.0,4.0,111.0,44.0,2.2648687568636285,2.255640491816016,0.1177092406100702,太原直送,0.1177092406100702,山西省,太原市,杏花岭区,杨家峪街道,山西省太原市杏花岭区杨家峪街道华聚苑华聚苑A区,112.59988211948924,37.88606099373644,185_93,112.59915772017418,37.88450448419733,1.0,7546957517.0,112.5994514,37.8856157,140107120164.0,0,0,31
太原直送,DWLS067,DWLS067,970,140107120212,太原***民百货店,112.607042,37.882267,1.0,4.0,111.0,55.0,2.2686627722984727,2.257941953296403,0.1215088144004417,太原直送,0.1215088144004417,山西省,太原市,杏花岭区,职工新街街道,山西省太原市杏花岭区职工新街街道迎春街金林雅苑,112.60079600676931,37.88179385667268,185_92,112.59915772017418,37.88000787899091,1.0,1102894397.0,112.6021382,37.8818446,140107120212.0,0,0,31
太原直送,BWLS056,BWLS056,71,140107120248,太原***琴便利店,112.601017,37.87766,1.0,2.0,111.0,35.0,2.274869798117027,2.265476769558673,0.1212668308524624,太原直送,0.1212668308524624,山西省,太原市,杏花岭区,大东关街道,山西省太原市杏花岭区大东关街道新原里东区北巷宜佳·上东城,112.59477470659854,37.87718772575575,184_91,112.593364791957,37.87551127378448,1.0,7843312082.0,112.5949395,37.8766458,140107120248.0,0,0,31
太原直送,DWLS067,DWLS067,961,140107120249,太原***烟酒商行,112.607675,37.882378,1.0,4.0,111.0,90.0,2.2683669860930755,2.2574093936373134,0.1218417627457812,太原直送,0.1218417627457812,山西省,太原市,杏花岭区,杨家峪街道,山西省太原市杏花岭区杨家峪街道迎春街242号富康苑新区,112.60142854749851,37.88190460961238,185_92,112.59915772017418,37.88000787899091,1.0,1102894397.0,112.6021382,37.8818446,140107120249.0,0,0,31
太原直送,DWLS067,DWLS067,762,140107120278,（金***阳阳金虎便利店,112.601897,37.883839,1.0,4.0,111.0,44.0,2.2687137246122515,2.2605576668700595,0.1169807147866623,太原直送,0.1169807147866623,山西省,太原市,杏花岭区,职工新街街道,山西省太原市杏花岭区职工新街街道新街南二巷馨春龙城苑,112.59565365247876,37.883367692582425,184_93,112.593364791957,37.88450448419733,1.0,4246390949.0,112.5967502,37.8833194,140107120278.0,0,0,31
太原直送,DWLS067,DWLS067,739,140107120305,太原***副食商行,112.60157,37.883765,1.0,4.0,111.0,67.33,2.268883156968868,2.260844730630571,0.1168295528237592,太原直送,0.1168295528237592,山西省,太原市,杏花岭区,职工新街街道,山西省太原市杏花岭区职工新街街道新街南二巷馨春龙城苑,112.5953267919122,37.88329373952052,184_93,112.593364791957,37.88450448419733,1.0,4246390938.0,112.5943917,37.8832695,140107120305.0,0,0,31
太原直送,BWLS056,BWLS056,5,140107120384,太原***烟酒商行,112.601498,37.877285,1.0,2.0,111.0,57.33,2.275082129730042,2.265390879470466,0.1218570924854213,太原直送,0.1218570924854213,山西省,太原市,杏花岭区,大东关街道,山西省太原市杏花岭区大东关街道大东关街宜佳·上东城,112.59525557019444,37.87681257940682,184_91,112.593364791957,37.87551127378448,1.0,7843312082.0,112.5949395,37.8766458,140107120384.0,0,0,31
太原直送,DWLS067,DWLS067,92,140107120474,太原***贝便利店,112.605903,37.887263,1.0,4.0,111.0,24.33,2.2642403890558995,2.2552967291700243,0.1170168983523313,太原直送,0.1170168983523313,山西省,太原市,杏花岭区,杨家峪街道,山西省太原市杏花岭区杨家峪街道聚诚路华聚苑A区,112.59965717746336,37.886791210641015,185_94,112.59915772017418,37.88900108940375,0.0,7546957513.0,112.5994261,37.8875582,140107120474.0,0,0,31
太原直送,DWLS067,DWLS067,83,140107120491,太原***晓丽奶站,112.607435,37.886115,1.0,4.0,111.0,37.0,2.2648743451750293,2.2549885540651906,0.118897004789858,太原直送,0.118897004789858,山西省,太原市,杏花岭区,杨家峪街道,山西省太原市杏花岭区杨家峪街道凯旋街富康苑,112.60118828632667,37.88564239631039,185_93,112.59915772017418,37.88450448419733,1.0,7843330832.0,112.6018478,37.8857139,140107120491.0,0,0,31
太原直送,DWLS067,DWLS067,154,140107120502,太原***生鲜超市,112.608295,37.882293,1.0,4.0,111.0,35.33,2.268262233546204,2.257022390650348,0.1223153567791057,太原直送,0.1223153567791057,山西省,太原市,杏花岭区,职工新街街道,山西省太原市杏花岭区职工新街街道迎春街富康苑高层,112.60204809950562,37.88181931636818,185_92,112.59915772017418,37.88000787899091,1.0,1102894397.0,112.6021382,37.8818446,140107120502.0,0,0,31
太原直送,DWLS067,DWLS067,153,140107120544,太原***烟酒商行,112.598881,37.882233,1.0,4.0,111.0,61.67,2.2711577766064583,2.263845317869792,0.116342450739189,太原直送,0.116342450739189,山西省,太原市,杏花岭区,职工新街街道,山西省太原市杏花岭区职工新街街道迎春街紫鑫云锦,112.5926388203404,37.88176178227531,184_92,112.593364791957,37.88000787899091,1.0,4246775000.0,112.5918613,37.881789,140107120544.0,0,0,31
太原直送,DWLS067,DWLS067,73,140107120582,太原***辰便利店,112.605638,37.88227,1.0,4.0,111.0,63.67,2.269081672325173,2.2589504116586983,0.1205897091546365,太原直送,0.1205897091546365,山西省,太原市,杏花岭区,职工新街街道,山西省太原市杏花岭区职工新街街道迎春街金林雅苑,112.5993929202254,37.881797390606415,185_92,112.59915772017418,37.88000787899091,1.0,7023603573.0,112.5991771,37.880698,140107120582.0,0,0,31
太原直送,DWLS067,DWLS067,89,140107120586,太原***欣烟酒店,112.604399,37.885999,1.0,4.0,111.0,43.33,2.265898948011584,2.2572569788513217,0.1169593193037653,太原直送,0.1169593193037653,山西省,太原市,杏花岭区,职工新街街道,山西省太原市杏花岭区职工新街街道凯旋街馨春龙城苑,112.59815420662014,37.88552747451813,185_93,112.59915772017418,37.88450448419733,1.0,4246390925.0,112.5972081,37.8855719,140107120586.0,0,0,31
太原直送,BWLS056,BWLS056,19,140107120603,太原***兴烟酒店,112.601005,37.877716,1.0,2.0,111.0,78.0,2.274820035498412,2.265446538738443,0.1212150752711883,太原直送,0.1212150752711883,山西省,太原市,杏花岭区,大东关街道,山西省太原市杏花岭区大东关街道新原里东区北巷宜佳·上东城,112.594762704438,37.877243737654005,184_91,112.593364791957,37.87551127378448,1.0,7843312082.0,112.5949395,37.8766458,140107120603.0,0,0,31
太原直送,DWLS067,DWLS067,98,140107120633,太原***青烟酒店,112.605573,37.888007,1.0,4.0,112.0,43.33,2.263630403988244,2.2550191983016385,0.1162443740402109,太原直送,0.1162443740402109,山西省,太原市,杏花岭区,杨家峪街道,山西省太原市杏花岭区杨家峪街道道场沟街山西机械化建设集团市政工程公司,112.59932729541497,37.88753546503597,185_94,112.59915772017418,37.88900108940375,0.0,7546957513.0,112.5994261,37.8875582,140107120633.0,0,0,31
太原直送,DWLS067,DWLS067,169,140107120647,太原***生活超市,112.601906,37.883748,1.0,4.0,111.0,32.67,2.268797743565964,2.2606142307392925,0.1170565580990666,太原直送,0.1170565580990666,山西省,太原市,杏花岭区,职工新街街道,山西省太原市杏花岭区职工新街街道新街南二巷馨春龙城苑,112.59566265933135,37.88327667423161,184_93,112.593364791957,37.88450448419733,1.0,4246390949.0,112.5967502,37.8833194,140107120647.0,0,0,31
太原直送,DWLS067,DWLS067,69,140107120648,太原***离烟酒店,112.608292,37.883841,1.0,4.0,111.0,61.33,2.2667862971072066,2.2559495040164315,0.1211577830970887,太原直送,0.1211577830970887,山西省,太原市,杏花岭区,杨家峪街道,山西省太原市杏花岭区杨家峪街道剪子湾路富康苑南区,112.60204492242757,37.88336759993023,185_93,112.59915772017418,37.88450448419733,1.0,1102894397.0,112.6021382,37.8818446,140107120648.0,0,0,31
太原直送,DWLS067,DWLS067,104,140107120659,太原***酒便利店,112.608152,37.886746,1.0,4.0,111.0,68.67,2.2640571319332867,2.2540343934946896,0.1189180166753547,太原直送,0.1189180166753547,山西省,太原市,杏花岭区,杨家峪街道,山西省太原市杏花岭区杨家峪街道剪子湾路睿思幼儿园,112.60190469098268,37.886273196804,185_93,112.59915772017418,37.88450448419733,1.0,7843330832.0,112.6018478,37.8857139,140107120659.0,0,0,31
太原直送,BWLS055,BWLS055,16,140107120711,太原***涵便利店,112.600135,37.875429,1.0,2.0,111.0,25.67,2.2772629890893183,2.2676604631966004,0.1225192440394547,太原直送,0.1225192440394547,山西省,太原市,杏花岭区,杨家峪街道,山西省太原市杏花岭区杨家峪街道大东关街东盛巷东昌盛东区,112.59389326122466,37.87495644563605,184_91,112.593364791957,37.87551127378448,1.0,7843312061.0,112.5941672,37.8740595,140107120711.0,0,0,31
太原直送,BWLS056,BWLS056,18,140107120782,太原***度烟酒店,112.60029,37.87701,1.0,2.0,111.0,39.67,2.275709029309767,2.266451286378111,0.1213448330090742,太原直送,0.1213448330090742,山西省,太原市,杏花岭区,大东关街道,山西省太原市杏花岭区大东关街道大东关街宜佳·上东城,112.5940480292694,37.87653770974765,184_91,112.593364791957,37.87551127378448,1.0,7843312062.0,112.5933467,37.8762558,140107120782.0,0,0,31
太原直送,BWLS055,BWLS055,15,140107120880,太原***亮便利店,112.600003,37.875783,1.0,2.0,111.0,32.0,2.27696539832998,2.2675096483686668,0.1221561693079809,太原直送,0.1221561693079809,山西省,太原市,杏花岭区,杨家峪街道,山西省太原市杏花岭区杨家峪街道大东关街东盛巷东昌盛东区,112.59376126088236,37.87531052371397,184_91,112.593364791957,37.87551127378448,1.0,7843312057.0,112.5933682,37.8761988,140107120880.0,0,0,31
太原直送,DWLS067,DWLS067,174,140107120920,太原***云烟酒行,112.594425,37.882119,1.0,4.0,122.0,79.33,2.272622175187944,2.2671405394736737,0.1137468786384896,太原直送,0.1137468786384896,山西省,太原市,杏花岭区,职工新街街道,山西省太原市杏花岭区职工新街街道迎春街贝壳酒店(太原赛马场省肿瘤医院店),112.58818334953394,37.88164759902487,183_92,112.58757186373984,37.88000787899091,1.0,7843312067.0,112.587973,37.881609,140107120920.0,0,0,31
太原直送,DWLS067,DWLS067,148,140107120925,太原***烟酒商行,112.601428,37.883744,1.0,4.0,122.0,50.67,2.268946131882817,2.260961678391077,0.1167555473028988,太原直送,0.1167555473028988,山西省,太原市,杏花岭区,职工新街街道,山西省太原市杏花岭区职工新街街道新街南二巷馨春龙城苑,112.59518484933211,37.88327276050615,184_93,112.593364791957,37.88450448419733,1.0,4246390938.0,112.5943917,37.8832695,140107120925.0,0,0,31
太原直送,BWLS055,BWLS055,13,140107120937,太原***嘉烟酒店,112.600163,37.875341,1.0,2.0,111.0,56.67,2.2773384238140824,2.2677014256698373,0.122606652772185,太原直送,0.122606652772185,山西省,太原市,杏花岭区,杨家峪街道,山西省太原市杏花岭区杨家峪街道大东关街东盛巷东昌盛东区,112.59392126266668,37.87486842668414,184_91,112.593364791957,37.87551127378448,1.0,7843312061.0,112.5941672,37.8740595,140107120937.0,0,0,31
太原直送,DWLS067,DWLS067,163,140107120959,太原***光烟酒店,112.598739,37.883282,1.0,4.0,111.0,67.0,2.2702013424780185,2.2632213881531795,0.1154294062923253,太原直送,0.1154294062923253,山西省,太原市,杏花岭区,职工新街街道,山西省太原市杏花岭区职工新街街道新街南二巷太原棉织小区,112.59249673261309,37.88281098161053,184_93,112.593364791957,37.88450448419733,1.0,4246775001.0,112.5918349,37.8824939,140107120959.0,0,0,31
太原直送,DWLS067,DWLS067,59,140107120980,(唐***区馨村唐久便利店,112.604678,37.883883,1.0,4.0,111.0,61.0,2.267832401328854,2.258522730397013,0.1187402283348033,太原直送,0.1187402283348033,山西省,太原市,杏花岭区,职工新街街道,山西省太原市杏花岭区职工新街街道新街南二巷馨春龙城苑,112.59843329720394,37.88341100188234,185_93,112.59915772017418,37.88450448419733,1.0,7843330791.0,112.5972567,37.8833796,140107120980.0,0,0,31
太原直送,DWLS067,DWLS067,42,140107120989,太原***二烟酒店,112.60899,37.882145,1.0,4.0,112.0,55.0,2.268195309530681,2.256625330235387,0.1228872353542074,太原直送,0.1228872353542074,山西省,太原市,杏花岭区,职工新街街道,山西省太原市杏花岭区职工新街街道迎春街长华湾,112.60274257932696,37.881670959326186,186_92,112.60495064839132,37.88000787899091,1.0,2016391778.0,112.6021429,37.8817206,140107120989.0,0,0,31
太原直送,DWLS067,DWLS067,17,140107121019,太原***美英烟行,112.608295,37.88357,1.0,4.0,112.0,45.33,2.2670439324894,2.25613550768787,0.1213614565378959,太原直送,0.1213614565378959,山西省,太原市,杏花岭区,杨家峪街道,山西省太原市杏花岭区杨家峪街道剪子湾路富康苑南区,112.6020479515606,37.88309654906098,185_93,112.59915772017418,37.88450448419733,1.0,1102894397.0,112.6021382,37.8818446,140107121019.0,0,0,31
太原直送,DWLS067,DWLS067,9,140107121025,太原***生鲜菜店,112.608387,37.883475,1.0,4.0,112.0,54.67,2.2671069865271063,2.2561352697400534,0.1214936041937974,太原直送,0.1214936041937974,山西省,太原市,杏花岭区,杨家峪街道,山西省太原市杏花岭区杨家峪街道剪子湾路富康苑南区,112.60213989289792,37.88300148915696,186_93,112.60495064839132,37.88450448419733,1.0,1102894397.0,112.6021382,37.8818446,140107121025.0,0,0,31
太原直送,DWLS067,DWLS067,66,140107218879,山西***责任公司,112.599133,37.882254,1.0,4.0,111.0,24.67,2.271061326164705,2.263649002327437,0.1164811500672892,太原直送,0.1164811500672892,山西省,太原市,杏花岭区,职工新街街道,山西省太原市杏花岭区职工新街街道迎春街紫鑫云锦,112.59289075528017,37.881782769249725,184_92,112.593364791957,37.88000787899091,1.0,4246775000.0,112.5918613,37.881789,140107218879.0,0,0,31
太原直送,BWLS056,BWLS056,32,140107219478,山西***有限公司,112.595003,37.879619,1.0,2.0,111.0,17.0,2.274826942370781,2.268453218925394,0.1161105554030328,太原直送,0.1161105554030328,山西省,太原市,杏花岭区,职工新街街道,山西省太原市杏花岭区职工新街街道马道坡太原铁路迎春小区,112.58876163553823,37.87914721662775,183_92,112.58757186373984,37.88000787899091,1.0,5353501397.0,112.5892664,37.8791147,140107219478.0,0,0,31
太原直送,BWLS056,BWLS056,4,140107219610,(天***马道坡加油站,112.602087,37.881031,1.0,2.0,111.0,63.0,2.2713330572172805,2.26236730522632,0.1192760754719875,太原直送,0.1192760754719875,山西省,太原市,杏花岭区,职工新街街道,山西省太原市杏花岭区职工新街街道马道坡23号院中国石油马道坡加油站(马道坡街),112.59584389888248,37.88055914437261,184_92,112.593364791957,37.88000787899091,1.0,5353501374.0,112.5968814,37.8802828,140107219610.0,0,0,31
太原直送,DWLS067,DWLS067,68,140107220734,山西***有限公司,112.607474,37.884172,1.0,4.0,111.0,51.0,2.266715943508141,2.25630854247131,0.1203653820747443,太原直送,0.1203653820747443,山西省,太原市,杏花岭区,杨家峪街道,山西省太原市杏花岭区杨家峪街道博睿托管东方罗马花园小区,112.60122748372932,37.88369902348078,185_93,112.59915772017418,37.88450448419733,1.0,7843330799.0,112.6000571,37.8834304,140107220734.0,0,0,31
太原直送,DWLS067,DWLS067,97,140107220784,太原***汇烟酒行,112.604513,37.883846,1.0,4.0,111.0,47.0,2.26791739660531,2.258667268645386,0.1186608520490205,太原直送,0.1186608520490205,山西省,太原市,杏花岭区,职工新街街道,山西省太原市杏花岭区职工新街街道新街南二巷馨春龙城苑,112.59826839337168,37.88337404574087,185_93,112.59915772017418,37.88450448419733,1.0,7843330791.0,112.5972567,37.8833796,140107220784.0,0,0,31
太原直送,BWLS056,BWLS056,72,140107121031,太原***烟酒茶店,112.600653,37.878396,1.0,2.0,111.0,32.5,2.274278131571641,2.265228078320152,0.1204612751426714,太原直送,0.1204612751426714,山西省,太原市,杏花岭区,大东关街道,山西省太原市杏花岭区大东关街道新原里东区北巷宜佳·上东城,112.59441074895048,37.87792391121807,184_92,112.593364791957,37.88000787899091,1.0,7843312082.0,112.5949395,37.8766458,140107121031.0,0,0,31
太原直送,DWLS067,DWLS067,821,140107121030,太原***荣烟酒店,112.600501,37.883717,1.0,4.0,111.0,60.33,2.2692525037747595,2.26164895751419,0.1161901129184378,太原直送,0.1161901129184378,山西省,太原市,杏花岭区,职工新街街道,山西省太原市杏花岭区职工新街街道新街南二巷汉庭酒店(太原东中环山大三院店),112.59425818398428,37.88324589625241,184_93,112.593364791957,37.88450448419733,1.0,4246390938.0,112.5943917,37.8832695,140107121030.0,0,0,31
太原直送,BWLS056,BWLS056,20,140107121050,太原***博便利店,112.597763,37.880054,1.0,2.0,111.0,80.0,2.2735732951327936,2.266161054218784,0.1173932077294062,太原直送,0.1173932077294062,山西省,太原市,杏花岭区,职工新街街道,山西省太原市杏花岭区职工新街街道马道坡宏泰苑小区,112.5915213074705,37.8795824284695,184_92,112.593364791957,37.88000787899091,1.0,7843312066.0,112.5928748,37.8784252,140107121050.0,0,0,31
太原直送,DWLS067,DWLS067,10,140107121057,太原***酒便利店,112.608874,37.882297,1.0,4.0,111.0,69.0,2.268085005005102,2.256603145793249,0.1226965723930358,太原直送,0.1226965723930358,山西省,太原市,杏花岭区,职工新街街道,山西省太原市杏花岭区职工新街街道迎春街富康苑高层,112.60262665316507,37.88182304344172,186_92,112.60495064839132,37.88000787899091,1.0,1102894397.0,112.6021382,37.8818446,140107121057.0,0,0,31
太原直送,DWLS067,DWLS067,206,140107121103,太原***易烟酒店,112.605365,37.88078,1.0,4.0,112.0,21.33,2.270584815790192,2.2601812817935576,0.1215507373609899,太原直送,0.1215507373609899,山西省,太原市,杏花岭区,杨家峪街道,山西省太原市杏花岭区杨家峪街道马道坡杨家峪市场监督管理所,112.59912025818429,37.88030721431707,185_92,112.59915772017418,37.88000787899091,1.0,7023603573.0,112.5991771,37.880698,140107121103.0,0,0,31
太原直送,DWLS067,DWLS067,167,140107121127,太原***旺便利店,112.600725,37.884595,1.0,4.0,111.0,30.0,2.268347902410918,2.260879328616415,0.1156517346519269,太原直送,0.1156517346519269,山西省,太原市,杏花岭区,职工新街街道,山西省太原市杏花岭区职工新街街道新村路千喜东方酒店(太原东中环路店),112.5944820065749,37.88412402619385,184_93,112.593364791957,37.88450448419733,1.0,4246390938.0,112.5943917,37.8832695,140107121127.0,0,0,31
太原直送,DWLS067,DWLS067,211,140107221137,山西***有限公司,112.596742,37.882228,1.0,4.0,111.0,23.0,2.271812387616987,2.2653922022989708,0.1150426217799339,太原直送,0.1150426217799339,山西省,太原市,杏花岭区,职工新街街道,山西省太原市杏花岭区职工新街街道迎春街首钢长钢小区,112.59050020879766,37.88175681247832,184_92,112.593364791957,37.88000787899091,1.0,7217345176.0,112.5911055,37.881698,140107221137.0,0,0,31
太原直送,DWLS067,DWLS067,200,140107221167,太原***百货商行,112.600814,37.884516,1.0,4.0,111.0,29.0,2.268396230580981,2.2608698245332484,0.1157692781786257,太原直送,0.1157692781786257,山西省,太原市,杏花岭区,职工新街街道,山西省太原市杏花岭区职工新街街道家乐温馨家园公寓(凯旋街7号分店)千喜东方酒店(太原东中环路店),112.59457098485508,37.88404499897585,184_93,112.593364791957,37.88450448419733,1.0,4246390938.0,112.5943917,37.8832695,140107221167.0,0,0,31
太原直送,DWLS067,DWLS067,108,140107121169,（金***金虎便利店。,112.604699,37.888048,1.0,4.0,111.0,44.33,2.263854922626671,2.255621207838322,0.1156271588382225,太原直送,0.1156271588382225,山西省,太原市,杏花岭区,杨家峪街道,山西省太原市杏花岭区杨家峪街道道场沟街凯樾龙城苑G区,112.59845380296058,37.887576760624405,185_94,112.59915772017418,37.88900108940375,0.0,7843330844.0,112.5988557,37.8883253,140107121169.0,0,0,31
太原直送,DWLS067,DWLS067,196,140107121174,太原***旺烟酒店,112.60291,37.880674,1.0,4.0,111.0,25.33,2.271425067138692,2.262022178831369,0.1200709667238462,太原直送,0.1200709667238462,山西省,太原市,杏花岭区,职工新街街道,山西省太原市杏花岭区职工新街街道马道坡东煤小区,112.59666657619432,37.88020190055816,185_92,112.59915772017418,37.88000787899091,1.0,5353501375.0,112.5968814,37.8802139,140107121174.0,0,0,31
太原直送,BWLS056,BWLS056,26,140107121202,太原***盛便利店,112.603039,37.876473,1.0,2.0,111.0,26.0,2.275392004089848,2.264846210554928,0.1234417166763307,太原直送,0.1234417166763307,山西省,太原市,杏花岭区,杨家峪街道,山西省太原市杏花岭区杨家峪街道马道坡75号东昌盛东区,112.59679600216442,37.87600011376488,185_91,112.59915772017418,37.87551127378448,1.0,9277639381.0,112.5976277,37.8762147,140107121202.0,0,0,31
太原直送,DWLS067,DWLS067,33,140107121213,太原***小丽商店,112.608263,37.884022,1.0,4.0,111.0,18.67,2.2666223197182624,2.255844712517688,0.1210038311005002,太原直送,0.1210038311005002,山西省,太原市,杏花岭区,杨家峪街道,山西省太原市杏花岭区杨家峪街道剪子湾路杨家峪街办剪子湾社区,112.60201592332108,37.88354864634476,185_93,112.59915772017418,37.88450448419733,1.0,1102894397.0,112.6021382,37.8818446,140107121213.0,0,0,31
太原直送,BWLS056,BWLS056,60,140107121241,太原***佳便利店,112.600947,37.877201,1.0,2.0,,50.0,2.275328511522675,2.2658457721427068,0.121589170076946,太原直送,0.121589170076946,山西省,太原市,杏花岭区,大东关街道,山西省太原市杏花岭区大东关街道大东关街宜佳·上东城,112.5947047848338,37.87672865409459,184_91,112.593364791957,37.87551127378448,1.0,7843312082.0,112.5949395,37.8766458,140107121241.0,0,0,31
太原直送,BWLS056,BWLS056,68,140107121242,太原***豪烟酒店,112.602219,37.877447,1.0,2.0,112.0,45.67,2.2747102368662264,2.264759539939944,0.1221694867469005,太原直送,0.1221694867469005,山西省,太原市,杏花岭区,大东关街道,山西省太原市杏花岭区大东关街道大东关街宜佳·上东城,112.59597625795844,37.876974471300166,184_91,112.593364791957,37.87551127378448,1.0,7843312082.0,112.5949395,37.8766458,140107121242.0,0,0,31
太原直送,DWLS067,DWLS067,78,140107121252,太原***晟烟酒店,112.609232,37.889129,1.0,4.0,112.0,50.33,2.26145983796507,2.251603767717576,0.1179297007415908,太原直送,0.1179297007415908,山西省,太原市,杏花岭区,杨家峪街道,山西省太原市杏花岭区杨家峪街道凯樾龙城苑F区,112.60298357698248,37.8886561217708,186_94,112.60495064839132,37.88900108940375,0.0,7843330841.0,112.6014778,37.8894347,140107121252.0,0,0,31
太原直送,DWLS067,DWLS067,46,140107121285,太原***食品超市,112.608625,37.886243,1.0,4.0,111.0,37.67,2.264394992904725,2.25404264649917,0.1196084621755509,太原直送,0.1196084621755509,山西省,太原市,杏花岭区,杨家峪街道,山西省太原市杏花岭区杨家峪街道凯旋街睿思幼儿园,112.60237738987766,37.88576988449277,186_93,112.60495064839132,37.88450448419733,1.0,7843330832.0,112.6018478,37.8857139,140107121285.0,0,0,31
太原直送,DWLS067,DWLS067,72,140107221294,山西***有限公司,112.603562,37.888114,1.0,4.0,111.0,43.33,2.2641354048806344,2.256395872874483,0.1148197613740722,太原直送,0.1148197613740722,山西省,太原市,杏花岭区,杨家峪街道,山西省太原市杏花岭区杨家峪街道道场沟街华聚苑B区高层,112.59731739976598,37.8876430992675,185_94,112.59915772017418,37.88900108940375,0.0,7546957510.0,112.5972067,37.8875467,140107221294.0,0,0,31
太原直送,DWLS067,DWLS067,75,140107221298,太原***生鲜超市,112.608303,37.888009,1.0,4.0,112.0,37.33,2.262807077688242,2.253049749719917,0.1180985709312407,太原直送,0.1180985709312407,山西省,太原市,杏花岭区,杨家峪街道,山西省太原市杏花岭区杨家峪街道道场沟街凯樾龙城苑,112.60205543118175,37.887536360582445,186_94,112.60495064839132,37.88900108940375,0.0,7546957515.0,112.6016396,37.8875721,140107221298.0,0,0,31
太原直送,DWLS067,DWLS067,76,140107121307,太原***烟酒商行,112.609293,37.887947,1.0,4.0,111.0,37.0,2.262569086030307,2.2523794502678767,0.1188247113019813,太原直送,0.1188247113019813,山西省,太原市,杏花岭区,杨家峪街道,山西省太原市杏花岭区杨家峪街道道场沟街富康苑北区,112.60304466481776,37.8874738725856,186_94,112.60495064839132,37.88900108940375,0.0,7546957515.0,112.6016396,37.8875721,140107121307.0,0,0,31
太原直送,DWLS067,DWLS067,63,140107121326,太原***君便利店,112.609515,37.882214,1.0,4.0,111.0,37.33,2.26797238022446,2.2561998467001976,0.1231854972186272,太原直送,0.1231854972186272,山西省,太原市,杏花岭区,职工新街街道,山西省太原市杏花岭区职工新街街道迎春街富康苑高层,112.60326714863444,37.88173970942836,186_92,112.60495064839132,37.88000787899091,1.0,2016391778.0,112.6021429,37.8817206,140107121326.0,0,0,31
太原直送,DWLS067,DWLS067,145,140107121341,太原***体工商户),112.601805,37.887903,1.0,4.0,111.0,35.33,2.264868171380398,2.2578101195178024,0.113819680828929,太原直送,0.113819680828929,山西省,太原市,杏花岭区,职工新街街道,山西省太原市杏花岭区职工新街街道新村东巷凯樾龙城苑E区,112.59556121924167,37.88743245658544,184_94,112.593364791957,37.88900108940375,0.0,7843330849.0,112.5968374,37.8875551,140107121341.0,0,0,31
