station_name,line_code,line_name,deliver_no,customer_code,customer_name,longitude,latitude,order_cycle_type,order_weekday,city_village_code,avg_order_qty,distance_to_平城直送,distance_to_灵丘中转站,distance_to_太原直送,nearest_station,distance_to_station,province,city,district,township,full_address,lon_84,lat_84,grid_id,LonGridCenter,LatGridCenter,group,customer_osmid_mapping,OSM_X,OSM_Y,BB_RETAIL_CUSTOMER_CODE,kmeans_cluster,dbscan_label,kmeans_label
太原直送,DWLS067,DWLS067,555,140107101638,（唐***便利店 唐久255,112.56732,37.91509,1.0,4.0,111.0,51.0,2.249780751984958,2.264313575754253,0.0711746888858637,太原直送,0.0711746888858637,山西省,太原市,杏花岭区,涧河街道,山西省太原市杏花岭区涧河街道尖草坪南巷太钢21小区,112.56105311173503,37.91460475018423,178_100,112.55860722265408,37.91598072064229,0.0,6466509069.0,112.5611352,37.914881,140107101638.0,0,0,34
太原直送,DWLS067,DWLS067,1163,140107112824,太原***达生鲜店,112.568081,37.903035,1.0,4.0,111.0,60.67,2.260961576891561,2.271945950155717,0.0818022335147391,太原直送,0.0818022335147391,山西省,太原市,杏花岭区,涧河街道,山西省太原市杏花岭区涧河街道耐火西巷耐火小区,112.56181668322102,37.902548417059805,179_97,112.56440015087122,37.90249090502302,0.0,7843319437.0,112.562046,37.9025436,140107112824.0,0,0,34
太原直送,DWLS067,DWLS067,1166,140107113072,太原***杰便利店,112.568225,37.905226,1.0,4.0,111.0,78.0,2.258838808101411,2.2703490145178127,0.0799840903742723,太原直送,0.0799840903742723,山西省,太原市,杏花岭区,涧河街道,山西省太原市杏花岭区涧河街道耐火西巷耐火小区,112.56196064684192,37.90474002592774,179_98,112.56440015087122,37.90698751022944,0.0,7023513815.0,112.5609837,37.905471,140107113072.0,0,0,34
太原直送,DWLS067,DWLS067,545,140107113403,太原***宾便利店,112.567217,37.915234,1.0,4.0,111.0,33.33,2.24967733288332,2.264291678580744,0.0709976933216845,太原直送,0.0709976933216845,山西省,太原市,杏花岭区,涧河街道,山西省太原市杏花岭区涧河街道尖草坪南巷太钢21小区,112.56094993401108,37.914748640209176,178_100,112.55860722265408,37.91598072064229,0.0,6466509069.0,112.5611352,37.914881,140107113403.0,0,0,34
太原直送,DWLS067,DWLS067,618,140107115882,太原***佳便利店,112.569172,37.906742,1.0,4.0,111.0,50.33,2.257100128398826,2.268623529288411,0.0791822268062673,太原直送,0.0791822268062673,山西省,太原市,杏花岭区,涧河街道,山西省太原市杏花岭区涧河街道涧河南沿岸清荷苑,112.56290887613577,37.90625753178563,179_98,112.56440015087122,37.90698751022944,0.0,7217298123.0,112.562638,37.9062037,140107115882.0,0,0,34
太原直送,DWLS067,DWLS067,845,140107118664,（唐***飞唐久便利店,112.569439,37.915753,1.0,4.0,111.0,60.0,2.2484746954582304,2.2623065748092093,0.071849574918713,太原直送,0.071849574918713,山西省,太原市,杏花岭区,涧河街道,山西省太原市杏花岭区涧河街道尖草坪街太钢科技公寓,112.56317521694184,37.91527062463111,179_100,112.56440015087122,37.91598072064229,0.0,8662882213.0,112.5626447,37.9151407,140107118664.0,0,0,34
太原直送,DWLS067,DWLS067,737,140107119059,太原***利禾商行,112.563537,37.90675,1.0,4.0,111.0,56.33,2.2588932412101705,2.2727512953884763,0.0763447888529348,太原直送,0.0763447888529348,山西省,太原市,杏花岭区,涧河街道,山西省太原市杏花岭区涧河街道钢新商贸(西门),112.55726478904532,37.90625775064985,178_98,112.55860722265408,37.90698751022944,2.0,7842254845.0,112.5568907,37.9069552,140107119059.0,0,0,34
太原直送,DWLS067,DWLS067,650,140107119098,太原***源便利店,112.571054,37.907938,1.0,4.0,111.0,11.0,2.255367530125852,2.266430557348929,0.0791939716518871,太原直送,0.0791939716518871,山西省,太原市,杏花岭区,涧河街道,山西省太原市杏花岭区涧河街道涧河路晋东顺商城,112.56479338212831,37.90745605948439,179_98,112.56440015087122,37.90698751022944,0.0,8649106826.0,112.5647548,37.9073464,140107119098.0,0,0,34
太原直送,DWLS067,DWLS067,732,140107119259,太原***副食商行,112.563324,37.906914,1.0,4.0,111.0,58.33,2.2588062204292783,2.272796296290763,0.076099407369567,太原直送,0.076099407369567,山西省,太原市,杏花岭区,涧河街道,山西省太原市杏花岭区涧河街道解放北路钢新商贸,112.55705139276289,37.906421461928446,178_98,112.55860722265408,37.90698751022944,2.0,7842254845.0,112.5568907,37.9069552,140107119259.0,0,0,34
太原直送,DWLS067,DWLS067,969,140107119297,太原***宝兰商店,112.566021,37.906065,1.0,4.0,111.0,22.67,2.2587469723720703,2.2713941142410707,0.0781490938399193,太原直送,0.0781490938399193,山西省,太原市,杏花岭区,涧河街道,山西省太原市杏花岭区涧河街道涧河北沿岸春怡园解放路小区,112.55975308743464,37.90557621501181,178_98,112.55860722265408,37.90698751022944,2.0,7217298102.0,112.5595961,37.9053983,140107119297.0,0,0,34
太原直送,DWLS067,DWLS067,565,140107119631,太原***红便利店,112.567411,37.914339,1.0,4.0,111.0,34.33,2.2504630652610125,2.264755888176245,0.0718476912642331,太原直送,0.0718476912642331,山西省,太原市,杏花岭区,涧河街道,山西省太原市杏花岭区涧河街道尖草坪南巷太钢21小区,112.5611443407409,37.9138537244572,178_100,112.55860722265408,37.91598072064229,0.0,6466509069.0,112.5611352,37.914881,140107119631.0,0,0,34
太原直送,DWLS067,DWLS067,612,140107119666,（唐***环环唐久超市,112.567978,37.910459,1.0,4.0,111.0,57.0,2.2539580157715866,2.266972628438199,0.0754021715933905,太原直送,0.0754021715933905,山西省,太原市,杏花岭区,涧河街道,山西省太原市杏花岭区涧河街道涧河路辅路山化北小区,112.56171266439472,37.909973716712415,179_99,112.56440015087122,37.91148411543587,0.0,4566922650.0,112.5614226,37.9101889,140107119666.0,0,0,34
太原直送,DWLS067,DWLS067,1161,140107119819,太原***旺旺商店,112.570486,37.901889,1.0,4.0,111.0,23.33,2.261283806276648,2.270966446604616,0.0840084172270874,太原直送,0.0840084172270874,山西省,太原市,杏花岭区,敦化坊街道,山西省太原市杏花岭区敦化坊街道享堂西街北三条太原市太航医院(北院区),112.5642253068784,37.90140521841622,179_97,112.56440015087122,37.90249090502302,0.0,8663182052.0,112.5637465,37.9002393,140107119819.0,0,0,34
太原直送,DWLS067,DWLS067,1153,140107119857,太原***丽萍商店,112.571138,37.904207,1.0,4.0,111.0,62.0,2.258878707368988,2.268909489059442,0.0823741083168749,太原直送,0.0823741083168749,山西省,太原市,杏花岭区,敦化坊街道,山西省太原市杏花岭区敦化坊街道享堂西街北二条机车小区,112.56487792862684,37.90372443846059,179_97,112.56440015087122,37.90249090502302,0.0,7682867773.0,112.5651809,37.9023775,140107119857.0,0,0,34
太原直送,DWLS067,DWLS067,1158,140107119867,太原***三妮商店,112.570613,37.901157,1.0,4.0,111.0,24.67,2.261937724270944,2.271372667698768,0.0847019727987465,太原直送,0.0847019727987465,山西省,太原市,杏花岭区,敦化坊街道,山西省太原市杏花岭区敦化坊街道享堂西街北三条太原市太航医院(北院区),112.56435256720724,37.9006732311462,179_97,112.56440015087122,37.90249090502302,0.0,8663182052.0,112.5637465,37.9002393,140107119867.0,0,0,34
太原直送,DWLS067,DWLS067,1156,140107119903,太原***来来烟店,112.570757,37.901756,1.0,4.0,111.0,21.0,2.261323976513096,2.270858880098452,0.0842619858833148,太原直送,0.0842619858833148,山西省,太原市,杏花岭区,敦化坊街道,山西省太原市杏花岭区敦化坊街道享堂西街北三条,112.56449669544656,37.901272517673306,179_97,112.56440015087122,37.90249090502302,0.0,7843319454.0,112.565175,37.9023133,140107119903.0,0,0,34
太原直送,DWLS067,DWLS067,1171,140107120083,太原***价便利店,112.569351,37.900884,1.0,4.0,111.0,47.33,2.2625971063335624,2.2724819545232937,0.0843000168742561,太原直送,0.0843000168742561,山西省,太原市,杏花岭区,敦化坊街道,山西省太原市杏花岭区敦化坊街道北中环街耐火小区,112.5630888162512,37.90039863205168,179_97,112.56440015087122,37.90249090502302,0.0,11383152078.0,112.5631425,37.9003187,140107120083.0,0,0,34
太原直送,DWLS067,DWLS067,553,140107120125,太原***新旺商行,112.566395,37.909577,1.0,4.0,111.0,61.0,2.2552997654812987,2.268733583954052,0.0753123386969223,太原直送,0.0753123386969223,山西省,太原市,杏花岭区,涧河街道,山西省太原市杏花岭区涧河街道花园后南街金峰花园,112.5601272856596,37.909089414256265,178_98,112.55860722265408,37.90698751022944,2.0,4566922650.0,112.5614226,37.9101889,140107120125.0,0,0,34
太原直送,CWLS052,CWLS052,195,140107120182,（唐***瑞仙唐久便利店,112.569279,37.899972,1.0,3.0,111.0,66.0,2.2634847697806606,2.2731564643979123,0.0850560582028085,太原直送,0.0850560582028085,山西省,太原市,杏花岭区,巨轮街道,山西省太原市杏花岭区巨轮街道萌培星中车·国际广场,112.56301681773498,37.89948636794139,179_96,112.56440015087122,37.8979942998166,2.0,5765588052.0,112.5630026,37.9000921,140107120182.0,0,0,34
太原直送,DWLS067,DWLS067,753,140107120191,太原***皓宇商行,112.563537,37.90675,1.0,4.0,111.0,22.33,2.2588932412101705,2.2727512953884763,0.0763447888529348,太原直送,0.0763447888529348,山西省,太原市,杏花岭区,涧河街道,山西省太原市杏花岭区涧河街道钢新商贸(西门),112.55726478904532,37.90625775064985,178_98,112.55860722265408,37.90698751022944,2.0,7842254845.0,112.5568907,37.9069552,140107120191.0,0,0,34
太原直送,DWLS067,DWLS067,627,140107120255,太原***一点商行,112.571047,37.907172,1.0,4.0,111.0,62.67,2.2560960450240133,2.2669569820501683,0.0798296871909115,太原直送,0.0798296871909115,山西省,太原市,杏花岭区,涧河街道,山西省太原市杏花岭区涧河街道涧河路65号晋东顺商城,112.56478646157566,37.90668990294884,179_98,112.56440015087122,37.90698751022944,0.0,7843319450.0,112.565242,37.9069029,140107120255.0,0,0,34
太原直送,DWLS067,DWLS067,513,140107120350,太原***云便利店,112.568442,37.904046,1.0,4.0,111.0,53.67,2.2598882511969447,2.2709931863915784,0.0811099920478358,太原直送,0.0811099920478358,山西省,太原市,杏花岭区,涧河街道,山西省太原市杏花岭区涧河街道耐火西巷耐火小区,112.56217811025957,37.903560080394406,179_97,112.56440015087122,37.90249090502302,0.0,7843319437.0,112.562046,37.9025436,140107120350.0,0,0,34
太原直送,DWLS067,DWLS067,117,140107120450,太原***六便利店,112.571216,37.905468,1.0,4.0,111.0,14.67,2.2576581478182187,2.267993376348567,0.0813514324028808,太原直送,0.0813514324028808,山西省,太原市,杏花岭区,敦化坊街道,山西省太原市杏花岭区敦化坊街道享堂西街北二条机车小区,112.564955887242,37.90498577268999,179_98,112.56440015087122,37.90698751022944,0.0,7843319448.0,112.5663312,37.9042931,140107120450.0,0,0,34
太原直送,CWLS052,CWLS052,8,140107120480,太原***烟酒茶行,112.569327,37.899862,1.0,3.0,111.0,54.67,2.2635738406098,2.273196373617113,0.0851754173280062,太原直送,0.0851754173280062,山西省,太原市,杏花岭区,巨轮街道,山西省太原市杏花岭区巨轮街道萌培星中车·国际广场,112.56306490011956,37.89937640725847,179_96,112.56440015087122,37.8979942998166,2.0,5765588052.0,112.5630026,37.9000921,140107120480.0,0,0,34
太原直送,DWLS067,DWLS067,176,140107120532,太原***盛便利店,112.568555,37.901275,1.0,4.0,111.0,22.33,2.2624793132296253,2.27279788896527,0.083565488498544,太原直送,0.083565488498544,山西省,太原市,杏花岭区,涧河街道,山西省太原市杏花岭区涧河街道享堂西街11号耐火小区,112.56229160091377,37.900788695477175,179_97,112.56440015087122,37.90249090502302,0.0,11383152091.0,112.5624466,37.9003513,140107120532.0,0,0,34
太原直送,DWLS067,DWLS067,175,140107120556,太原***民烟酒店,112.569751,37.902105,1.0,4.0,111.0,54.33,2.2613122837193464,2.271356992779648,0.0834468693720719,太原直送,0.0834468693720719,山西省,太原市,杏花岭区,敦化坊街道,山西省太原市杏花岭区敦化坊街道享堂西街7号太原市太航医院(北院区),112.56348924915451,37.90162036307457,179_97,112.56440015087122,37.90249090502302,0.0,12446863686.0,112.56323,37.9024336,140107120556.0,0,0,34
太原直送,DWLS067,DWLS067,259,140107120623,太原***万嘉商行,112.563528,37.906761,1.0,4.0,111.0,76.0,2.2588857082431097,2.2727504320712306,0.0763308348506666,太原直送,0.0763308348506666,山西省,太原市,杏花岭区,涧河街道,山西省太原市杏花岭区涧河街道解放北路204号钢新商贸,112.55725577187708,37.90626873927491,178_98,112.55860722265408,37.90698751022944,2.0,7842254845.0,112.5568907,37.9069552,140107120623.0,0,0,34
太原直送,DWLS067,DWLS067,338,140107120819,太原***珊烟酒店,112.57136,37.90604,1.0,4.0,111.0,35.0,2.2570700221486284,2.267498386254113,0.0809488597696101,太原直送,0.0809488597696101,山西省,太原市,杏花岭区,敦化坊街道,山西省太原市杏花岭区敦化坊街道享堂西街北二条太原市第六十中学校,112.56510001375332,37.90555805132807,179_98,112.56440015087122,37.90698751022944,0.0,8649079972.0,112.5660541,37.9063515,140107120819.0,0,0,34
太原直送,DWLS067,DWLS067,405,140107120974,太原***居便利店,112.567677,37.913374,1.0,4.0,111.0,33.33,2.2512921810482536,2.265214963258452,0.0727974671056649,太原直送,0.0727974671056649,山西省,太原市,杏花岭区,涧河街道,山西省太原市杏花岭区涧河街道尖草坪街22号迎春小区,112.56141086458436,37.91288888921324,178_99,112.55860722265408,37.91148411543587,2.0,9317321133.0,112.5596912,37.9130303,140107120974.0,0,0,34
太原直送,CWLS052,CWLS052,6,140107121027,（金***星辰金虎便利店,112.569338,37.899268,1.0,3.0,111.0,34.33,2.264133631789872,2.273593467752093,0.0856979442577242,太原直送,0.0856979442577242,山西省,太原市,杏花岭区,巨轮街道,山西省太原市杏花岭区巨轮街道可熠口腔中车·国际广场,112.56307598500152,37.89878230809912,179_96,112.56440015087122,37.8979942998166,2.0,8663182048.0,112.5628394,37.8978683,140107121027.0,0,0,34
太原直送,DWLS067,DWLS067,1150,140107219957,太原***多便民店,112.57145,37.903056,1.0,4.0,111.0,50.0,2.259871319905184,2.2694656027437383,0.0835153124762143,太原直送,0.0835153124762143,山西省,太原市,杏花岭区,敦化坊街道,山西省太原市杏花岭区敦化坊街道享堂西街北二条凯顺达驾校(机车校区),112.56519048004644,37.90257358221185,179_97,112.56440015087122,37.90249090502302,0.0,7682867773.0,112.5651809,37.9023775,140107219957.0,0,0,34
太原直送,DWLS067,DWLS067,805,140108100947,太原***宫小卖部,112.563216,37.91311,1.0,4.0,111.0,14.67,2.252973274446456,2.268673223346411,0.0706478295349488,太原直送,0.0706478295349488,山西省,太原市,尖草坪区,尖草坪街道,山西省太原市尖草坪区尖草坪街道解放北路106号北宫花园,112.55694248027854,37.91261850437734,178_99,112.55860722265408,37.91148411543587,2.0,11073370032.0,112.5567416,37.9126178,140108100947.0,0,0,34
太原直送,DWLS067,DWLS067,589,140108101818,太原***烟酒商行,112.562871,37.910007,1.0,4.0,111.0,66.0,2.256022438365362,2.2710301862645923,0.0731683413779473,太原直送,0.0731683413779473,山西省,太原市,尖草坪区,尖草坪街道,山西省太原市尖草坪区尖草坪街道解放路消防宿舍南院,112.5565972228817,37.90951437412132,178_99,112.55860722265408,37.91148411543587,2.0,7842259596.0,112.5565639,37.9091135,140108101818.0,0,0,34
太原直送,DWLS067,DWLS067,795,140108101845,（唐***得唐久便利店,112.5631,37.912691,1.0,4.0,111.0,63.0,2.253407319470889,2.2690424282264905,0.0709503259541484,太原直送,0.0709503259541484,山西省,太原市,尖草坪区,尖草坪街道,山西省太原市尖草坪区尖草坪街道解放路北宫花园,112.55682632185416,37.91219924655024,178_99,112.55860722265408,37.91148411543587,2.0,11073370021.0,112.5567367,37.9124635,140108101845.0,0,0,34
太原直送,DWLS067,DWLS067,951,140108110139,太原***用品商店,112.565066,37.917095,1.0,4.0,111.0,10.0,2.248605034052219,2.264613289253593,0.0682531657361001,太原直送,0.0682531657361001,山西省,太原市,尖草坪区,尖草坪街道,山西省太原市尖草坪区尖草坪街道太钢二十小区,112.55879522306904,37.916607015917066,178_100,112.55860722265408,37.91598072064229,0.0,7842259667.0,112.5590345,37.9175109,140108110139.0,0,0,34
太原直送,DWLS067,DWLS067,579,140108111535,（唐***昌唐久便利店,112.564886,37.908822,1.0,4.0,111.0,48.33,2.256498157379702,2.2703540669518896,0.0751929404266104,太原直送,0.0751929404266104,山西省,太原市,杏花岭区,涧河街道,山西省太原市杏花岭区涧河街道花园后南街花园后四运宿舍,112.55861588077484,37.90833213733945,178_98,112.55860722265408,37.90698751022944,2.0,7842254844.0,112.5580973,37.9070404,140108111535.0,0,0,34
太原直送,DWLS067,DWLS067,877,140108113266,太原***顺烟酒店,112.561528,37.915942,1.0,4.0,111.0,61.67,2.250836143038848,2.267998399278316,0.067350955642807,太原直送,0.067350955642807,山西省,太原市,尖草坪区,尖草坪街道,山西省太原市尖草坪区尖草坪街道尖草坪街9号新钢苑,112.55525106609493,37.91544844735569,177_100,112.55281429443691,37.91598072064229,2.0,8657116923.0,112.5559228,37.9152675,140108113266.0,0,0,34
太原直送,DWLS067,DWLS067,808,140108116494,太原***粮烟酒店,112.563192,37.913444,1.0,4.0,111.0,77.33,2.2526647484954347,2.2684646058744216,0.0703481854918806,太原直送,0.0703481854918806,山西省,太原市,尖草坪区,尖草坪街道,山西省太原市尖草坪区尖草坪街道解放路星宇购物中心(解放北路),112.55691839864728,37.912952533474176,178_99,112.55860722265408,37.91148411543587,2.0,4204294496.0,112.556748,37.913019,140108116494.0,0,0,34
太原直送,DWLS067,DWLS067,558,140108117224,太原***苑便利店,112.562685,37.912168,1.0,4.0,111.0,26.67,2.254036022546443,2.26970201556107,0.0711951142214111,太原直送,0.0711951142214111,山西省,太原市,尖草坪区,尖草坪街道,山西省太原市尖草坪区尖草坪街道解放北路297号椰子水晶酒店(北宫店),112.55641063573148,37.91167551072805,178_99,112.55860722265408,37.91148411543587,2.0,11073370019.0,112.556453,37.912023,140108117224.0,0,0,34
太原直送,DWLS067,DWLS067,568,140108118636,太原***喜龙商店,112.562399,37.910478,1.0,4.0,111.0,23.67,2.255728194783451,2.271057746912218,0.0725274945175967,太原直送,0.0725274945175967,山西省,太原市,尖草坪区,尖草坪街道,山西省太原市尖草坪区尖草坪街道解放北路87号消防宿舍南院,112.55612431215374,37.90998474022727,178_99,112.55860722265408,37.91148411543587,2.0,7842259596.0,112.5565639,37.9091135,140108118636.0,0,0,34
太原直送,DWLS067,DWLS067,580,140108118692,太原***秋生商店,112.562871,37.910007,1.0,4.0,111.0,23.67,2.256022438365362,2.2710301862645923,0.0731683413779473,太原直送,0.0731683413779473,山西省,太原市,尖草坪区,尖草坪街道,山西省太原市尖草坪区尖草坪街道解放路消防宿舍南院,112.5565972228817,37.90951437412132,178_99,112.55860722265408,37.91148411543587,2.0,7842259596.0,112.5565639,37.9091135,140108118692.0,0,0,34
太原直送,DWLS067,DWLS067,574,140108118703,太原***致英商店,112.562109,37.915869,1.0,4.0,111.0,46.67,2.2507178122545666,2.2676199262912133,0.0677107327681526,太原直送,0.0677107327681526,山西省,太原市,尖草坪区,尖草坪街道,山西省太原市尖草坪区尖草坪街道尖草坪街新钢苑,112.55583315343964,37.91537634565135,178_100,112.55860722265408,37.91598072064229,0.0,8657116923.0,112.5559228,37.9152675,140108118703.0,0,0,34
太原直送,DWLS067,DWLS067,695,140108118962,太原***太便利店,112.562828,37.905181,1.0,4.0,111.0,28.33,2.2606067461602,2.274337325077353,0.0774012200743608,太原直送,0.0774012200743608,山西省,太原市,尖草坪区,尖草坪街道,山西省太原市尖草坪区尖草坪街道解放北路49号山西北方商贸城,112.55655470640356,37.90468737409336,178_97,112.55860722265408,37.90249090502302,2.0,7842254838.0,112.5568285,37.9051695,140108118962.0,0,0,34
太原直送,DWLS067,DWLS067,524,140108118998,太原***郝便利店,112.5656,37.9128,1.0,4.0,111.0,67.0,2.252501193536199,2.2671305122875016,0.0721518724497181,太原直送,0.0721518724497181,山西省,太原市,尖草坪区,尖草坪街道,山西省太原市尖草坪区尖草坪街道涧河路北宫花园,112.55933061334574,37.91231193260863,178_99,112.55860722265408,37.91148411543587,2.0,9317321118.0,112.5594238,37.9124795,140108118998.0,0,0,34
太原直送,DWLS067,DWLS067,623,140108119160,太原***百货商行,112.562958,37.905627,1.0,4.0,111.0,34.67,2.260142613572204,2.273938968139647,0.0770653494185229,太原直送,0.0770653494185229,山西省,太原市,尖草坪区,尖草坪街道,山西省太原市尖草坪区尖草坪街道解放北路山西北方商贸城,112.5566848885172,37.905133658491856,178_98,112.55860722265408,37.90698751022944,2.0,7842254838.0,112.5568285,37.9051695,140108119160.0,0,0,34
太原直送,DWLS067,DWLS067,837,140108119167,（金***二十二小区店,112.568951,37.91614,1.0,4.0,111.0,32.0,2.2482639946067287,2.262402782802833,0.0712500931437975,太原直送,0.0712500931437975,山西省,太原市,杏花岭区,涧河街道,山西省太原市杏花岭区涧河街道尖草坪北三巷钢虹苑,112.56268646115056,37.9156570860127,179_100,112.56440015087122,37.91598072064229,0.0,9252431091.0,112.5626758,37.9156103,140108119167.0,0,0,34
太原直送,DWLS067,DWLS067,885,140108119219,太原***家便利店,112.561651,37.915923,1.0,4.0,111.0,47.0,2.250814435718769,2.267920666253783,0.0674299085272975,太原直送,0.0674299085272975,山西省,太原市,尖草坪区,尖草坪街道,山西省太原市尖草坪区尖草坪街道解放北路327号新钢苑,112.55537429818982,37.91542963798481,177_100,112.55281429443691,37.91598072064229,2.0,8657116923.0,112.5559228,37.9152675,140108119219.0,0,0,34
太原直送,DWLS067,DWLS067,684,140108119263,太原***百货商行,112.562958,37.905627,1.0,4.0,111.0,31.0,2.260142613572204,2.273938968139647,0.0770653494185229,太原直送,0.0770653494185229,山西省,太原市,尖草坪区,尖草坪街道,山西省太原市尖草坪区尖草坪街道解放北路山西北方商贸城,112.5566848885172,37.905133658491856,178_98,112.55860722265408,37.90698751022944,2.0,7842254838.0,112.5568285,37.9051695,140108119263.0,0,0,34
太原直送,DWLS067,DWLS067,538,140108119324,太原***皮食品店,112.562696,37.912179,1.0,4.0,111.0,59.67,2.254022068274617,2.269686472216808,0.0711910394993621,太原直送,0.0711910394993621,山西省,太原市,尖草坪区,尖草坪街道,山西省太原市尖草坪区尖草坪街道解放北路226号椰子水晶酒店(北宫店),112.55642165436892,37.911686529762754,178_99,112.55860722265408,37.91148411543587,2.0,11073370019.0,112.556453,37.912023,140108119324.0,0,0,34
太原直送,DWLS067,DWLS067,840,140108119385,太原***原便利店,112.568966,37.916387,1.0,4.0,111.0,60.0,2.248025168607547,2.262224288305645,0.0710586522880925,太原直送,0.0710586522880925,山西省,太原市,杏花岭区,涧河街道,山西省太原市杏花岭区涧河街道尖草坪北三巷钢虹苑,112.56270145450496,37.91590415373059,179_100,112.56440015087122,37.91598072064229,0.0,9252431091.0,112.5626758,37.9156103,140108119385.0,0,0,34
太原直送,DWLS067,DWLS067,635,140108119452,太原***百货商行,112.562981,37.905651,1.0,4.0,111.0,24.0,2.260112504365216,2.2739057863554986,0.0770547247610389,太原直送,0.0770547247610389,山西省,太原市,尖草坪区,尖草坪街道,山西省太原市尖草坪区尖草坪街道解放北路山西北方商贸城,112.55670792702588,37.90515769815796,178_98,112.55860722265408,37.90698751022944,2.0,7842254838.0,112.5568285,37.9051695,140108119452.0,0,0,34
太原直送,DWLS067,DWLS067,547,140108119479,太原***生便利店,112.56269,37.912208,1.0,4.0,111.0,57.0,2.2539965407786213,2.2696712342621304,0.0711628964700009,太原直送,0.0711628964700009,山西省,太原市,尖草坪区,尖草坪街道,山西省太原市尖草坪区尖草坪街道解放路椰子水晶酒店(北宫店),112.55641564013423,37.9117155262219,178_99,112.55860722265408,37.91148411543587,2.0,11073370019.0,112.556453,37.912023,140108119479.0,0,0,34
太原直送,DWLS067,DWLS067,516,140108119642,（唐***兴唐久便利店,112.565701,37.91295,1.0,4.0,111.0,61.33,2.252326727734008,2.2669545658424592,0.0720785718018875,太原直送,0.0720785718018875,山西省,太原市,尖草坪区,尖草坪街道,山西省太原市尖草坪区尖草坪街道涧河路辅路龙城花园小区,112.55943176270526,37.912462104508776,178_99,112.55860722265408,37.91148411543587,2.0,9317321118.0,112.5594238,37.9124795,140108119642.0,0,0,34
太原直送,DWLS067,DWLS067,727,140108119668,太原***茶叶商行,112.563052,37.904262,1.0,4.0,111.0,30.0,2.2614054006343016,2.2747973664924506,0.0783208008258298,太原直送,0.0783208008258298,山西省,太原市,尖草坪区,尖草坪街道,山西省太原市尖草坪区尖草坪街道涧河北沿岸,112.5567792157763,37.903768538802666,178_97,112.55860722265408,37.90249090502302,2.0,7217298099.0,112.5568813,37.903805,140108119668.0,0,0,34
太原直送,DWLS067,DWLS067,548,140108119682,太原***花便利店,112.567515,37.910483,1.0,4.0,111.0,43.67,2.254083202810402,2.267296182248141,0.0751330878108965,太原直送,0.0751330878108965,山西省,太原市,杏花岭区,涧河街道,山西省太原市杏花岭区涧河街道花园后南街山化北小区,112.56124895013842,37.90999710922493,178_99,112.55860722265408,37.91148411543587,2.0,4566922650.0,112.5614226,37.9101889,140108119682.0,0,0,34
太原直送,DWLS067,DWLS067,919,140108119686,太原***顺便利店,112.563259,37.915368,1.0,4.0,111.0,75.67,2.250821548870765,2.2671123871678667,0.0687356078099252,太原直送,0.0687356078099252,山西省,太原市,尖草坪区,尖草坪街道,山西省太原市尖草坪区尖草坪街道解放路龙城花园小区,112.55698529434028,37.91487701256239,178_100,112.55860722265408,37.91598072064229,0.0,8657088915.0,112.5567771,37.9147723,140108119686.0,0,0,34
太原直送,DWLS067,DWLS067,939,140108119708,太原***店便利店,112.563353,37.916462,1.0,4.0,111.0,23.0,2.249755548921921,2.2663027174572163,0.0678556479668417,太原直送,0.0678556479668417,山西省,太原市,尖草坪区,尖草坪街道,山西省太原市尖草坪区尖草坪街道柏杨树街12号国家电网宿舍,112.5570793342497,37.915971369867,178_100,112.55860722265408,37.91598072064229,0.0,8657116920.0,112.5567792,37.9155516,140108119708.0,0,0,34
太原直送,DWLS067,DWLS067,825,140108119749,太原***酒便利店,112.568951,37.91614,1.0,4.0,111.0,81.0,2.2482639946067287,2.262402782802833,0.0712500931437975,太原直送,0.0712500931437975,山西省,太原市,杏花岭区,涧河街道,山西省太原市杏花岭区涧河街道尖草坪北三巷钢虹苑,112.56268646115056,37.9156570860127,179_100,112.56440015087122,37.91598072064229,0.0,9252431091.0,112.5626758,37.9156103,140108119749.0,0,0,34
太原直送,DWLS067,DWLS067,611,140108119767,太原***货经销部,112.562883,37.905674,1.0,4.0,111.0,30.0,2.260122155172372,2.2739620912447074,0.0769889892192386,太原直送,0.0769889892192386,山西省,太原市,尖草坪区,尖草坪街道,山西省太原市尖草坪区尖草坪街道塑胶地板·地毯(山西北方商贸城店)山西北方商贸城,112.55660974818984,37.9051805531427,178_98,112.55860722265408,37.90698751022944,2.0,7842254838.0,112.5568285,37.9051695,140108119767.0,0,0,34
太原直送,DWLS067,DWLS067,665,140108119779,太原***用品商行,112.562909,37.905411,1.0,4.0,111.0,49.0,2.260362917728917,2.274121646298846,0.0772342830613452,太原直送,0.0772342830613452,山西省,太原市,尖草坪区,尖草坪街道,山西省太原市尖草坪区尖草坪街道解放北路49号山西北方商贸城茶叶市场,112.55663582554664,37.90491754213886,178_98,112.55860722265408,37.90698751022944,2.0,7842254838.0,112.5568285,37.9051695,140108119779.0,0,0,34
太原直送,DWLS067,DWLS067,639,140108119791,太原***家便利店,112.562958,37.905627,1.0,4.0,111.0,20.67,2.260142613572204,2.273938968139647,0.0770653494185229,太原直送,0.0770653494185229,山西省,太原市,尖草坪区,尖草坪街道,山西省太原市尖草坪区尖草坪街道解放北路山西北方商贸城,112.5566848885172,37.905133658491856,178_98,112.55860722265408,37.90698751022944,2.0,7842254838.0,112.5568285,37.9051695,140108119791.0,0,0,34
太原直送,DWLS067,DWLS067,718,140108119810,太原***良便利店,112.563052,37.904262,1.0,4.0,111.0,51.67,2.2614054006343016,2.2747973664924506,0.0783208008258298,太原直送,0.0783208008258298,山西省,太原市,尖草坪区,尖草坪街道,山西省太原市尖草坪区尖草坪街道涧河北沿岸,112.5567792157763,37.903768538802666,178_97,112.55860722265408,37.90249090502302,2.0,7217298099.0,112.5568813,37.903805,140108119810.0,0,0,34
太原直送,DWLS067,DWLS067,599,140108119846,太原***红便利店,112.564663,37.908824,1.0,4.0,111.0,35.33,2.256567726025742,2.270516450356173,0.0750799644445781,太原直送,0.0750799644445781,山西省,太原市,杏花岭区,涧河街道,山西省太原市杏花岭区涧河街道花园后南街23花园花园后四运宿舍,112.5583925017144,37.90833381478212,178_98,112.55860722265408,37.90698751022944,2.0,7842254844.0,112.5580973,37.9070404,140108119846.0,0,0,34
太原直送,DWLS067,DWLS067,937,140108119848,太原***江烟酒行,112.563856,37.915816,1.0,4.0,111.0,67.0,2.25020523750568,2.2663697075810445,0.0686702344396751,太原直送,0.0686702344396751,山西省,太原市,尖草坪区,尖草坪街道,山西省太原市尖草坪区尖草坪街道尖草坪街17号立交桥商贸城,112.55758329558954,37.91532599563907,178_100,112.55860722265408,37.91598072064229,0.0,8657116918.0,112.5571977,37.9152181,140108119848.0,0,0,34
太原直送,DWLS067,DWLS067,706,140108119867,太原***货经销部,112.562909,37.905411,1.0,4.0,111.0,44.33,2.260362917728917,2.274121646298846,0.0772342830613452,太原直送,0.0772342830613452,山西省,太原市,尖草坪区,尖草坪街道,山西省太原市尖草坪区尖草坪街道解放北路49号山西北方商贸城茶叶市场,112.55663582554664,37.90491754213886,178_98,112.55860722265408,37.90698751022944,2.0,7842254838.0,112.5568285,37.9051695,140108119867.0,0,0,34
太原直送,DWLS067,DWLS067,600,140108119885,太原***食品商行,112.560433,37.908722,1.0,4.0,111.0,60.33,2.258023587499697,2.2736934499782486,0.0731576273603808,太原直送,0.0731576273603808,山西省,太原市,尖草坪区,尖草坪街道,山西省太原市尖草坪区尖草坪街道解放北路363号花园国际大酒店,112.55415482441396,37.90822527819504,177_98,112.55281429443691,37.90698751022944,2.0,11055125307.0,112.5546413,37.9077981,140108119885.0,0,0,34
太原直送,DWLS067,DWLS067,946,140108119932,太原***国祥烟店,112.563302,37.917124,1.0,4.0,111.0,98.67,2.2491452609989424,2.265892330108607,0.0672684684083053,太原直送,0.0672684684083053,山西省,太原市,尖草坪区,尖草坪街道,山西省太原市尖草坪区尖草坪街道解放路太钢二十小区,112.55702816665756,37.9166334235002,178_100,112.55860722265408,37.91598072064229,0.0,8638872053.0,112.5567403,37.9169559,140108119932.0,0,0,34
太原直送,DWLS067,DWLS067,112,140108120034,太原***贤便利店,112.567637,37.910598,1.0,4.0,111.0,34.33,2.2539352448517653,2.2671285322279315,0.0751014471298665,太原直送,0.0751014471298665,山西省,太原市,杏花岭区,涧河街道,山西省太原市杏花岭区涧河街道花园后南街山化北小区,112.56137112539678,37.91011229382085,178_99,112.55860722265408,37.91148411543587,2.0,4566922650.0,112.5614226,37.9101889,140108120034.0,0,0,34
太原直送,DWLS067,DWLS067,118,140108120043,太原***烟酒商行,112.562125,37.909591,1.0,4.0,111.0,65.33,2.256656191186422,2.2718605547253587,0.0731740946510412,太原直送,0.0731740946510412,山西省,太原市,尖草坪区,尖草坪街道,山西省太原市尖草坪区尖草坪街道解放北路375号欧冶工业品股份有限公司华北大区,112.55584991296712,37.90909714219271,178_98,112.55860722265408,37.90698751022944,2.0,7842259596.0,112.5565639,37.9091135,140108120043.0,0,0,34
太原直送,DWLS067,DWLS067,172,140108120123,太原***辉便利店,112.567383,37.9109,1.0,4.0,111.0,49.33,2.2537302740738507,2.2671099420226573,0.0747102934608114,太原直送,0.0747102934608114,山西省,太原市,尖草坪区,尖草坪街道,山西省太原市尖草坪区尖草坪街道涧河路81号菜鸟驿站(花园后南街店),112.56111669669862,37.910414014275,178_99,112.55860722265408,37.91148411543587,2.0,4566922650.0,112.5614226,37.9101889,140108120123.0,0,0,34
太原直送,DWLS067,DWLS067,178,140108120158,太原***烟酒商店,112.568943,37.915949,1.0,4.0,111.0,83.33,2.2484475242166537,2.262538172458751,0.0714004659368581,太原直送,0.0714004659368581,山西省,太原市,杏花岭区,涧河街道,山西省太原市杏花岭区涧河街道尖草坪北三巷钢虹苑,112.5626784715742,37.915466038231074,179_100,112.56440015087122,37.91598072064229,0.0,9252431091.0,112.5626758,37.9156103,140108120158.0,0,0,34
太原直送,DWLS067,DWLS067,204,140108120250,太原***壹烟酒店,112.561985,37.915926,1.0,4.0,111.0,49.0,2.250703848289461,2.267672671353159,0.0675981298040147,太原直送,0.0675981298040147,山西省,太原市,尖草坪区,尖草坪街道,山西省太原市尖草坪区尖草坪街道尖草坪街11号新钢苑,112.5557089180529,37.91543316325064,177_100,112.55281429443691,37.91598072064229,2.0,8657116923.0,112.5559228,37.9152675,140108120250.0,0,0,34
太原直送,DWLS067,DWLS067,268,140108120317,太原***汇烟酒店,112.564909,37.915347,1.0,4.0,111.0,63.67,2.2503107616513787,2.2659124703282343,0.0696308456935585,太原直送,0.0696308456935585,山西省,太原市,尖草坪区,尖草坪街道,山西省太原市尖草坪区尖草坪街道尖草坪街辅路龙城旺角生活广场,112.55863816133552,37.91485844556942,178_100,112.55860722265408,37.91598072064229,0.0,4204294513.0,112.5582667,37.9150869,140108120317.0,0,0,34
太原直送,DWLS067,DWLS067,295,140108120343,（金***睿洋金虎便利店,112.562629,37.912697,1.0,4.0,111.0,25.33,2.253553180092271,2.2693847846077104,0.070708595036245,太原直送,0.070708595036245,山西省,太原市,尖草坪区,尖草坪街道,山西省太原市尖草坪区尖草坪街道解放北路228号椰子水晶酒店(北宫店),112.55635447272844,37.91220452814078,178_99,112.55860722265408,37.91148411543587,2.0,11073370019.0,112.556453,37.912023,140108120343.0,0,0,34
太原直送,DWLS067,DWLS067,297,140108120372,太原***时空小铺,112.562958,37.905627,1.0,4.0,111.0,32.33,2.260142613572204,2.273938968139647,0.0770653494185229,太原直送,0.0770653494185229,山西省,太原市,尖草坪区,尖草坪街道,山西省太原市尖草坪区尖草坪街道解放北路山西北方商贸城,112.5566848885172,37.905133658491856,178_98,112.55860722265408,37.90698751022944,2.0,7842254838.0,112.5568285,37.9051695,140108120372.0,0,0,34
太原直送,DWLS067,DWLS067,293,140108120396,太原***祥汇超市,112.566786,37.911445,1.0,4.0,111.0,47.0,2.2534048616138653,2.267178373874454,0.0739303527179412,太原直送,0.0739303527179412,山西省,太原市,尖草坪区,尖草坪街道,山西省太原市尖草坪区尖草坪街道涧河路辅路太钢花北小区,112.56051869427328,37.91095831436238,178_99,112.55860722265408,37.91148411543587,2.0,4566922652.0,112.5608253,37.9107118,140108120396.0,0,0,34
太原直送,DWLS067,DWLS067,356,140108120439,太原***玖鑫商店,112.563252,37.9119,1.0,4.0,111.0,34.33,2.2541074289505314,2.269466704215985,0.0717104143761549,太原直送,0.0717104143761549,山西省,太原市,尖草坪区,尖草坪街道,山西省太原市尖草坪区尖草坪街道解放北路260号北宫花园,112.55697868509536,37.911408322170885,178_99,112.55860722265408,37.91148411543587,2.0,11073370019.0,112.556453,37.912023,140108120439.0,0,0,34
太原直送,DWLS067,DWLS067,403,140108120511,太原***惠便利店,112.56332,37.904378,1.0,4.0,111.0,31.33,2.2612096284427023,2.2745219302563284,0.0783405000877574,太原直送,0.0783405000877574,山西省,太原市,杏花岭区,涧河街道,山西省太原市杏花岭区涧河街道解放北路,112.55704768040589,37.90388496698005,178_97,112.55860722265408,37.90249090502302,2.0,7217298099.0,112.5568813,37.903805,140108120511.0,0,0,34
太原直送,DWLS067,DWLS067,402,140108120517,太原***荣秀商行,112.563052,37.904262,1.0,4.0,112.0,53.0,2.2614054006343016,2.2747973664924506,0.0783208008258298,太原直送,0.0783208008258298,山西省,太原市,尖草坪区,尖草坪街道,山西省太原市尖草坪区尖草坪街道涧河北沿岸,112.5567792157763,37.903768538802666,178_97,112.55860722265408,37.90249090502302,2.0,7217298099.0,112.5568813,37.903805,140108120517.0,0,0,34
太原直送,DWLS067,DWLS067,399,140108120536,（唐***人合唐久便利店,112.562664,37.912708,1.0,4.0,111.0,71.67,2.253531501201168,2.269351588226248,0.0707165671253872,太原直送,0.0707165671253872,山西省,太原市,尖草坪区,尖草坪街道,山西省太原市尖草坪区尖草坪街道解放北路228号椰子水晶酒店(北宫店),112.55638953490224,37.91221558408076,178_99,112.55860722265408,37.91148411543587,2.0,11073370019.0,112.556453,37.912023,140108120536.0,0,0,34
太原直送,DWLS067,DWLS067,607,140108219148,山西***际大酒店,112.56108,37.907948,1.0,4.0,111.0,35.0,2.2585480362485097,2.2737427702660185,0.0741410911303602,太原直送,0.0741410911303602,山西省,太原市,尖草坪区,尖草坪街道,山西省太原市尖草坪区尖草坪街道花园体育文化中心,112.55480315185066,37.90745217251431,177_98,112.55281429443691,37.90698751022944,2.0,11055125308.0,112.5546929,37.9071381,140108219148.0,0,0,34
太原直送,DWLS067,DWLS067,267,140108220316,山西***八分公司,112.560509,37.915477,1.0,4.0,111.0,67.67,2.251605258561986,2.2690634553244644,0.0672426636295679,太原直送,0.0672426636295679,山西省,太原市,尖草坪区,尖草坪街道,山西省太原市尖草坪区尖草坪街道尖草坪街太钢喷泉广场,112.554230185119,37.91498172181322,177_100,112.55281429443691,37.91598072064229,2.0,5765684413.0,112.5543346,37.9151305,140108220316.0,0,0,34
太原直送,DWLS067,DWLS067,312,140108220412,山西***九分公司,112.560112,37.915387,1.0,4.0,111.0,67.67,2.2518187135408967,2.2694167607991207,0.0671259405669651,太原直送,0.0671259405669651,山西省,太原市,尖草坪区,尖草坪街道,山西省太原市尖草坪区尖草坪街道尖草坪街3号太钢喷泉广场,112.55383242698537,37.91489105607995,177_100,112.55281429443691,37.91598072064229,2.0,5765684409.0,112.5537964,37.9148562,140108220412.0,0,0,34
太原直送,DWLS067,DWLS067,313,140108220419,山西***四分公司,112.560136,37.915094,1.0,4.0,111.0,68.67,2.2520882341848822,2.269597241681656,0.0673933783839287,太原直送,0.0673933783839287,山西省,太原市,尖草坪区,尖草坪街道,山西省太原市尖草坪区尖草坪街道太原钢铁(集团)有限公司太原市公安局城北分局,112.55385650777444,37.91459803781797,177_100,112.55281429443691,37.91598072064229,2.0,5765684409.0,112.5537964,37.9148562,140108220419.0,0,0,34
太原直送,DWLS067,DWLS067,419,140108220538,山西***一分公司,112.560136,37.915094,1.0,4.0,111.0,67.67,2.2520882341848822,2.269597241681656,0.0673933783839287,太原直送,0.0673933783839287,山西省,太原市,尖草坪区,尖草坪街道,山西省太原市尖草坪区尖草坪街道太原钢铁(集团)有限公司太原市公安局城北分局,112.55385650777444,37.91459803781797,177_100,112.55281429443691,37.91598072064229,2.0,5765684409.0,112.5537964,37.9148562,140108220538.0,0,0,34
太原直送,DWLS067,DWLS067,417,140108220539,山西***二分公司,112.560136,37.915094,1.0,4.0,111.0,67.67,2.2520882341848822,2.269597241681656,0.0673933783839287,太原直送,0.0673933783839287,山西省,太原市,尖草坪区,尖草坪街道,山西省太原市尖草坪区尖草坪街道太原钢铁(集团)有限公司太原市公安局城北分局,112.55385650777444,37.91459803781797,177_100,112.55281429443691,37.91598072064229,2.0,5765684409.0,112.5537964,37.9148562,140108220539.0,0,0,34
太原直送,DWLS067,DWLS067,418,140108220540,山西***六分公司,112.560201,37.915293,1.0,4.0,111.0,67.67,2.251878906246957,2.269414772570448,0.0672514606830246,太原直送,0.0672514606830246,山西省,太原市,尖草坪区,尖草坪街道,山西省太原市尖草坪区尖草坪街道太原钢铁(集团)有限公司太钢喷泉广场,112.5539216109436,37.91479718342168,177_100,112.55281429443691,37.91598072064229,2.0,5765684409.0,112.5537964,37.9148562,140108220540.0,0,0,34
太原直送,DWLS067,DWLS067,388,140108120549,太原***荣食品店,112.564713,37.914363,1.0,4.0,111.0,30.0,2.251305567578953,2.266723240196076,0.0703564694964111,太原直送,0.0703564694964111,山西省,太原市,尖草坪区,尖草坪街道,山西省太原市尖草坪区尖草坪街道龙城旺角生活广场,112.5584419431151,37.91387396867378,178_100,112.55860722265408,37.91598072064229,0.0,9317321143.0,112.5583468,37.9139542,140108120549.0,0,0,34
太原直送,DWLS067,DWLS067,420,140108220555,山西***三分公司,112.560192,37.915513,1.0,4.0,111.0,61.0,2.251673619995804,2.269272618534847,0.0670552690025189,太原直送,0.0670552690025189,山西省,太原市,尖草坪区,尖草坪街道,山西省太原市尖草坪区尖草坪街道尖草坪街5号太钢喷泉广场,112.5539125678686,37.91501721196611,177_100,112.55281429443691,37.91598072064229,2.0,5765684409.0,112.5537964,37.9148562,140108220555.0,0,0,34
太原直送,DWLS067,DWLS067,389,140108220556,山西***有限公司,112.564694,37.914357,1.0,4.0,111.0,31.67,2.251317353082186,2.2667412797944047,0.0703514477249737,太原直送,0.0703514477249737,山西省,太原市,尖草坪区,尖草坪街道,山西省太原市尖草坪区尖草坪街道龙城旺角生活广场,112.55842291146053,37.91386793992391,178_100,112.55860722265408,37.91598072064229,0.0,9317321143.0,112.5583468,37.9139542,140108220556.0,0,0,34
太原直送,DWLS067,DWLS067,400,140107221048,山西***路分公司,112.563329,37.90766,1.0,4.0,111.0,35.33,2.25809805259227,2.272286158638037,0.0754455391988121,太原直送,0.0754455391988121,山西省,太原市,杏花岭区,涧河街道,山西省太原市杏花岭区涧河街道解放北路钢新商贸,112.5570563149347,37.907167613803736,178_98,112.55860722265408,37.90698751022944,2.0,7842254845.0,112.5568907,37.9069552,140107221048.0,0,0,34
太原直送,DWLS067,DWLS067,391,140107121046,太原***财烟酒店,112.571047,37.907172,1.0,4.0,111.0,48.0,2.2560960450240133,2.2669569820501683,0.0798296871909115,太原直送,0.0798296871909115,山西省,太原市,杏花岭区,涧河街道,山西省太原市杏花岭区涧河街道涧河路65号晋东顺商城,112.56478646157566,37.90668990294884,179_98,112.56440015087122,37.90698751022944,0.0,7843319450.0,112.565242,37.9069029,140107121046.0,0,0,34
太原直送,DWLS067,DWLS067,404,140108220553,山西***五分公司,112.560166,37.915103,1.0,4.0,111.0,48.0,2.252070022571455,2.269569057168343,0.0674001463574023,太原直送,0.0674001463574023,山西省,太原市,尖草坪区,尖草坪街道,山西省太原市尖草坪区尖草坪街道太原钢铁(集团)有限公司太原市公安局城北分局,112.55388656505744,37.91460708875034,177_100,112.55281429443691,37.91598072064229,2.0,5765684409.0,112.5537964,37.9148562,140108220553.0,0,0,34
太原直送,DWLS067,DWLS067,390,140107221071,太原***有限公司,112.569528,37.906983,1.0,4.0,111.0,63.33,2.2567583262540545,2.2681986555017586,0.079167144858209,太原直送,0.079167144858209,山西省,太原市,杏花岭区,涧河街道,山西省太原市杏花岭区涧河街道涧河南沿岸晋东顺商城,112.56326536359144,37.9064990245078,179_98,112.56440015087122,37.90698751022944,0.0,7217298123.0,112.562638,37.9062037,140107221071.0,0,0,34
太原直送,DWLS067,DWLS067,398,140108120573,太原***百货商行,112.562947,37.905626,1.0,4.0,111.0,19.0,2.2601470890570403,2.273947720630802,0.0770611458842886,太原直送,0.0770611458842886,山西省,太原市,尖草坪区,尖草坪街道,山西省太原市尖草坪区尖草坪街道解放北路山西北方商贸城,112.5566738688721,37.90513264153345,178_98,112.55860722265408,37.90698751022944,2.0,7842254838.0,112.5568285,37.9051695,140108120573.0,0,0,34
太原直送,DWLS067,DWLS067,448,140108120584,(唐***彩霞唐久便利店,112.563171,37.914696,1.0,4.0,111.0,64.33,2.2514861050099784,2.2676321221719378,0.0692635394200994,太原直送,0.0692635394200994,山西省,太原市,尖草坪区,尖草坪街道,山西省太原市尖草坪区尖草坪街道尖草坪街12号龙城花园小区,112.55689721560069,37.91420474730279,178_100,112.55860722265408,37.91598072064229,0.0,4204294536.0,112.5567532,37.9139606,140108120584.0,0,0,34
太原直送,DWLS067,DWLS067,445,140108120593,太原***芳便利店,112.564907,37.908817,1.0,4.0,111.0,57.33,2.2564961650816056,2.270342042371805,0.0752077713537656,太原直送,0.0752077713537656,山西省,太原市,杏花岭区,涧河街道,山西省太原市杏花岭区涧河街道花园后南街花园后四运宿舍,112.5586369168918,37.90832716667328,178_98,112.55860722265408,37.90698751022944,2.0,7842254844.0,112.5580973,37.9070404,140108120593.0,0,0,34
太原直送,DWLS067,DWLS067,446,140108120596,太原***俞烟酒店,112.562947,37.905626,1.0,4.0,111.0,36.0,2.2601470890570403,2.273947720630802,0.0770611458842886,太原直送,0.0770611458842886,山西省,太原市,尖草坪区,尖草坪街道,山西省太原市尖草坪区尖草坪街道解放北路山西北方商贸城,112.5566738688721,37.90513264153345,178_98,112.55860722265408,37.90698751022944,2.0,7842254838.0,112.5568285,37.9051695,140108120596.0,0,0,34
太原直送,CWLS055,CWLS055,20,140108120609,太原***茶经销部,112.559752,37.901902,1.0,3.0,111.0,36.33,2.264699881321583,2.278822127021103,0.0790157728684596,太原直送,0.0790157728684596,山西省,太原市,尖草坪区,尖草坪街道,山西省太原市尖草坪区尖草坪街道涧河北沿岸中国消防救援,112.5534732916022,37.90140284673701,177_97,112.55281429443691,37.90249090502302,2.0,11262691246.0,112.5537152,37.9009837,140108120609.0,0,0,34
太原直送,DWLS067,DWLS067,457,140108120624,太原***宇食品店,112.562798,37.913972,1.0,4.0,111.0,25.0,2.252291640185611,2.268396851811646,0.0696930833440429,太原直送,0.0696930833440429,山西省,太原市,尖草坪区,尖草坪街道,山西省太原市尖草坪区尖草坪街道解放路星宇购物中心(解放北路),112.55652363025914,37.91348003717481,178_99,112.55860722265408,37.91148411543587,2.0,8657088912.0,112.5566852,37.9134979,140108120624.0,0,0,34
太原直送,DWLS067,DWLS067,454,140107121148,太原***圆烟酒店,112.569485,37.906961,1.0,4.0,111.0,28.67,2.256792870052541,2.268245137514238,0.0791628270591661,太原直送,0.0791628270591661,山西省,太原市,杏花岭区,涧河街道,山西省太原市杏花岭区涧河街道涧河南沿岸清荷苑,112.56322230426184,37.90647696665767,179_98,112.56440015087122,37.90698751022944,0.0,7217298123.0,112.562638,37.9062037,140107121148.0,0,0,34
太原直送,DWLS067,DWLS067,466,140108120655,太原***烟酒商行,112.564636,37.913821,1.0,4.0,111.0,65.0,2.2518435787845057,2.2671471212640832,0.0707753808396637,太原直送,0.0707753808396637,山西省,太原市,尖草坪区,尖草坪街道,山西省太原市尖草坪区尖草坪街道涧河路辅路龙城旺角生活广场,112.55836487488564,37.913331750499246,178_99,112.55860722265408,37.91148411543587,2.0,9317321142.0,112.5583052,37.9138016,140108120655.0,0,0,34
太原直送,DWLS067,DWLS067,440,140107121273,太原***宁便利店,112.56919,37.902976,1.0,4.0,111.0,48.33,2.2606646850185403,2.271174122456701,0.0824116114270308,太原直送,0.0824116114270308,山西省,太原市,杏花岭区,涧河街道,山西省太原市杏花岭区涧河街道享堂路西二巷耐火小区,112.56292733960098,37.902490829711056,179_97,112.56440015087122,37.90249090502302,0.0,9234747061.0,112.5631664,37.9024379,140107121273.0,0,0,34
太原直送,DWLS067,DWLS067,430,140107221283,山西***有限公司,112.571216,37.905468,1.0,4.0,111.0,38.0,2.2576581478182187,2.267993376348567,0.0813514324028808,太原直送,0.0813514324028808,山西省,太原市,杏花岭区,敦化坊街道,山西省太原市杏花岭区敦化坊街道享堂西街北二条机车小区,112.564955887242,37.90498577268999,179_98,112.56440015087122,37.90698751022944,0.0,7843319448.0,112.5663312,37.9042931,140107221283.0,0,0,34
太原直送,DWLS067,DWLS067,464,140107121289,太原***华便利店,112.566395,37.909577,1.0,4.0,111.0,35.67,2.2552997654812987,2.268733583954052,0.0753123386969223,太原直送,0.0753123386969223,山西省,太原市,杏花岭区,涧河街道,山西省太原市杏花岭区涧河街道花园后南街金峰花园,112.5601272856596,37.909089414256265,178_98,112.55860722265408,37.90698751022944,2.0,4566922650.0,112.5614226,37.9101889,140107121289.0,0,0,34
太原直送,DWLS067,DWLS067,401,140108120728,太原***林便利店,112.564471,37.909822,1.0,4.0,111.0,33.33,2.2556839675745817,2.2699801173688736,0.0741195407770434,太原直送,0.0741195407770434,山西省,太原市,尖草坪区,尖草坪街道,山西省太原市尖草坪区尖草坪街道花园后西街北宫小区,112.55820005741118,37.90933172897913,178_99,112.55860722265408,37.91148411543587,2.0,5765684421.0,112.5568552,37.9084458,140108120728.0,0,0,34
太原直送,DWLS067,DWLS067,433,140107221311,太原***有限公司,112.568888,37.901117,1.0,4.0,111.0,49.0,2.2625232666792616,2.2726618861027243,0.0838675759814241,太原直送,0.0838675759814241,山西省,太原市,杏花岭区,涧河街道,山西省太原市杏花岭区涧河街道北中环街耐火小区,112.56262511296907,37.90063109166357,179_97,112.56440015087122,37.90249090502302,0.0,11383152091.0,112.5624466,37.9003513,140107221311.0,0,0,34
