station_name,line_code,line_name,deliver_no,customer_code,customer_name,longitude,latitude,order_cycle_type,order_weekday,city_village_code,avg_order_qty,distance_to_平城直送,distance_to_灵丘中转站,distance_to_太原直送,nearest_station,distance_to_station,province,city,district,township,full_address,lon_84,lat_84,grid_id,LonGridCenter,LatGridCenter,group,customer_osmid_mapping,OSM_X,OSM_Y,BB_RETAIL_CUSTOMER_CODE,kmeans_cluster,dbscan_label,kmeans_label
太原直送,AWLS100,AWLS100,758,140109104633,太原***光百货店,112.445783,37.846272,1.0,1.0,112.0,22.0,2.355740861343834,2.4005230977588976,0.1514719919357996,太原直送,0.1514719919357996,山西省,太原市,万柏林区,南寒街道,山西省太原市万柏林区南寒街道绝味鸭脖(河涝湾巷店),112.43914876132204,37.84547025801071,157_84,112.43695573009376,37.84403503733952,2.0,7023502560.0,112.4392038,37.8458049,140109104633.0,0,0,97
太原直送,AWLS100,AWLS100,552,140109105982,太原***军烟酒店,112.444889,37.851194,1.0,1.0,112.0,70.67,2.3514651165656257,2.3979035125329755,0.1478436208194293,太原直送,0.1478436208194293,山西省,太原市,万柏林区,南寒街道,山西省太原市万柏林区南寒街道建筑北巷铁北小区,112.4382520770558,37.85039140195593,157_85,112.43695573009376,37.84853164254594,2.0,7023515216.0,112.4379687,37.8488603,140109105982.0,0,0,97
太原直送,AWLS100,AWLS100,489,140109105995,太原***食品商店,112.443139,37.848529,1.0,1.0,112.0,16.0,2.3545804520763345,2.400984848105666,0.1510316758564225,太原直送,0.1510316758564225,山西省,太原市,万柏林区,南寒街道,山西省太原市万柏林区南寒街道铁南路朝北小区,112.43649841840158,37.84772280917145,157_85,112.43695573009376,37.84853164254594,2.0,7023513909.0,112.4366891,37.8478031,140109105995.0,0,0,97
太原直送,AWLS100,AWLS100,502,140109106000,太原***和便民店,112.444018,37.851044,1.0,1.0,112.0,32.67,2.351917528933782,2.398652674067879,0.1484550094338324,太原直送,0.1484550094338324,山西省,太原市,万柏林区,南寒街道,山西省太原市万柏林区南寒街道铁北小区,112.43737909558398,37.85023979135605,157_85,112.43695573009376,37.84853164254594,2.0,9772344639.0,112.4362418,37.8509295,140109106000.0,0,0,97
太原直送,AWLS100,AWLS100,349,140109106036,太原***达副食店,112.445522,37.848371,1.0,1.0,112.0,64.33,2.353874071876616,2.399315513239558,0.1498493364182841,太原直送,0.1498493364182841,山西省,太原市,万柏林区,南寒街道,山西省太原市万柏林区南寒街道西矿街河龙湾综合市场,112.43888689384534,37.84756911094318,157_85,112.43695573009376,37.84853164254594,2.0,7023514183.0,112.4389346,37.847648,140109106036.0,0,0,97
太原直送,AWLS100,AWLS100,508,140109106049,太原***彩琴烟店,112.444052,37.851265,1.0,1.0,112.0,19.33,2.351699046116446,2.398480003535573,0.148253012667535,太原直送,0.148253012667535,山西省,太原市,万柏林区,南寒街道,山西省太原市万柏林区南寒街道西矿街415号院铁北小区,112.4374131462533,37.85046088906289,157_85,112.43695573009376,37.84853164254594,2.0,9772344639.0,112.4362418,37.8509295,140109106049.0,0,0,97
太原直送,AWLS100,AWLS100,527,140109106069,太原***烟酒商店,112.445434,37.853129,1.0,1.0,112.0,13.33,2.349463362988445,2.3962073306431484,0.1459346376875553,太原直送,0.1459346376875553,山西省,太原市,万柏林区,南寒街道,山西省太原市万柏林区南寒街道西矿街415-21号楼406小区,112.43879811276608,37.85232772859663,157_86,112.43695573009376,37.85302824775237,2.0,3600099242.0,112.440773,37.8533251,140109106069.0,0,0,97
太原直送,AWLS100,AWLS100,550,140109108510,（唐***久副食便利店,112.447895,37.85869,1.0,1.0,112.0,56.0,2.343389728678732,2.390667639419996,0.1399546226924949,太原直送,0.1399546226924949,山西省,太原市,万柏林区,南寒街道,山西省太原市万柏林区南寒街道西铭路辅路413小区,112.44126434659728,37.85789434747998,158_87,112.44274865831092,37.85752485295879,2.0,7023219063.0,112.4418696,37.8576722,140109108510.0,0,0,97
太原直送,AWLS100,AWLS100,547,140109109374,太原***鼎鑫商店,112.44998,37.85062,1.0,1.0,112.0,47.33,2.350181025045093,2.394495351447776,0.1455536406209077,太原直送,0.1455536406209077,山西省,太原市,万柏林区,南寒街道,山西省太原市万柏林区南寒街道西矿街372号西山煤电集团公司宿舍408小区,112.44335554059172,37.849827150399165,158_85,112.44274865831092,37.84853164254594,2.0,3600099250.0,112.4431636,37.8499121,140109109374.0,0,0,97
太原直送,AWLS100,AWLS100,423,140109110629,太原***烟酒商行,112.446336,37.848854,1.0,1.0,112.0,16.0,2.3531318257492457,2.3983870283357054,0.1490009858021032,太原直送,0.1490009858021032,山西省,太原市,万柏林区,南寒街道,山西省太原市万柏林区南寒街道西矿街山西焦煤加油站,112.43970276087256,37.84805371771306,157_85,112.43695573009376,37.84853164254594,2.0,7023514183.0,112.4389346,37.847648,140109110629.0,0,0,97
太原直送,AWLS100,AWLS100,629,140109110722,（金***虎副食便利店,112.44331,37.856754,1.0,1.0,112.0,17.0,2.346843355408706,2.395378408737333,0.1441749146349658,太原直送,0.1441749146349658,山西省,太原市,万柏林区,南寒街道,山西省太原市万柏林区南寒街道九院东路九院住宅小区,112.43666880666191,37.85594947267814,157_87,112.43695573009376,37.85752485295879,2.0,7023219026.0,112.4365709,37.8555382,140109110722.0,0,0,97
太原直送,AWLS100,AWLS100,604,140109110935,太原***原便利店,112.44323,37.856266,1.0,1.0,112.0,54.67,2.3473274505126045,2.3957627758100344,0.144618340116322,太原直送,0.144618340116322,山西省,太原市,万柏林区,王化街道,山西省太原市万柏林区王化街道九院东路九院住宅小区,112.43658868652474,37.85546124882298,157_87,112.43695573009376,37.85752485295879,2.0,7023219026.0,112.4365709,37.8555382,140109110935.0,0,0,97
太原直送,AWLS100,AWLS100,612,140109110953,太原***食便利店,112.443261,37.856202,1.0,1.0,112.0,42.67,2.347376008549327,2.3957822109803635,0.1446524113348884,太原直送,0.1446524113348884,山西省,太原市,万柏林区,南寒街道,山西省太原市万柏林区南寒街道九院东路九院住宅小区,112.4366197636409,37.85539729308832,157_87,112.43695573009376,37.85752485295879,2.0,7023219026.0,112.4365709,37.8555382,140109110953.0,0,0,97
太原直送,AWLS100,AWLS100,701,140109111227,太原***副食商店,112.441666,37.856327,1.0,1.0,112.0,12.0,2.3478338049216765,2.396890101819438,0.1454836986916402,太原直送,0.1454836986916402,山西省,太原市,万柏林区,王化街道,山西省太原市万柏林区王化街道九院中街九院住宅小区,112.43502123940732,37.85551953368141,157_87,112.43695573009376,37.85752485295879,2.0,7023219026.0,112.4365709,37.8555382,140109111227.0,0,0,97
太原直送,AWLS100,AWLS100,774,140109111890,太原***乐便利店,112.44073,37.848818,1.0,1.0,112.0,44.0,2.355176161989159,2.4025874662698508,0.1521493299163652,太原直送,0.1521493299163652,山西省,太原市,万柏林区,南寒街道,山西省太原市万柏林区南寒街道九院东路苹果苑,112.43408414633696,37.848007707421374,157_85,112.43695573009376,37.84853164254594,2.0,5236656559.0,112.4331985,37.8470518,140109111890.0,0,0,97
太原直送,AWLS100,AWLS100,796,140109112292,太原***副食商店,112.449506,37.843198,1.0,1.0,112.0,45.67,2.357285285918952,2.399811610652176,0.1521350465671846,太原直送,0.1521350465671846,山西省,太原市,万柏林区,白家庄街道,山西省太原市万柏林区白家庄街道桃杏小区A区,112.44288123236105,37.84240299284029,158_84,112.44274865831092,37.84403503733952,2.0,7023514035.0,112.4431742,37.8454169,140109112292.0,0,0,97
太原直送,AWLS100,AWLS100,632,140109112425,太原***浩浩奶屋,112.443326,37.857243,1.0,1.0,112.0,18.33,2.3463813677927576,2.395041210028756,0.1437683800040905,太原直送,0.1437683800040905,山西省,太原市,万柏林区,南寒街道,山西省太原市万柏林区南寒街道九院东路九院住宅小区,112.43668478340555,37.85643858328349,157_87,112.43695573009376,37.85752485295879,2.0,7023219026.0,112.4365709,37.8555382,140109112425.0,0,0,97
太原直送,AWLS100,AWLS100,673,140109112568,太原***货便利店,112.441786,37.856393,1.0,1.0,112.0,49.33,2.347728990549169,2.3967565887332043,0.1453597246454515,太原直送,0.1453597246454515,山西省,太原市,万柏林区,王化街道,山西省太原市万柏林区王化街道九院中街九院住宅小区,112.4351414911182,37.85558575043228,157_87,112.43695573009376,37.85752485295879,2.0,7023219026.0,112.4365709,37.8555382,140109112568.0,0,0,97
太原直送,AWLS100,AWLS100,795,140109112842,太原***货便利店,112.449347,37.843735,1.0,1.0,112.0,33.67,2.3568399735323524,2.399570174311428,0.1517554024738445,太原直送,0.1517554024738445,山西省,太原市,万柏林区,白家庄街道,山西省太原市万柏林区白家庄街道桃杏小区A区,112.44272176607244,37.84293975940124,158_84,112.44274865831092,37.84403503733952,2.0,7023514035.0,112.4431742,37.8454169,140109112842.0,0,0,97
太原直送,AWLS100,AWLS100,687,140109114093,太原***副食超市,112.441723,37.856361,1.0,1.0,112.0,31.67,2.347781545787428,2.396824920928729,0.1454226654411217,太原直送,0.1454226654411217,山西省,太原市,万柏林区,王化街道,山西省太原市万柏林区王化街道九院中街九院住宅小区,112.4350783585614,37.85555363701078,157_87,112.43695573009376,37.85752485295879,2.0,7023219026.0,112.4365709,37.8555382,140109114093.0,0,0,97
太原直送,AWLS100,AWLS100,681,140109114685,太原***百货超市,112.441786,37.856393,1.0,1.0,112.0,17.33,2.347728990549169,2.3967565887332043,0.1453597246454515,太原直送,0.1453597246454515,山西省,太原市,万柏林区,王化街道,山西省太原市万柏林区王化街道九院中街九院住宅小区,112.4351414911182,37.85558575043228,157_87,112.43695573009376,37.85752485295879,2.0,7023219026.0,112.4365709,37.8555382,140109114685.0,0,0,97
太原直送,AWLS100,AWLS100,692,140109114950,太原***烟酒商行,112.440832,37.856354,1.0,1.0,112.0,68.33,2.348109355194937,2.397495122210884,0.145954367670169,太原直送,0.145954367670169,山西省,太原市,万柏林区,王化街道,山西省太原市万柏林区王化街道九院中街九院住宅小区,112.43418545083676,37.85554512454129,157_87,112.43695573009376,37.85752485295879,2.0,7023219072.0,112.4323973,37.8555895,140109114950.0,0,0,97
太原直送,AWLS100,AWLS100,670,140109115397,（唐***久副食便利店,112.443326,37.857229,1.0,1.0,111.0,62.0,2.3463944293935346,2.395050521171528,0.1437797443487803,太原直送,0.1437797443487803,山西省,太原市,万柏林区,南寒街道,山西省太原市万柏林区南寒街道九院东路九院住宅小区,112.4366847850982,37.85642458092875,157_87,112.43695573009376,37.85752485295879,2.0,7023219026.0,112.4365709,37.8555382,140109115397.0,0,0,97
太原直送,AWLS100,AWLS100,595,140109115447,太原***琴小卖部,112.446207,37.860451,1.0,1.0,111.0,39.67,2.342351878605775,2.390756231019172,0.139482520266878,太原直送,0.139482520266878,山西省,太原市,万柏林区,南寒街道,山西省太原市万柏林区南寒街道西铭路66号佳和苑,112.43957205273576,37.85965240601593,157_87,112.43695573009376,37.85752485295879,2.0,7023261821.0,112.439128,37.86031,140109115447.0,0,0,97
太原直送,AWLS100,AWLS100,546,140109116217,太原***攀百货店,112.445288,37.852125,1.0,1.0,112.0,19.0,2.3504529588606924,2.3969854054390844,0.146848374689673,太原直送,0.146848374689673,山西省,太原市,万柏林区,南寒街道,山西省太原市万柏林区南寒街道官地矿铁北巡防队铁北小区,112.43865189260434,37.85132329162296,157_86,112.43695573009376,37.85302824775237,2.0,9772344639.0,112.4362418,37.8509295,140109116217.0,0,0,97
太原直送,AWLS100,AWLS100,585,140109116871,（金***虎副食便利店,112.441143,37.853771,1.0,1.0,111.0,29.67,2.3504065488421344,2.39898084261734,0.1478618682554761,太原直送,0.1478618682554761,山西省,太原市,万柏林区,白家庄街道,山西省太原市万柏林区白家庄街道九院南街九院住宅小区,112.43449742499476,37.85296221739745,157_86,112.43695573009376,37.85302824775237,2.0,9772344649.0,112.4338495,37.8521368,140109116871.0,0,0,97
太原直送,AWLS100,AWLS100,540,140109116919,太原***烟酒商行,112.447733,37.858759,1.0,1.0,112.0,86.0,2.343383391397148,2.3907426008110946,0.1399898119721573,太原直送,0.1399898119721573,山西省,太原市,万柏林区,南寒街道,山西省太原市万柏林区南寒街道西铭路辅路413小区,112.44110194090926,37.85796304357696,158_87,112.44274865831092,37.85752485295879,2.0,7023219063.0,112.4418696,37.8576722,140109116919.0,0,0,97
太原直送,AWLS100,AWLS100,624,140109118670,太原***货便利店,112.443313,37.856792,1.0,1.0,112.0,31.33,2.346806821931664,2.395350891621932,0.144142281100999,太原直送,0.144142281100999,山西省,太原市,万柏林区,南寒街道,山西省太原市万柏林区南寒街道九院东路九院住宅小区,112.43667180879136,37.85598748438842,157_87,112.43695573009376,37.85752485295879,2.0,7023219026.0,112.4365709,37.8555382,140109118670.0,0,0,97
太原直送,AWLS100,AWLS100,780,140109118821,太原***宏烟酒店,112.445879,37.84587,1.0,1.0,112.0,89.33,2.356081991430051,2.400720285934616,0.1517594567893525,太原直送,0.1517594567893525,山西省,太原市,万柏林区,南寒街道,山西省太原市万柏林区南寒街道瑞客隆超市(朝南商城店),112.43924503649454,37.84506837304632,157_84,112.43695573009376,37.84403503733952,2.0,3600099248.0,112.439505,37.8446932,140109118821.0,0,0,97
太原直送,AWLS100,AWLS100,589,140109118896,太原***和便利店,112.446018,37.859871,1.0,1.0,111.0,20.67,2.3429610539582195,2.391283075447157,0.1400644380597761,太原直送,0.1400644380597761,山西省,太原市,万柏林区,南寒街道,山西省太原市万柏林区南寒街道西铭路69号佳和苑,112.43938267408495,37.85907195133662,157_87,112.43695573009376,37.85752485295879,2.0,7023514732.0,112.4399031,37.8587257,140109118896.0,0,0,97
太原直送,AWLS100,AWLS100,480,140109118910,太原***食便利店,112.44325,37.850131,1.0,1.0,112.0,24.0,2.35304533101362,2.3998337792255486,0.1496416960375658,太原直送,0.1496416960375658,山西省,太原市,万柏林区,南寒街道,山西省太原市万柏林区南寒街道朝北东巷铁北小区,112.43660947290078,37.849325267514544,157_85,112.43695573009376,37.84853164254594,2.0,10274566226.0,112.4360065,37.8501136,140109118910.0,0,0,97
太原直送,AWLS100,AWLS100,382,140109119125,太原***食便利店,112.448681,37.850159,1.0,1.0,112.0,23.0,2.3510751055812777,2.3957700241277378,0.1466367116379837,太原直送,0.1466367116379837,山西省,太原市,万柏林区,南寒街道,山西省太原市万柏林区南寒街道西矿街西山煤电集团公司宿舍408小区,112.4420533213444,37.84936347214003,158_85,112.44274865831092,37.84853164254594,2.0,12222358428.0,112.4422851,37.8494124,140109119125.0,0,0,97
太原直送,AWLS100,AWLS100,532,140109119127,太原***货便利店,112.445554,37.85293,1.0,1.0,112.0,35.33,2.349606106475294,2.396250506214445,0.1460322234645466,太原直送,0.1460322234645466,山西省,太原市,万柏林区,南寒街道,山西省太原市万柏林区南寒街道建筑北巷406小区,112.43891841821537,37.852128918923945,157_86,112.43695573009376,37.85302824775237,2.0,3600099258.0,112.4410348,37.8523145,140109119127.0,0,0,97
太原直送,AWLS100,AWLS100,804,140109119188,太原***副食商店,112.454225,37.84482,1.0,1.0,112.0,44.67,2.354094082592497,2.3952214403453427,0.1483633436971575,太原直送,0.1483633436971575,山西省,太原市,万柏林区,南寒街道,山西省太原市万柏林区南寒街道四三二小区10号楼,112.44761245584328,37.84403513201998,159_84,112.44854158652808,37.84403503733952,2.0,7012633314.0,112.4462727,37.8444323,140109119188.0,0,0,97
太原直送,AWLS100,AWLS100,790,140109119189,太原***食便利店,112.446615,37.844602,1.0,1.0,112.0,24.33,2.357003488848711,2.401020506856617,0.1524402635952854,太原直送,0.1524402635952854,山西省,太原市,万柏林区,南寒街道,山西省太原市万柏林区南寒街道河涝湾街34号建工新苑,112.4399829413294,37.84380155978644,158_84,112.44274865831092,37.84403503733952,2.0,5236655700.0,112.4398283,37.8437968,140109119189.0,0,0,97
太原直送,AWLS100,AWLS100,521,140109119256,太原***发便利店,112.448259,37.852692,1.0,1.0,112.0,47.67,2.348859969463701,2.394393478673466,0.1447348546722638,太原直送,0.1447348546722638,山西省,太原市,万柏林区,南寒街道,山西省太原市万柏林区南寒街道建筑西巷建北四零八小区,112.44162996800044,37.85189605690635,158_86,112.44274865831092,37.85302824775237,2.0,3600099259.0,112.441303,37.8524246,140109119256.0,0,0,97
太原直送,AWLS100,AWLS100,572,140109119299,太原***酒批发部,112.442918,37.850917,1.0,1.0,112.0,67.0,2.3524309674685404,2.39955732045808,0.1491795471939703,太原直送,0.1491795471939703,山西省,太原市,万柏林区,南寒街道,山西省太原市万柏林区南寒街道九院东路铁北小区,112.43627663751664,37.85011080964142,157_85,112.43695573009376,37.84853164254594,2.0,10274566226.0,112.4360065,37.8501136,140109119299.0,0,0,97
太原直送,AWLS100,AWLS100,580,140109119479,太原***货便利店,112.442878,37.853408,1.0,1.0,112.0,48.0,2.350120767203677,2.3979277185613856,0.1471549470796017,太原直送,0.1471549470796017,山西省,太原市,万柏林区,白家庄街道,山西省太原市万柏林区白家庄街道九院东路九院新村403小区,112.43623624753972,37.852602150494576,157_86,112.43695573009376,37.85302824775237,2.0,7023261746.0,112.436441,37.8527434,140109119479.0,0,0,97
太原直送,AWLS100,AWLS100,601,140109119562,太原***鲜便利店,112.442746,37.854487,1.0,1.0,112.0,46.67,2.349161451159328,2.397307881645576,0.1463486629423036,太原直送,0.1463486629423036,山西省,太原市,万柏林区,王化街道,山西省太原市万柏林区王化街道九院东路九院小区3期,112.43610382444616,37.85368109791057,157_86,112.43695573009376,37.85302824775237,2.0,7023261746.0,112.436441,37.8527434,140109119562.0,0,0,97
太原直送,AWLS100,AWLS100,753,140109119616,（唐***久副食便利店,112.445756,37.846295,1.0,1.0,111.0,59.67,2.355729033298397,2.400527820160389,0.1514671392513892,太原直送,0.1514671392513892,山西省,太原市,万柏林区,南寒街道,山西省太原市万柏林区南寒街道绝味鸭脖(河涝湾巷店),112.43912169488404,37.845493211199575,157_84,112.43695573009376,37.84403503733952,2.0,7023502560.0,112.4392038,37.8458049,140109119616.0,0,0,97
太原直送,AWLS100,AWLS100,426,140109119683,太原***宝副食店,112.45151,37.854568,1.0,1.0,112.0,40.67,2.345946981319483,2.390720294747379,0.1413982097269966,太原直送,0.1413982097269966,山西省,太原市,万柏林区,南寒街道,山西省太原市万柏林区南寒街道建筑北街西山煤电社区广场,112.4448890175224,37.85377894654339,158_86,112.44274865831092,37.85302824775237,2.0,3600099244.0,112.4449187,37.8537494,140109119683.0,0,0,97
太原直送,AWLS100,AWLS100,590,140109119700,太原***生鲜超市,112.44237,37.853652,1.0,1.0,112.0,48.33,2.35007581459195,2.398144299090656,0.1472475487402116,太原直送,0.1472475487402116,山西省,太原市,万柏林区,白家庄街道,山西省太原市万柏林区白家庄街道九院南街九院住宅小区,112.43572709645308,37.85284530222219,157_86,112.43695573009376,37.85302824775237,2.0,7023261746.0,112.436441,37.8527434,140109119700.0,0,0,97
太原直送,AWLS100,AWLS100,764,140109119708,太原***化便利店,112.445783,37.846272,1.0,1.0,112.0,48.0,2.355740861343834,2.4005230977588976,0.1514719919357996,太原直送,0.1514719919357996,山西省,太原市,万柏林区,南寒街道,山西省太原市万柏林区南寒街道绝味鸭脖(河涝湾巷店),112.43914876132204,37.84547025801071,157_84,112.43695573009376,37.84403503733952,2.0,7023502560.0,112.4392038,37.8458049,140109119708.0,0,0,97
太原直送,AWLS100,AWLS100,534,140109119754,太原***林区老魏,112.447035,37.850959,1.0,1.0,112.0,44.33,2.3509160631498487,2.3964614895643503,0.1468550673963923,太原直送,0.1468550673963923,山西省,太原市,万柏林区,南寒街道,山西省太原市万柏林区南寒街道建北三巷小区,112.44040318467484,37.850160394463934,158_85,112.44274865831092,37.84853164254594,2.0,12222358428.0,112.4422851,37.8494124,140109119754.0,0,0,97
太原直送,AWLS100,AWLS100,377,140109119896,太原***兰烟酒店,112.448887,37.850269,1.0,1.0,112.0,20.0,2.350898824467784,2.395543235165044,0.1464334630881905,太原直送,0.1464334630881905,山西省,太原市,万柏林区,南寒街道,山西省太原市万柏林区南寒街道西矿街西山煤电集团公司宿舍408小区,112.44225982235965,37.84947389880804,158_85,112.44274865831092,37.84853164254594,2.0,12222358428.0,112.4422851,37.8494124,140109119896.0,0,0,97
太原直送,AWLS100,AWLS100,568,140109119947,太原***食便利店,112.44984,37.850778,1.0,1.0,112.0,23.0,2.3500833314591234,2.394494000029446,0.1454942762929212,太原直送,0.1454942762929212,山西省,太原市,万柏林区,南寒街道,山西省太原市万柏林区南寒街道西矿街西山煤电集团公司宿舍408小区,112.44321516495206,37.84998489289754,158_85,112.44274865831092,37.84853164254594,2.0,3600099250.0,112.4431636,37.8499121,140109119947.0,0,0,97
太原直送,AWLS100,AWLS100,714,140109119986,（唐***久副食便利店,112.439022,37.85649,1.0,1.0,111.0,69.0,2.348636110309556,2.398757225299178,0.1469250715500948,太原直送,0.1469250715500948,山西省,太原市,万柏林区,王化街道,山西省太原市万柏林区王化街道九院路九院住宅小区,112.4323716785231,37.85567817544725,156_87,112.4311628018766,37.85752485295879,2.0,7023219072.0,112.4323973,37.8555895,140109119986.0,0,0,97
太原直送,AWLS100,AWLS100,721,140109120037,太原***食便利店,112.437601,37.856279,1.0,1.0,112.0,63.67,2.349346781504168,2.399959603782736,0.1479509099667838,太原直送,0.1479509099667838,山西省,太原市,万柏林区,西铭街道,山西省太原市万柏林区西铭街道铭峰小区,112.43094787075124,37.8554649002403,156_87,112.4311628018766,37.85752485295879,2.0,7023261755.0,112.4298412,37.8555688,140109120037.0,0,0,97
太原直送,AWLS100,AWLS100,771,140109120117,太原***生鲜超市,112.445956,37.845866,1.0,1.0,112.0,35.33,2.3560582097006857,2.400665675982603,0.1517215393344009,太原直送,0.1517215393344009,山西省,太原市,万柏林区,南寒街道,山西省太原市万柏林区南寒街道河涝湾巷,112.43932221905985,37.8450645169194,157_84,112.43695573009376,37.84403503733952,2.0,3600099248.0,112.439505,37.8446932,140109120117.0,0,0,97
太原直送,AWLS100,AWLS100,776,140109120143,（金***虎副食便利店,112.445925,37.845901,1.0,1.0,111.0,34.0,2.356036599240343,2.4006653490432583,0.1517086193596125,太原直送,0.1517086193596125,山西省,太原市,万柏林区,南寒街道,山西省太原市万柏林区南寒街道朝南新苑,112.43929114149388,37.845099464349865,157_84,112.43695573009376,37.84403503733952,2.0,3600099248.0,112.439505,37.8446932,140109120143.0,0,0,97
太原直送,AWLS100,AWLS100,561,140109120191,太原***院内商店,112.442635,37.851004,1.0,1.0,112.0,57.0,2.3524514456415435,2.3997103383054377,0.1492681301718474,太原直送,0.1492681301718474,山西省,太原市,万柏林区,白家庄街道,山西省太原市万柏林区白家庄街道九院东路铁北小区,112.43599300010426,37.85019732712392,157_85,112.43695573009376,37.84853164254594,2.0,10274566226.0,112.4360065,37.8501136,140109120191.0,0,0,97
太原直送,AWLS100,AWLS100,522,140109120231,太原***伟便利店,112.446258,37.859404,1.0,1.0,112.0,44.0,2.343310657771608,2.3914144599406013,0.1403062854828682,太原直送,0.1403062854828682,山西省,太原市,万柏林区,南寒街道,山西省太原市万柏林区南寒街道西铭路辅路山西泓建祥源汽车销售服务有限公司,112.43962330061667,37.85860532456759,157_87,112.43695573009376,37.85752485295879,2.0,9612530726.0,112.439751,37.8585296,140109120231.0,0,0,97
太原直送,AWLS100,AWLS100,496,140109120251,太原***食便利店,112.444204,37.851178,1.0,1.0,112.0,43.33,2.351725716631514,2.3984247045227423,0.1482397623648947,太原直送,0.1482397623648947,山西省,太原市,万柏林区,南寒街道,山西省太原市万柏林区南寒街道西矿街415号院铁北小区,112.43756550336428,37.85037414960397,157_85,112.43695573009376,37.84853164254594,2.0,9772344639.0,112.4362418,37.8509295,140109120251.0,0,0,97
太原直送,AWLS100,AWLS100,491,140109120268,(唐***林鹏唐久便利店,112.446185,37.856151,1.0,1.0,111.0,33.0,2.34637306739146,2.393633997852847,0.1430156037920352,太原直送,0.1430156037920352,山西省,太原市,万柏林区,南寒街道,山西省太原市万柏林区南寒街道建筑北一巷413小区,112.43955051995265,37.85535163854023,157_87,112.43695573009376,37.85752485295879,2.0,3600099254.0,112.44067,37.8557538,140109120268.0,0,0,97
太原直送,AWLS100,AWLS100,573,140109120301,（唐***久副食便利店,112.450253,37.850304,1.0,1.0,111.0,61.67,2.350378951650347,2.3945033184395417,0.1456769162255941,太原直送,0.1456769162255941,山西省,太原市,万柏林区,南寒街道,山西省太原市万柏林区南寒街道太白西巷426小区,112.44362927653616,37.84951165330577,158_85,112.44274865831092,37.84853164254594,2.0,3600099250.0,112.4431636,37.8499121,140109120301.0,0,0,97
太原直送,AWLS100,AWLS100,640,140109120325,太原***买副食店,112.443239,37.858008,1.0,1.0,112.0,25.67,2.345698987760577,2.3945974756543067,0.1431991590093992,太原直送,0.1431991590093992,山西省,太原市,万柏林区,王化街道,山西省太原市万柏林区王化街道九院东路九院住宅小区,112.436597496046,37.8572035576756,157_87,112.43695573009376,37.85752485295879,2.0,7023219026.0,112.4365709,37.8555382,140109120325.0,0,0,97
太原直送,AWLS100,AWLS100,481,140109120381,太原***利彩云店,112.446071,37.855577,1.0,1.0,112.0,40.67,2.3469497596301467,2.394101311896593,0.1435532070000524,太原直送,0.1435532070000524,山西省,太原市,万柏林区,南寒街道,山西省太原市万柏林区南寒街道建筑北巷建北花园,112.43943631856553,37.85477732760438,157_86,112.43695573009376,37.85302824775237,2.0,3600099254.0,112.44067,37.8557538,140109120381.0,0,0,97
太原直送,AWLS100,AWLS100,659,140109120391,太原***副食商店,112.443316,37.857933,1.0,1.0,112.0,44.33,2.345741231403198,2.394589829431337,0.1432147221098436,太原直送,0.1432147221098436,山西省,太原市,万柏林区,王化街道,山西省太原市万柏林区王化街道九院东路九院住宅小区,112.43667467756428,37.8571286817151,157_87,112.43695573009376,37.85752485295879,2.0,7023219026.0,112.4365709,37.8555382,140109120391.0,0,0,97
太原直送,AWLS100,AWLS100,723,140109120392,太原***芙蓉酒楼,112.438872,37.856375,1.0,1.0,112.0,25.67,2.3487975536527173,2.3989457385818422,0.1471071305715637,太原直送,0.1471071305715637,山西省,太原市,万柏林区,西铭街道,山西省太原市万柏林区西铭街道九院中街铭峰小区,112.43222138853952,37.85556291582596,156_87,112.4311628018766,37.85752485295879,2.0,7023219072.0,112.4323973,37.8555895,140109120392.0,0,0,97
太原直送,AWLS100,AWLS100,793,140109120555,太原***货便利店,112.448431,37.845392,1.0,1.0,112.0,52.67,2.3556177593856376,2.399142051452978,0.1508130453409139,太原直送,0.1508130453409139,山西省,太原市,万柏林区,南寒街道,山西省太原市万柏林区南寒街道河涝湾街建工苑A区,112.4418032751348,37.84459520442376,158_84,112.44274865831092,37.84403503733952,2.0,7023514035.0,112.4431742,37.8454169,140109120555.0,0,0,97
太原直送,AWLS100,AWLS100,451,140109120572,太原***鑫烟酒行,112.441055,37.846483,1.0,1.0,112.0,60.67,2.357238238972037,2.403902245466103,0.1538929635948273,太原直送,0.1538929635948273,山西省,太原市,万柏林区,南寒街道,山西省太原市万柏林区南寒街道西矿街公园新居,112.43441011860811,37.84567287477793,157_84,112.43695573009376,37.84403503733952,2.0,7023514147.0,112.4339235,37.8459619,140109120572.0,0,0,97
太原直送,AWLS100,AWLS100,619,140109120584,太原***鲜便利店,112.443261,37.856202,1.0,1.0,112.0,45.33,2.347376008549327,2.3957822109803635,0.1446524113348884,太原直送,0.1446524113348884,山西省,太原市,万柏林区,南寒街道,山西省太原市万柏林区南寒街道九院东路九院住宅小区,112.4366197636409,37.85539729308832,157_87,112.43695573009376,37.85752485295879,2.0,7023219026.0,112.4365709,37.8555382,140109120584.0,0,0,97
太原直送,AWLS100,AWLS100,516,140109120616,（唐***久副食便利店,112.448042,37.85312,1.0,1.0,111.0,47.67,2.3485378481365817,2.39426962513519,0.1444953920718589,太原直送,0.1444953920718589,山西省,太原市,万柏林区,南寒街道,山西省太原市万柏林区南寒街道建筑西巷建北四零八小区,112.4414123807802,37.8523237023544,158_86,112.44274865831092,37.85302824775237,2.0,3600099259.0,112.441303,37.8524246,140109120616.0,0,0,97
太原直送,AWLS100,AWLS100,653,140109120667,太原***琴便利店,112.436395,37.856204,1.0,1.0,112.0,51.33,2.349853445051626,2.400911166588631,0.1487444739309641,太原直送,0.1487444739309641,山西省,太原市,万柏林区,西铭街道,山西省太原市万柏林区西铭街道九院中街1号西铭福泰苑,112.4297395558388,37.85538805197808,156_87,112.4311628018766,37.85752485295879,2.0,7023261755.0,112.4298412,37.8555688,140109120667.0,0,0,97
太原直送,AWLS100,AWLS100,650,140109120668,太原***盛便利店,112.436598,37.856651,1.0,1.0,112.0,53.0,2.3493632647858,2.4004626073904967,0.1482666391640384,太原直送,0.1482666391640384,山西省,太原市,万柏林区,西铭街道,山西省太原市万柏林区西铭街道九院中街1号西铭福泰苑,112.42994288768574,37.85583543171958,156_87,112.4311628018766,37.85752485295879,2.0,7023261755.0,112.4298412,37.8555688,140109120668.0,0,0,97
太原直送,AWLS100,AWLS100,434,140109120691,太原***烟酒商行,112.443944,37.847666,1.0,1.0,112.0,59.0,2.3550974195803467,2.400961087245064,0.1513041193424692,太原直送,0.1513041193424692,山西省,太原市,万柏林区,南寒街道,山西省太原市万柏林区南寒街道西矿街朝北小区,112.43730533557375,37.84686110618218,157_85,112.43695573009376,37.84853164254594,2.0,7023514024.0,112.4372717,37.8468926,140109120691.0,0,0,97
太原直送,AWLS100,AWLS100,635,140109120706,太原***秀凉菜店,112.444103,37.859438,1.0,1.0,112.0,31.33,2.3440538149874057,2.3930013807204555,0.1415343460966298,太原直送,0.1415343460966298,山西省,太原市,万柏林区,南寒街道,山西省太原市万柏林区南寒街道西铭路318号,112.43746327455266,37.85863534644708,157_87,112.43695573009376,37.85752485295879,2.0,7023262093.0,112.4381752,37.8591838,140109120706.0,0,0,97
太原直送,AWLS100,AWLS100,587,140109120712,太原***酒便利店,112.441862,37.852392,1.0,1.0,112.0,63.67,2.351434210021192,2.3993622496865674,0.1485701900180489,太原直送,0.1485701900180489,山西省,太原市,万柏林区,白家庄街道,山西省太原市万柏林区白家庄街道九院东路403高层九院新村403小区,112.4352181397953,37.85158421494189,157_86,112.43695573009376,37.85302824775237,2.0,9772344653.0,112.4350219,37.8512856,140109120712.0,0,0,97
太原直送,AWLS100,AWLS100,786,140109120713,太原***锋烟酒店,112.445922,37.845859,1.0,1.0,112.0,77.0,2.3560768977834776,2.400695647390567,0.151745677688035,太原直送,0.151745677688035,山西省,太原市,万柏林区,南寒街道,山西省太原市万柏林区南寒街道瑞客隆超市(朝南商城店),112.43928813947105,37.84505745195081,157_84,112.43695573009376,37.84403503733952,2.0,3600099248.0,112.439505,37.8446932,140109120713.0,0,0,97
太原直送,AWLS100,AWLS100,583,140109120764,太原***品经销部,112.446009,37.859876,1.0,1.0,111.0,49.33,2.3429596218733666,2.391286471715587,0.1400655887254222,太原直送,0.1400655887254222,山西省,太原市,万柏林区,南寒街道,山西省太原市万柏林区南寒街道喜来聚涮肉坊(佳和苑店)佳和苑,112.43937365215416,37.85907693526116,157_87,112.43695573009376,37.85752485295879,2.0,7023514732.0,112.4399031,37.8587257,140109120764.0,0,0,97
太原直送,AWLS100,AWLS100,467,140109120792,太原***食经销部,112.446095,37.847933,3.0,1.0,112.0,26.0,2.3540781039829595,2.3991814098931745,0.1499054211961672,太原直送,0.1499054211961672,山西省,太原市,万柏林区,南寒街道,山西省太原市万柏林区南寒街道河龙湾综合市场,112.43946129883452,37.847132112790376,157_85,112.43695573009376,37.84853164254594,2.0,7023515556.0,112.43899,37.8475433,140109120792.0,0,0,97
太原直送,AWLS100,AWLS100,432,140109120829,太原***品便利店,112.450732,37.854339,1.0,1.0,112.0,56.33,2.3464384009449253,2.391452530480163,0.1420095191774079,太原直送,0.1420095191774079,山西省,太原市,万柏林区,南寒街道,山西省太原市万柏林区南寒街道412小区西铭路47号院西铭412小区,112.4441090220614,37.85354829963002,158_86,112.44274865831092,37.85302824775237,2.0,3600099244.0,112.4449187,37.8537494,140109120829.0,0,0,97
太原直送,AWLS100,AWLS100,445,140109120921,太原***粮油商店,112.442232,37.846986,1.0,1.0,112.0,33.67,2.356346153284356,2.402689904156792,0.1528183679077834,太原直送,0.1528183679077834,山西省,太原市,万柏林区,南寒街道,山西省太原市万柏林区南寒街道西矿街朝北小区,112.4355895998414,37.84617796966238,157_84,112.43695573009376,37.84403503733952,2.0,7215298524.0,112.4361379,37.8455774,140109120921.0,0,0,97
太原直送,AWLS100,AWLS100,362,140109120933,太原***烟酒商行,112.441582,37.845388,1.0,1.0,112.0,76.33,2.358070973157933,2.404240412154534,0.1545081342389462,太原直送,0.1545081342389462,山西省,太原市,万柏林区,南寒街道,山西省太原市万柏林区南寒街道虎峪河北沿岸金鼎花园,112.43493838077354,37.84457859304534,157_84,112.43695573009376,37.84403503733952,2.0,5236655702.0,112.4343459,37.8438212,140109120933.0,0,0,97
太原直送,AWLS100,AWLS100,553,140109120974,太原***酒便利店,112.448404,37.858534,1.0,1.0,112.0,53.67,2.343352965144177,2.3903917010383484,0.1397952488534589,太原直送,0.1397952488534589,山西省,太原市,万柏林区,南寒街道,山西省太原市万柏林区南寒街道西铭路辅路新铭佳园,112.4417746216948,37.85773931893867,158_87,112.44274865831092,37.85752485295879,2.0,7023219063.0,112.4418696,37.8576722,140109120974.0,0,0,97
太原直送,AWLS100,AWLS100,802,140109120993,太原***货便利店,112.453915,37.844748,1.0,1.0,112.0,25.0,2.354271215309951,2.395499772248372,0.1485788642741614,太原直送,0.1485788642741614,山西省,太原市,万柏林区,南寒街道,山西省太原市万柏林区南寒街道千禧街四三二小区,112.44730161952506,37.84396244775412,159_84,112.44854158652808,37.84403503733952,2.0,7012633314.0,112.4462727,37.8444323,140109120993.0,0,0,97
太原直送,AWLS100,AWLS100,458,140109121017,太原***琳烟酒店,112.446585,37.852792,1.0,1.0,112.0,15.67,2.349365528227779,2.395574044713708,0.1455724770174624,太原直送,0.1455724770174624,山西省,太原市,万柏林区,南寒街道,山西省太原市万柏林区南寒街道建筑北街建筑北巷小学,112.43995188041772,37.85199283702583,158_86,112.44274865831092,37.85302824775237,2.0,3600099258.0,112.4410348,37.8523145,140109121017.0,0,0,97
太原直送,AWLS100,AWLS100,468,140109121018,太原***酒便利店,112.445192,37.850501,1.0,1.0,112.0,46.67,2.352003482393889,2.3981399142568742,0.1482514808189057,太原直送,0.1482514808189057,山西省,太原市,万柏林区,南寒街道,山西省太原市万柏林区南寒街道建筑北巷建北三巷小区,112.43855586483494,37.84969884665959,157_85,112.43695573009376,37.84853164254594,2.0,7023515216.0,112.4379687,37.8488603,140109121018.0,0,0,97
太原直送,AWLS100,AWLS100,555,140109121029,太原***胜食品店,112.450266,37.848809,1.0,1.0,112.0,51.33,2.351771214861043,2.395492758428626,0.1469410653459374,太原直送,0.1469410653459374,山西省,太原市,万柏林区,南寒街道,山西省太原市万柏林区南寒街道南寒太白西巷,112.44364249021145,37.84801643540579,158_85,112.44274865831092,37.84853164254594,2.0,12222358427.0,112.4430354,37.8467025,140109121029.0,0,0,97
太原直送,AWLS100,AWLS100,798,140109121041,太原***食便利店,112.449271,37.843917,1.0,1.0,112.0,16.67,2.3566969278352303,2.399504797749948,0.1516383630879761,太原直送,0.1516383630879761,山西省,太原市,万柏林区,白家庄街道,山西省太原市万柏林区白家庄街道桃杏小区A区,112.44264555259912,37.84312163627006,158_84,112.44274865831092,37.84403503733952,2.0,7023514035.0,112.4431742,37.8454169,140109121041.0,0,0,97
太原直送,AWLS100,AWLS100,729,140109121047,太原***媛副食店,112.438314,37.852626,1.0,1.0,112.0,50.0,2.3524949021738566,2.401854708962424,0.1504495826846938,太原直送,0.1504495826846938,山西省,太原市,万柏林区,西铭街道,山西省太原市万柏林区西铭街道九院路九院住宅小区南区,112.43166272171888,37.851812405481134,156_86,112.4311628018766,37.85302824775237,2.0,7023502541.0,112.431617,37.8519408,140109121047.0,0,0,97
太原直送,AWLS100,AWLS100,338,140109121087,太原***龙便利店,112.445822,37.84729,1.0,1.0,112.0,29.0,2.354776210396644,2.399814033696146,0.1505938453257578,太原直送,0.1505938453257578,山西省,太原市,万柏林区,南寒街道,山西省太原市万柏林区南寒街道虎峪河北沿岸西山425小区,112.43918773038942,37.8464884956635,157_85,112.43695573009376,37.84853164254594,2.0,7023515005.0,112.4390244,37.8463997,140109121087.0,0,0,97
太原直送,AWLS100,AWLS100,707,140109121088,太原***生活超市,112.439723,37.856371,1.0,1.0,112.0,60.0,2.34849380051981,2.398312414629291,0.1466004095628619,太原直送,0.1466004095628619,山西省,太原市,万柏林区,王化街道,山西省太原市万柏林区王化街道九院中街九院住宅小区,112.43307412813432,37.855560290775855,156_87,112.4311628018766,37.85752485295879,2.0,7023219072.0,112.4323973,37.8555895,140109121088.0,0,0,97
太原直送,AWLS100,AWLS100,784,140109121110,太原***食便利店,112.445761,37.845881,1.0,1.0,112.0,51.67,2.3561138921809346,2.400800722001096,0.1518135134564748,太原直送,0.1518135134564748,山西省,太原市,万柏林区,南寒街道,山西省太原市万柏林区南寒街道瑞客隆超市(朝南商城店),112.43912675666957,37.84507915378701,157_84,112.43695573009376,37.84403503733952,2.0,3600099248.0,112.439505,37.8446932,140109121110.0,0,0,97
太原直送,AWLS100,AWLS100,663,140109121156,太原***百货超市,112.44333,37.857805,1.0,1.0,112.0,56.67,2.345855606634175,2.3946644842941955,0.1433102243840242,太原直送,0.1433102243840242,山西省,太原市,万柏林区,南寒街道,山西省太原市万柏林区南寒街道九院东路九院住宅小区,112.43668872442552,37.85700068501467,157_87,112.43695573009376,37.85752485295879,2.0,7023219026.0,112.4365709,37.8555382,140109121156.0,0,0,97
太原直送,AWLS100,AWLS100,399,140109121157,太原***江便利店,112.441715,37.848029,1.0,1.0,112.0,41.67,2.3555583431611296,2.4023793309102945,0.1522429948470539,太原直送,0.1522429948470539,山西省,太原市,万柏林区,南寒街道,山西省太原市万柏林区南寒街道铁南路朝北小区,112.43507134877494,37.847220247582655,157_85,112.43695573009376,37.84853164254594,2.0,7023514147.0,112.4339235,37.8459619,140109121157.0,0,0,97
太原直送,AWLS100,AWLS100,497,140109121227,太原***诚便利店,112.44904,37.85593,1.0,1.0,112.0,44.67,2.345556777126061,2.391652182434771,0.1416001418713979,太原直送,0.1416001418713979,山西省,太原市,万柏林区,南寒街道,山西省太原市万柏林区南寒街道建筑中巷西铭412小区,112.442412522266,37.85513614116107,158_86,112.44274865831092,37.85302824775237,2.0,3600099254.0,112.44067,37.8557538,140109121227.0,0,0,97
太原直送,AWLS100,AWLS100,528,140109121283,太原***酒便利店,112.447168,37.859013,1.0,1.0,112.0,51.0,2.343348929625505,2.3909952381048325,0.1401032495162032,太原直送,0.1401032495162032,山西省,太原市,万柏林区,南寒街道,山西省太原市万柏林区南寒街道西铭路辅路413小区,112.44053553380093,37.85821599358282,158_87,112.44274865831092,37.85752485295879,2.0,7023514732.0,112.4399031,37.8587257,140109121283.0,0,0,97
太原直送,AWLS100,AWLS100,535,140109121293,太原***织便利店,112.447245,37.858998,1.0,1.0,112.0,35.67,2.3433353063735893,2.390947745870246,0.1400715364697643,太原直送,0.1400715364697643,山西省,太原市,万柏林区,南寒街道,山西省太原市万柏林区南寒街道西铭路辅路413小区,112.440612722334,37.85820113929671,158_87,112.44274865831092,37.85752485295879,2.0,7023514732.0,112.4399031,37.8587257,140109121293.0,0,0,97
太原直送,AWLS100,AWLS100,605,140109121324,太原***苗便利店,112.445731,37.859753,1.0,1.0,111.0,74.0,2.343174310822824,2.391575888087396,0.140327174645544,太原直送,0.140327174645544,山西省,太原市,万柏林区,南寒街道,山西省太原市万柏林区南寒街道西铭路佳和苑,112.4390950101288,37.85895339312588,157_87,112.43695573009376,37.85752485295879,2.0,9612530726.0,112.439751,37.8585296,140109121324.0,0,0,97
太原直送,AWLS100,AWLS100,473,140109121373,太原***酒便利店,112.443244,37.850132,1.0,1.0,112.0,30.0,2.353046551454937,2.3998375843896107,0.1496442385192224,太原直送,0.1496442385192224,山西省,太原市,万柏林区,南寒街道,山西省太原市万柏林区南寒街道朝北东巷铁北小区,112.43660345935244,37.84932625703453,157_85,112.43695573009376,37.84853164254594,2.0,10274566226.0,112.4360065,37.8501136,140109121373.0,0,0,97
太原直送,AWLS100,AWLS100,777,140109121417,太原***酒经销部,112.450526,37.851216,1.0,1.0,112.0,23.33,2.3494295427567087,2.393690912950334,0.1447587262240172,太原直送,0.1447587262240172,山西省,太原市,万柏林区,南寒街道,山西省太原市万柏林区南寒街道西矿街409小区,112.4439028676191,37.850424360489576,158_85,112.44274865831092,37.84853164254594,2.0,5236648047.0,112.4440103,37.8503734,140109121417.0,0,0,97
太原直送,AWLS100,AWLS100,504,140109121470,(唐***楠雨唐久便利店,112.449404,37.855186,1.0,1.0,111.0,34.0,2.346121464799719,2.391876903852909,0.1420208483638887,太原直送,0.1420208483638887,山西省,太原市,万柏林区,南寒街道,山西省太原市万柏林区南寒街道建筑中巷西铭412小区,112.44277752805498,37.85439274466235,158_86,112.44274865831092,37.85302824775237,2.0,3600098574.0,112.4424081,37.8528651,140109121470.0,0,0,97
太原直送,AWLS100,AWLS100,541,140109121485,太原***信烟酒店,112.449229,37.851275,1.0,1.0,112.0,32.67,2.3498370173005587,2.394616884107556,0.1454009158155442,太原直送,0.1454009158155442,山西省,太原市,万柏林区,南寒街道,山西省太原市万柏林区南寒街道建筑西巷西山煤电集团公司宿舍408小区,112.44260255899238,37.85048074586886,158_85,112.44274865831092,37.84853164254594,2.0,5236648043.0,112.4430706,37.8500124,140109121485.0,0,0,97
太原直送,AWLS100,AWLS100,65,140109121620,太原***隆便利店,112.444882,37.858516,1.0,1.0,112.0,29.33,2.3446338218617373,2.393032587257633,0.1418272373347171,太原直送,0.1418272373347171,山西省,太原市,万柏林区,南寒街道,山西省太原市万柏林区南寒街道铁南路佳通苑小区,112.4382441760218,37.857714609997096,157_87,112.43695573009376,37.85752485295879,2.0,7023262093.0,112.4381752,37.8591838,140109121620.0,0,0,97
太原直送,AWLS100,AWLS100,82,140109121626,太原***浩烟酒店,112.443265,37.846801,1.0,1.0,112.0,76.33,2.356148316859532,2.402044054179066,0.1524001080970758,太原直送,0.1524001080970758,山西省,太原市,万柏林区,南寒街道,山西省太原市万柏林区南寒街道虎峪河北沿岸河龙湾公园,112.4366249089346,37.84599475205001,157_84,112.43695573009376,37.84403503733952,2.0,7215298513.0,112.4369915,37.8455451,140109121626.0,0,0,97
太原直送,AWLS100,AWLS100,86,140109121638,太原***家便利店,112.452127,37.846604,1.0,1.0,112.0,46.67,2.3531701206136777,2.395584393230591,0.1478686866006429,太原直送,0.1478686866006429,山西省,太原市,万柏林区,南寒街道,山西省太原市万柏林区南寒街道河涝湾街润景·鼎盛家园1期,112.4455086009841,37.84581493068036,158_84,112.44274865831092,37.84403503733952,2.0,5236656530.0,112.4457121,37.8458973,140109121638.0,0,0,97
太原直送,AWLS100,AWLS100,85,140109121647,太原***酒经销部,112.452277,37.847058,1.0,1.0,112.0,52.0,2.3526924452858298,2.395169071494123,0.1474015043376462,太原直送,0.1474015043376462,山西省,太原市,万柏林区,南寒街道,山西省太原市万柏林区南寒街道南寒河南三巷西山敬老中心,112.44565894328186,37.846269319989005,159_84,112.44854158652808,37.84403503733952,2.0,7023514243.0,112.4454364,37.8464459,140109121647.0,0,0,97
太原直送,AWLS100,AWLS100,83,140109121656,太原***烟酒商行,112.442746,37.854487,1.0,1.0,112.0,63.0,2.349161451159328,2.397307881645576,0.1463486629423036,太原直送,0.1463486629423036,山西省,太原市,万柏林区,王化街道,山西省太原市万柏林区王化街道九院东路九院小区3期,112.43610382444616,37.85368109791057,157_86,112.43695573009376,37.85302824775237,2.0,7023261746.0,112.436441,37.8527434,140109121656.0,0,0,97
太原直送,AWLS100,AWLS100,93,140109121740,太原***烟酒商店,112.447399,37.851349,1.0,1.0,112.0,21.33,2.350421677082645,2.3959301393139536,0.1463295598025197,太原直送,0.1463295598025197,山西省,太原市,万柏林区,南寒街道,山西省太原市万柏林区南寒街道建筑西巷13号建北三巷小区,112.44076802034776,37.85055115958308,158_85,112.44274865831092,37.84853164254594,2.0,3600099258.0,112.4410348,37.8523145,140109121740.0,0,0,97
太原直送,AWLS100,AWLS100,100,140109121758,太原***烟酒商店,112.450877,37.854325,1.0,1.0,112.0,30.33,2.34639974974427,2.39135387957219,0.1419431963145755,太原直送,0.1419431963145755,山西省,太原市,万柏林区,南寒街道,山西省太原市万柏林区南寒街道建筑北街西山煤电社区广场,112.44425439879932,37.8535345955102,158_86,112.44274865831092,37.85302824775237,2.0,3600099244.0,112.4449187,37.8537494,140109121758.0,0,0,97
太原直送,AWLS100,AWLS100,111,140109121760,太原***竹便利店,112.439676,37.847319,1.0,1.0,112.0,41.33,2.356954001076175,2.404372346606069,0.1539817393881461,太原直送,0.1539817393881461,山西省,太原市,万柏林区,杜儿坪街道,山西省太原市万柏林区杜儿坪街道九院东路九润龙湾一号,112.4330281262143,37.84650672139339,156_85,112.4311628018766,37.84853164254594,2.0,7023514445.0,112.4329794,37.8463135,140109121760.0,0,0,97
太原直送,AWLS100,AWLS100,104,140109121764,太原***仁便利店,112.448934,37.851728,1.0,1.0,112.0,19.67,2.349519181506293,2.394534089681124,0.1451779566807586,太原直送,0.1451779566807586,山西省,太原市,万柏林区,南寒街道,山西省太原市万柏林区南寒街道建筑西巷和谐家园文明小区,112.4423067638702,37.85093323207619,158_86,112.44274865831092,37.85302824775237,2.0,5236648043.0,112.4430706,37.8500124,140109121764.0,0,0,97
太原直送,AWLS100,AWLS100,109,140109121789,太原***酒副食店,112.441156,37.847761,1.0,1.0,112.0,21.0,2.3560093031974625,2.40297460739309,0.152779186714025,太原直送,0.152779186714025,山西省,太原市,万柏林区,南寒街道,山西省太原市万柏林区南寒街道铁南路朝北小区,112.43451117954932,37.8469512523578,157_85,112.43695573009376,37.84853164254594,2.0,7023514147.0,112.4339235,37.8459619,140109121789.0,0,0,97
太原直送,AWLS100,AWLS100,108,140109121799,太原***涛便利店,112.4412,37.847673,1.0,1.0,112.0,10.33,2.3560756107682543,2.403000501096912,0.1528270838202458,太原直送,0.1528270838202458,山西省,太原市,万柏林区,南寒街道,山西省太原市万柏林区南寒街道铁南路朝北小区,112.43455528421458,37.84686331253217,157_85,112.43695573009376,37.84853164254594,2.0,7023514147.0,112.4339235,37.8459619,140109121799.0,0,0,97
太原直送,AWLS100,AWLS100,106,140109121801,太原***百货商店,112.445822,37.84729,1.0,1.0,112.0,60.33,2.354776210396644,2.399814033696146,0.1505938453257578,太原直送,0.1505938453257578,山西省,太原市,万柏林区,南寒街道,山西省太原市万柏林区南寒街道虎峪河北沿岸西山425小区,112.43918773038942,37.8464884956635,157_85,112.43695573009376,37.84853164254594,2.0,7023515005.0,112.4390244,37.8463997,140109121801.0,0,0,97
太原直送,AWLS100,AWLS100,117,140109121835,太原***乡阁饭店,112.442705,37.850914,1.0,1.0,112.0,29.0,2.352510284959659,2.399718123232387,0.1493025940330518,太原直送,0.1493025940330518,山西省,太原市,万柏林区,白家庄街道,山西省太原市万柏林区白家庄街道九院东路铁北小区,112.43606316568508,37.85010743492655,157_85,112.43695573009376,37.84853164254594,2.0,10274566226.0,112.4360065,37.8501136,140109121835.0,0,0,97
太原直送,AWLS100,AWLS100,115,140109121852,太原***烟酒商行,112.438314,37.852626,1.0,1.0,112.0,44.33,2.3524949021738566,2.401854708962424,0.1504495826846938,太原直送,0.1504495826846938,山西省,太原市,万柏林区,西铭街道,山西省太原市万柏林区西铭街道九院路九院住宅小区南区,112.43166272171888,37.851812405481134,156_86,112.4311628018766,37.85302824775237,2.0,7023502541.0,112.431617,37.8519408,140109121852.0,0,0,97
太原直送,AWLS100,AWLS100,66,140109121861,太原***烟酒商行,112.444038,37.859338,1.0,1.0,111.0,66.0,2.3441705097458208,2.3931164143528347,0.1416534540701299,太原直送,0.1416534540701299,山西省,太原市,万柏林区,南寒街道,山西省太原市万柏林区南寒街道九院东路,112.43739813858885,37.8585352121084,157_87,112.43695573009376,37.85752485295879,2.0,7023262093.0,112.4381752,37.8591838,140109121861.0,0,0,97
太原直送,AWLS100,AWLS100,116,140109121869,太原***斌便利店,112.437792,37.852698,1.0,1.0,112.0,36.67,2.3526163358036105,2.402196652602987,0.1507009589418732,太原直送,0.1507009589418732,山西省,太原市,万柏林区,西铭街道,山西省太原市万柏林区西铭街道九院路九院小区西区,112.43113967906925,37.85188360011725,156_86,112.4311628018766,37.85302824775237,2.0,7023502541.0,112.431617,37.8519408,140109121869.0,0,0,97
太原直送,AWLS100,AWLS100,122,140109121913,太原***田便利店,112.440668,37.848806,1.0,1.0,112.0,33.67,2.355209661352886,2.4026416859001207,0.1521944788551754,太原直送,0.1521944788551754,山西省,太原市,万柏林区,南寒街道,山西省太原市万柏林区南寒街道九院东路苹果苑,112.43402201676398,37.84799560173518,156_85,112.4311628018766,37.84853164254594,2.0,5236656559.0,112.4331985,37.8470518,140109121913.0,0,0,97
太原直送,AWLS100,AWLS100,118,140109121981,太原***鲜便利店,112.440896,37.858117,1.0,1.0,112.0,24.33,2.3464420529800014,2.3962756604364217,0.144499494410882,太原直送,0.144499494410882,山西省,太原市,万柏林区,王化街道,山西省太原市万柏林区王化街道西苑西巷九院住宅小区,112.43424937335028,37.85730852857148,157_87,112.43695573009376,37.85752485295879,2.0,7023219018.0,112.432738,37.8571824,140109121981.0,0,0,97
太原直送,AWLS100,AWLS100,125,140109122024,太原***渊便利店,112.448624,37.844802,1.0,1.0,112.0,60.0,2.356100274698425,2.3993932895065377,0.1512157711417695,太原直送,0.1512157711417695,山西省,太原市,万柏林区,南寒街道,山西省太原市万柏林区南寒街道建工苑A区,112.44199682590327,37.84400549069045,158_84,112.44274865831092,37.84403503733952,2.0,7023514035.0,112.4431742,37.8454169,140109122024.0,0,0,97
太原直送,AWLS100,AWLS100,103,140109122039,太原***诚信商店,112.451358,37.851596,1.0,1.0,112.0,54.0,2.348778045412123,2.3928179364517046,0.1439962243741121,太原直送,0.1439962243741121,山西省,太原市,万柏林区,南寒街道,山西省太原市万柏林区南寒街道西矿街409小区,112.44473697869418,37.85080613821361,158_86,112.44274865831092,37.85302824775237,2.0,5236648047.0,112.4440103,37.8503734,140109122039.0,0,0,97
太原直送,AWLS100,AWLS100,110,140109122040,太原***硕便利店,112.441542,37.847982,1.0,1.0,112.0,33.0,2.355664357538652,2.4025395887645624,0.1523791571114615,太原直送,0.1523791571114615,山西省,太原市,万柏林区,南寒街道,山西省太原市万柏林区南寒街道铁南路朝北小区,112.4348979809343,37.8471729440848,157_85,112.43695573009376,37.84853164254594,2.0,7023514147.0,112.4339235,37.8459619,140109122040.0,0,0,97
太原直送,AWLS100,AWLS100,129,140109122054,太原***市西山店,112.441003,37.846711,3.0,1.0,112.0,11.0,2.3570441455093727,2.403788892478916,0.1537333598279851,太原直送,0.1537333598279851,山西省,太原市,万柏林区,南寒街道,山西省太原市万柏林区南寒街道西矿街441号朝北小区,112.43435798030374,37.84590082393687,157_84,112.43695573009376,37.84403503733952,2.0,7023514147.0,112.4339235,37.8459619,140109122054.0,0,0,97
太原直送,AWLS100,AWLS100,128,140109122078,太原***盛烟酒店,112.450044,37.84628,1.0,1.0,112.0,35.33,2.354213533854987,2.397349067756503,0.149215446821027,太原直送,0.149215446821027,山西省,太原市,万柏林区,南寒街道,山西省太原市万柏林区南寒街道乐学国际早期教育学校(西山教学区)迎西城朝南水岸,112.44342022749136,37.84548657379792,158_84,112.44274865831092,37.84403503733952,2.0,7023514035.0,112.4431742,37.8454169,140109122078.0,0,0,97
太原直送,AWLS100,AWLS100,124,140109122080,太原***副食商店,112.449022,37.844997,1.0,1.0,112.0,33.33,2.3557763108311027,2.3989670287263216,0.1508423692368954,太原直送,0.1508423692368954,山西省,太原市,万柏林区,南寒街道,山西省太原市万柏林区南寒街道建工苑A区,112.44239579663468,37.84420131206879,158_84,112.44274865831092,37.84403503733952,2.0,7023514035.0,112.4431742,37.8454169,140109122080.0,0,0,97
太原直送,AWLS100,AWLS100,333,140109122136,太原***活便利店,112.436598,37.856651,1.0,1.0,112.0,29.67,2.3493632647858,2.4004626073904967,0.1482666391640384,太原直送,0.1482666391640384,山西省,太原市,万柏林区,西铭街道,山西省太原市万柏林区西铭街道九院中街1号西铭福泰苑,112.42994288768574,37.85583543171958,156_87,112.4311628018766,37.85752485295879,2.0,7023261755.0,112.4298412,37.8555688,140109122136.0,0,0,97
太原直送,AWLS100,AWLS100,119,140109122139,太原***糖便利店,112.436395,37.856204,1.0,1.0,112.0,24.33,2.349853445051626,2.400911166588631,0.1487444739309641,太原直送,0.1487444739309641,山西省,太原市,万柏林区,西铭街道,山西省太原市万柏林区西铭街道九院中街1号西铭福泰苑,112.4297395558388,37.85538805197808,156_87,112.4311628018766,37.85752485295879,2.0,7023261755.0,112.4298412,37.8555688,140109122139.0,0,0,97
太原直送,AWLS100,AWLS100,90,140109122169,太原***处食品店,112.44837,37.857058,1.0,1.0,112.0,35.67,2.344743230121796,2.391400082018272,0.1410352550038452,太原直送,0.1410352550038452,山西省,太原市,万柏林区,南寒街道,山西省太原市万柏林区南寒街道建筑中巷西铭412小区,112.44174071564068,37.856263003246845,158_87,112.44274865831092,37.85752485295879,2.0,3600099254.0,112.44067,37.8557538,140109122169.0,0,0,97
太原直送,AWLS100,AWLS100,112,140109122220,太原***生烟酒店,112.4427,37.852542,1.0,1.0,112.0,33.33,2.35099285556762,2.398637226218459,0.1479668153674984,太原直送,0.1479668153674984,山西省,太原市,万柏林区,白家庄街道,山西省太原市万柏林区白家庄街道九院东路403高层九院新村403小区,112.4360579578154,37.85173569450989,157_86,112.43695573009376,37.85302824775237,2.0,9772344639.0,112.4362418,37.8509295,140109122220.0,0,0,97
太原直送,AWLS100,AWLS100,73,140109122287,太原***优便利店,112.447868,37.858438,1.0,1.0,112.0,34.0,2.343634661290449,2.3908555478457907,0.1401775147803663,太原直送,0.1401775147803663,山西省,太原市,万柏林区,南寒街道,山西省太原市万柏林区南寒街道建筑中巷413小区,112.44123731072251,37.85764225223359,158_87,112.44274865831092,37.85752485295879,2.0,7023219063.0,112.4418696,37.8576722,140109122287.0,0,0,97
太原直送,AWLS100,AWLS100,533,140109122310,太原***鑫百货店,112.445631,37.854465,1.0,1.0,112.0,25.0,2.34814558721132,2.395170209318949,0.1447192963222226,太原直送,0.1447192963222226,山西省,太原市,万柏林区,南寒街道,山西省太原市万柏林区南寒街道建筑北巷406小区,112.43899541368988,37.85366431736669,157_86,112.43695573009376,37.85302824775237,2.0,3600099242.0,112.440773,37.8533251,140109122310.0,0,0,97
太原直送,AWLS100,AWLS100,46,140109122332,太原***烟酒商行,112.451755,37.856643,1.0,1.0,112.0,36.67,2.343921047764193,2.389153386176153,0.1395180255164157,太原直送,0.1395180255164157,山西省,太原市,万柏林区,南寒街道,山西省太原市万柏林区南寒街道西铭路西铭路31号院,112.44513440976408,37.855854804530914,158_87,112.44274865831092,37.85752485295879,2.0,7023275941.0,112.4453245,37.8557142,140109122332.0,0,0,97
太原直送,AWLS100,AWLS100,139,140109122337,太原***烟酒商行,112.44412,37.851037,1.0,1.0,112.0,44.0,2.351887466241743,2.398581315181123,0.1484036143933174,太原直送,0.1484036143933174,山西省,太原市,万柏林区,南寒街道,山西省太原市万柏林区南寒街道铁北小区,112.43748132872676,37.85023297441366,157_85,112.43695573009376,37.84853164254594,2.0,9772344639.0,112.4362418,37.8509295,140109122337.0,0,0,97
太原直送,AWLS100,AWLS100,172,140109122360,（唐***伟唐久便利店,112.443081,37.853792,1.0,1.0,111.0,62.67,2.349689457743936,2.397520575730264,0.1467239712691792,太原直送,0.1467239712691792,山西省,太原市,万柏林区,南寒街道,山西省太原市万柏林区南寒街道九院东路406小区,112.43643965280948,37.85298657222396,157_86,112.43695573009376,37.85302824775237,2.0,7023261746.0,112.436441,37.8527434,140109122360.0,0,0,97
太原直送,AWLS100,AWLS100,183,140109122366,太原***儿烟酒店,112.445953,37.845869,1.0,1.0,112.0,20.67,2.356056479869697,2.400665902984624,0.1517206151978005,太原直送,0.1517206151978005,山西省,太原市,万柏林区,南寒街道,山西省太原市万柏林区南寒街道河涝湾巷,112.43931921159825,37.84506751176803,157_84,112.43695573009376,37.84403503733952,2.0,3600099248.0,112.439505,37.8446932,140109122366.0,0,0,97
太原直送,AWLS100,AWLS100,228,140109122383,太原***月烟酒店,112.444894,37.846447,1.0,1.0,112.0,76.33,2.355895392378234,2.401067738408057,0.1518052213100702,太原直送,0.1518052213100702,山西省,太原市,万柏林区,南寒街道,山西省太原市万柏林区南寒街道虎峪河南沿岸,112.43825766213192,37.84564363734969,157_84,112.43695573009376,37.84403503733952,2.0,7023502560.0,112.4392038,37.8458049,140109122383.0,0,0,97
太原直送,AWLS100,AWLS100,114,140109122398,太原***芳便利店,112.448685,37.850135,1.0,1.0,112.0,51.67,2.351096096711488,2.3957830750059563,0.1466548278373393,太原直送,0.1466548278373393,山西省,太原市,万柏林区,南寒街道,山西省太原市万柏林区南寒街道西矿街西山煤电集团公司宿舍408小区,112.44205733420922,37.84933947612787,158_85,112.44274865831092,37.84853164254594,2.0,12222358428.0,112.4422851,37.8494124,140109122398.0,0,0,97
太原直送,AWLS100,AWLS100,150,140109122419,太原***鲜便利店,112.449722,37.851905,1.0,1.0,112.0,25.0,2.349072565099894,2.393829234832762,0.14460474917858,太原直送,0.14460474917858,山西省,太原市,万柏林区,南寒街道,山西省太原市万柏林区南寒街道和谐家园文明小区,112.44309672908884,37.85111184003067,158_86,112.44274865831092,37.85302824775237,2.0,5236648043.0,112.4430706,37.8500124,140109122419.0,0,0,97
太原直送,AWLS100,AWLS100,84,140109122423,（金***红金虎便利店,112.451696,37.856675,1.0,1.0,111.0,36.33,2.3439122013516176,2.38917600394864,0.1395230813629031,太原直送,0.1395230813629031,山西省,太原市,万柏林区,南寒街道,山西省太原市万柏林区南寒街道西铭路西铭路31号院,112.44507525092784,37.855886686640254,158_87,112.44274865831092,37.85752485295879,2.0,7023275941.0,112.4453245,37.8557142,140109122423.0,0,0,97
太原直送,AWLS100,AWLS100,184,140109122444,太原***烟酒商行,112.442746,37.854487,1.0,1.0,112.0,69.33,2.349161451159328,2.397307881645576,0.1463486629423036,太原直送,0.1463486629423036,山西省,太原市,万柏林区,王化街道,山西省太原市万柏林区王化街道九院东路九院小区3期,112.43610382444616,37.85368109791057,157_86,112.43695573009376,37.85302824775237,2.0,7023261746.0,112.436441,37.8527434,140109122444.0,0,0,97
太原直送,AWLS100,AWLS100,221,140109122476,太原***副食商店,112.447959,37.84583,1.0,1.0,122.0,31.67,2.3553768003996733,2.3992000360824446,0.1506878373492705,太原直送,0.1506878373492705,山西省,太原市,万柏林区,南寒街道,山西省太原市万柏林区南寒街道河涝湾街建工苑A区,112.44133005655326,37.84503234883424,158_84,112.44274865831092,37.84403503733952,2.0,3600099248.0,112.439505,37.8446932,140109122476.0,0,0,97
太原直送,AWLS100,AWLS100,245,140109122480,太原***美便利店,112.446671,37.844305,1.0,1.0,111.0,34.67,2.357260942403282,2.40117748287148,0.152662758811705,太原直送,0.152662758811705,山西省,太原市,万柏林区,南寒街道,山西省太原市万柏林区南寒街道建工新苑,112.44003911150104,37.8435046188398,158_84,112.44274865831092,37.84403503733952,2.0,5236655700.0,112.4398283,37.8437968,140109122480.0,0,0,97
太原直送,AWLS100,AWLS100,96,140109122497,太原***凡副食店,112.451257,37.849669,1.0,1.0,111.0,23.0,2.350614726301187,2.394180829048843,0.1456897401054729,太原直送,0.1456897401054729,山西省,太原市,万柏林区,南寒街道,山西省太原市万柏林区南寒街道南寒太白中巷426小区,112.44463594767316,37.8488786123964,158_85,112.44274865831092,37.84853164254594,2.0,5236648047.0,112.4440103,37.8503734,140109122497.0,0,0,97
太原直送,AWLS100,AWLS100,97,140109122513,（金***红金虎便利店,112.451008,37.851387,1.0,1.0,111.0,61.67,2.349098010991661,2.393218000083565,0.1443584925142916,太原直送,0.1443584925142916,山西省,太原市,万柏林区,南寒街道,山西省太原市万柏林区南寒街道西矿街409小区,112.44438609285962,37.85059637927679,158_85,112.44274865831092,37.84853164254594,2.0,5236648047.0,112.4440103,37.8503734,140109122513.0,0,0,97
太原直送,AWLS100,AWLS100,509,140109220835,太原***便利店,112.449798,37.854423,1.0,1.0,112.0,66.33,2.346693341235068,2.392092215588688,0.1424447451645731,太原直送,0.1424447451645731,山西省,太原市,万柏林区,南寒街道,山西省太原市万柏林区南寒街道建筑中巷西铭412小区,112.44317261828408,37.85363041074622,158_86,112.44274865831092,37.85302824775237,2.0,3600098574.0,112.4424081,37.8528651,140109220835.0,0,0,97
太原直送,AWLS100,AWLS100,443,140109220901,太原***综合超市,112.450763,37.854312,1.0,1.0,112.0,45.67,2.346452563911106,2.391447459049437,0.1420155521800355,太原直送,0.1420155521800355,山西省,太原市,万柏林区,南寒街道,山西省太原市万柏林区南寒街道建筑北街西山煤电社区广场,112.44414010542442,37.85352135882899,158_86,112.44274865831092,37.85302824775237,2.0,3600099244.0,112.4449187,37.8537494,140109220901.0,0,0,97
太原直送,AWLS100,AWLS100,123,140109221973,太原***食便利店,112.447033,37.84302,1.0,1.0,111.0,28.33,2.3583322771859305,2.4017680125977963,0.1535659452124661,太原直送,0.1535659452124661,山西省,太原市,万柏林区,白家庄街道,山西省太原市万柏林区白家庄街道桃杏府,112.44040213836531,37.84222010579988,158_84,112.44274865831092,37.84403503733952,2.0,5236655700.0,112.4398283,37.8437968,140109221973.0,0,0,97
太原直送,AWLS100,AWLS100,56,140109222339,延长***铭路加油站,112.448019,37.858969,1.0,1.0,111.0,36.0,2.34308482059442,2.390389382647308,0.1396545300088719,太原直送,0.1396545300088719,山西省,太原市,万柏林区,南寒街道,山西省太原市万柏林区南寒街道西铭路辅路延长中化石油太原市西铭路加油站,112.44138861786044,37.85817363687417,158_87,112.44274865831092,37.85752485295879,2.0,7023261486.0,112.4419936,37.8578573,140109222339.0,0,0,97
太原直送,AWLS100,AWLS100,636,140109222375,太原***烟酒商行,112.444128,37.859372,1.0,1.0,112.0,48.33,2.3441063914613567,2.393026576686722,0.1415730598171789,太原直送,0.1415730598171789,山西省,太原市,万柏林区,南寒街道,山西省太原市万柏林区南寒街道九院东路,112.43748833952874,37.85856938045476,157_87,112.43695573009376,37.85752485295879,2.0,7023262093.0,112.4381752,37.8591838,140109222375.0,0,0,97
太原直送,AWLS100,AWLS100,69,140109122677,太原***奇奇商店,112.451459,37.849163,1.0,1.0,112.0,14.67,2.3510157211503304,2.394368902772712,0.1460165879480833,太原直送,0.1460165879480833,山西省,太原市,万柏林区,南寒街道,山西省太原市万柏林区南寒街道南寒太白中巷426小区,112.44483853602802,37.84837294912921,158_85,112.44274865831092,37.84853164254594,2.0,7023514436.0,112.4451695,37.8470135,140109122677.0,0,0,97
太原直送,AWLS100,AWLS100,78,140109222713,太原***有限公司,112.445649,37.848431,1.0,1.0,111.0,60.33,2.353772597836078,2.3991809031344404,0.1497297728576373,太原直送,0.1497297728576373,山西省,太原市,万柏林区,南寒街道,山西省太原市万柏林区南寒街道西矿街山西焦煤加油站,112.43901418494865,37.84762935746494,157_85,112.43695573009376,37.84853164254594,2.0,7023514183.0,112.4389346,37.847648,140109222713.0,0,0,97
太原直送,AWLS100,AWLS100,126,140109122733,太原***烟酒商行,112.436241,37.855465,1.0,1.0,112.0,30.33,2.350598026817855,2.4015169874079594,0.1494239043392989,太原直送,0.1494239043392989,山西省,太原市,万柏林区,西铭街道,山西省太原市万柏林区西铭街道西铭福泰苑(东南门),112.42958535392992,37.85464869823763,156_86,112.4311628018766,37.85302824775237,2.0,7023261755.0,112.4298412,37.8555688,140109122733.0,0,0,97
太原直送,AWLS100,AWLS100,58,140109122722,太原***食便利店,112.450269,37.850215,1.0,1.0,111.0,48.67,2.350456405797817,2.394550878251071,0.1457440035130059,太原直送,0.1457440035130059,山西省,太原市,万柏林区,南寒街道,山西省太原市万柏林区南寒街道太白西巷426小区,112.44364532827376,37.849422671313306,158_85,112.44274865831092,37.84853164254594,2.0,3600099250.0,112.4431636,37.8499121,140109122722.0,0,0,97
太原直送,AWLS100,AWLS100,127,140109122734,太原***玮百货店,112.436598,37.856651,1.0,1.0,112.0,19.0,2.3493632647858,2.4004626073904967,0.1482666391640384,太原直送,0.1482666391640384,山西省,太原市,万柏林区,西铭街道,山西省太原市万柏林区西铭街道九院中街1号西铭福泰苑,112.42994288768574,37.85583543171958,156_87,112.4311628018766,37.85752485295879,2.0,7023261755.0,112.4298412,37.8555688,140109122734.0,0,0,97
太原直送,AWLS100,AWLS100,23,140109222748,山西***责任公司,112.449531,37.848373,1.0,1.0,111.0,59.0,2.3524404705454285,2.3963308642007286,0.1476981839563375,太原直送,0.1476981839563375,山西省,太原市,万柏林区,南寒街道,山西省太原市万柏林区南寒街道供应路西山物资供应公司,112.44290567123392,37.84757887663631,158_85,112.44274865831092,37.84853164254594,2.0,12222358427.0,112.4430354,37.8467025,140109222748.0,0,0,97
太原直送,AWLS100,AWLS100,145,140109122787,太原***酒便利店,112.440478,37.848709,1.0,1.0,112.0,45.67,2.3553685209242734,2.402847983869974,0.1523824103399076,太原直送,0.1523824103399076,山西省,太原市,万柏林区,南寒街道,山西省太原市万柏林区南寒街道九院东路苹果苑401小区,112.43383162815576,37.84789826900474,156_85,112.4311628018766,37.84853164254594,2.0,5236656559.0,112.4331985,37.8470518,140109122787.0,0,0,97
太原直送,AWLS100,AWLS100,120,140109122804,太原***酒经销部,112.443194,37.855283,1.0,1.0,112.0,35.0,2.348257576924002,2.396443735713395,0.1454401505809133,太原直送,0.1454401505809133,山西省,太原市,万柏林区,南寒街道,山西省太原市万柏林区南寒街道九院东路九院住宅小区,112.43655272485783,37.85447802054056,157_86,112.43695573009376,37.85302824775237,2.0,7023219026.0,112.4365709,37.8555382,140109122804.0,0,0,97
太原直送,AWLS100,AWLS100,40,140109122802,太原***宇百货店,112.448099,37.857408,1.0,1.0,112.0,35.33,2.344513496992713,2.391369075063487,0.1408974657720994,太原直送,0.1408974657720994,山西省,太原市,万柏林区,南寒街道,山西省太原市万柏林区南寒街道建筑中巷西铭412小区,112.44146900348824,37.85661253000304,158_87,112.44274865831092,37.85752485295879,2.0,7023219063.0,112.4418696,37.8576722,140109122802.0,0,0,97
太原直送,AWLS100,AWLS100,42,140109122841,太原***烟酒商行,112.449295,37.849245,1.0,1.0,112.0,25.67,2.35170989448358,2.395923666819325,0.1470825591564064,太原直送,0.1470825591564064,山西省,太原市,万柏林区,南寒街道,山西省太原市万柏林区南寒街道供应路西山物资供应公司,112.44266897016746,37.84845054520834,158_85,112.44274865831092,37.84853164254594,2.0,12222358428.0,112.4422851,37.8494124,140109122841.0,0,0,97
太原直送,AWLS100,AWLS100,171,140109122864,太原***润便利店,112.450122,37.846406,1.0,1.0,112.0,24.67,2.3540680237873333,2.3972067989385084,0.1490672653871406,太原直送,0.1490672653871406,山西省,太原市,万柏林区,南寒街道,山西省太原市万柏林区南寒街道乐学国际早期教育学校(西山教学区)迎西城朝南水岸,112.44349841154173,37.84561275254229,158_84,112.44274865831092,37.84403503733952,2.0,7023514035.0,112.4431742,37.8454169,140109122864.0,0,0,97
太原直送,AWLS100,AWLS100,146,140109122861,太原***雪令烟店,112.444211,37.851549,1.0,1.0,111.0,24.0,2.351376906241109,2.398172167707943,0.1479287327059916,太原直送,0.1479287327059916,山西省,太原市,万柏林区,南寒街道,山西省太原市万柏林区南寒街道西矿街415号院铁北小区,112.43757247451884,37.8507452233514,157_85,112.43695573009376,37.84853164254594,2.0,9772344639.0,112.4362418,37.8509295,140109122861.0,0,0,97
太原直送,AWLS100,AWLS100,41,140109122885,太原***烟酒商行,112.448811,37.851828,1.0,1.0,112.0,26.33,2.349469700388791,2.3945589267558187,0.1451602478263221,太原直送,0.1451602478263221,山西省,太原市,万柏林区,南寒街道,山西省太原市万柏林区南寒街道建筑西巷和谐家园文明小区,112.4421834442258,37.8510330041694,158_86,112.44274865831092,37.85302824775237,2.0,5236648043.0,112.4430706,37.8500124,140109122885.0,0,0,97
太原直送,AWLS100,AWLS100,37,140109122909,太原***喜便利店,112.44879,37.850322,3.0,1.0,111.0,11.0,2.350883936073833,2.395580037824032,0.1464406796283042,太原直送,0.1464406796283042,山西省,太原市,万柏林区,南寒街道,山西省太原市万柏林区南寒街道西矿街西山煤电集团公司宿舍408小区,112.44216257355755,37.84952671488465,158_85,112.44274865831092,37.84853164254594,2.0,12222358428.0,112.4422851,37.8494124,140109122909.0,0,0,97
太原直送,AWLS100,AWLS100,133,140109122915,太原***工商户）,112.442143,37.846962,1.0,1.0,111.0,35.33,2.3564004970558385,2.402772209743153,0.1528878571404542,太原直送,0.1528878571404542,山西省,太原市,万柏林区,南寒街道,山西省太原市万柏林区南寒街道西矿街朝北小区,112.43550040815153,37.84615381160057,157_84,112.43695573009376,37.84403503733952,2.0,7215298524.0,112.4361379,37.8455774,140109122915.0,0,0,97
太原直送,AWLS100,AWLS100,161,140109122980,太原***烟酒商行,112.444363,37.858689,1.0,1.0,112.0,48.33,2.344659064707705,2.393305133465646,0.1419889763890169,太原直送,0.1419889763890169,山西省,太原市,万柏林区,南寒街道,山西省太原市万柏林区南寒街道佳通苑小区,112.43772395932378,37.85788669085101,157_87,112.43695573009376,37.85752485295879,2.0,7023262093.0,112.4381752,37.8591838,140109122980.0,0,0,97
太原直送,AWLS100,AWLS100,147,140109123049,太原***院餐饮店,112.442705,37.850914,1.0,1.0,111.0,25.0,2.352510284959659,2.399718123232387,0.1493025940330518,太原直送,0.1493025940330518,山西省,太原市,万柏林区,白家庄街道,山西省太原市万柏林区白家庄街道九院东路铁北小区,112.43606316568508,37.85010743492655,157_85,112.43695573009376,37.84853164254594,2.0,10274566226.0,112.4360065,37.8501136,140109123049.0,0,0,97
太原直送,AWLS100,AWLS100,95,140109123068,太原***佳便利店,112.445581,37.848488,1.0,1.0,112.0,35.0,2.353743706291102,2.399193478280976,0.1497190968747746,太原直送,0.1497190968747746,山西省,太原市,万柏林区,南寒街道,山西省太原市万柏林区南寒街道朝北东巷山西焦煤加油站,112.4389460182226,37.84768623989953,157_85,112.43695573009376,37.84853164254594,2.0,7023514183.0,112.4389346,37.847648,140109123068.0,0,0,97
太原直送,AWLS100,AWLS100,181,140109123108,太原***凤便利店,112.443171,37.855123,1.0,1.0,112.0,36.33,2.3484151404127824,2.396567386330076,0.1455840076519354,太原直送,0.1455840076519354,山西省,太原市,万柏林区,南寒街道,山西省太原市万柏林区南寒街道九院东路九院住宅小区,112.43652969279744,37.854317953082656,157_86,112.43695573009376,37.85302824775237,2.0,7023219026.0,112.4365709,37.8555382,140109123108.0,0,0,97
