station_name,line_code,line_name,deliver_no,customer_code,customer_name,longitude,latitude,order_cycle_type,order_weekday,city_village_code,avg_order_qty,distance_to_平城直送,distance_to_灵丘中转站,distance_to_太原直送,nearest_station,distance_to_station,province,city,district,township,full_address,lon_84,lat_84,grid_id,LonGridCenter,LatGridCenter,group,customer_osmid_mapping,OSM_X,OSM_Y,BB_RETAIL_CUSTOMER_CODE,kmeans_cluster,dbscan_label,kmeans_label
太原直送,AWLS015,AWLS015,110,140109102234,太原***园副食店,112.495812,37.854288,1.0,1.0,111.0,50.67,2.33078293393658,2.3581035267555577,0.1237270075044262,太原直送,0.1237270075044262,山西省,太原市,万柏林区,小井峪街道,山西省太原市万柏林区小井峪街道华峪西区(东门)小井峪华峪西区,112.48933797802688,37.85361650878833,166_86,112.48909208404818,37.85302824775237,1.0,7215298287.0,112.4895224,37.8556906,140109102234.0,0,0,102
太原直送,AWLS015,AWLS015,180,140109104573,太原***建国烟店,112.505631,37.851266,1.0,1.0,111.0,81.67,2.33031076171677,2.352936521597216,0.1245748312180244,太原直送,0.1245748312180244,山西省,太原市,万柏林区,小井峪街道,山西省太原市万柏林区小井峪街道小井峪街小井峪街33号小区,112.49919382360989,37.85062341274443,168_85,112.50067794048248,37.84853164254594,1.0,2001203986.0,112.4993719,37.8505765,140109104573.0,0,0,102
太原直送,AWLS015,AWLS015,114,140109108587,太原***百货商行,112.504315,37.856104,1.0,1.0,111.0,61.33,2.326197050307858,2.3506186874544257,0.1200583958122002,太原直送,0.1200583958122002,山西省,太原市,万柏林区,小井峪街道,山西省太原市万柏林区小井峪街道前进路智诚·御河骏景,112.4978723785234,37.85545828370672,168_87,112.50067794048248,37.85752485295879,1.0,7215264053.0,112.497857,37.855859,140109108587.0,0,0,102
太原直送,AWLS015,AWLS015,188,140109109468,（唐***久副食便利店,112.504402,37.854069,1.0,1.0,111.0,57.33,2.3280839369423485,2.3519352629908816,0.1220400498074261,太原直送,0.1220400498074261,山西省,太原市,万柏林区,小井峪街道,山西省太原市万柏林区小井峪街道前进路下元小区,112.49795994170464,37.853423204392456,168_86,112.50067794048248,37.85302824775237,1.0,7012138181.0,112.4978804,37.8542752,140109109468.0,0,0,102
太原直送,AWLS015,AWLS015,161,140109110133,太原***品便利店,112.502632,37.84869,1.0,1.0,111.0,21.0,2.333744854736695,2.356887206750671,0.1276576630288989,太原直送,0.1276576630288989,山西省,太原市,万柏林区,小井峪街道,山西省太原市万柏林区小井峪街道老白家族(小井峪店),112.49618400991405,37.84803802198024,167_85,112.49488501226531,37.84853164254594,1.0,9545138579.0,112.4963094,37.849446,140109110133.0,0,0,102
太原直送,AWLS015,AWLS015,182,140109110552,（唐***久副食便利店,112.50463,37.852062,1.0,1.0,111.0,48.0,2.3298973003568206,2.3531303512854924,0.1239701162780781,太原直送,0.1239701162780781,山西省,太原市,万柏林区,小井峪街道,山西省太原市万柏林区小井峪街道前进路小井峪街33号小区,112.49818902395822,37.85141655372136,168_86,112.50067794048248,37.85302824775237,1.0,5271771067.0,112.498032,37.8506475,140109110552.0,0,0,102
太原直送,AWLS015,AWLS015,179,140109115587,太原***和烟酒行,112.505771,37.851274,1.0,1.0,111.0,95.33,2.330256231977294,2.3528283753376527,0.1245426836269423,太原直送,0.1245426836269423,山西省,太原市,万柏林区,小井峪街道,山西省太原市万柏林区小井峪街道小井峪街小井峪街33号小区,112.49933434038566,37.850631831904856,168_85,112.50067794048248,37.84853164254594,1.0,2001203986.0,112.4993719,37.8505765,140109115587.0,0,0,102
太原直送,AWLS015,AWLS015,168,140109116577,（唐***亲唐久便利店,112.50263,37.849421,1.0,1.0,111.0,63.33,2.333057167114643,2.356392038938344,0.1269408998431944,太原直送,0.1269408998431944,山西省,太原市,万柏林区,小井峪街道,山西省太原市万柏林区小井峪街道小井峪街32号大众三益小区,112.4961819159846,37.848769135201785,167_85,112.49488501226531,37.84853164254594,1.0,9545138579.0,112.4963094,37.849446,140109116577.0,0,0,102
太原直送,AWLS015,AWLS015,160,140109116822,（金***虎副食便利店,112.50268,37.847626,1.0,1.0,111.0,21.0,2.334730693928104,2.3575750913888203,0.1286925959719523,太原直送,0.1286925959719523,山西省,太原市,万柏林区,小井峪街道,山西省太原市万柏林区小井峪街道九牛私家牧场(小井峪店),112.4962323141085,37.84697399283586,167_85,112.49488501226531,37.84853164254594,1.0,9545138599.0,112.4963024,37.8450504,140109116822.0,0,0,102
太原直送,AWLS015,AWLS015,159,140109118609,太原***食便利店,112.499347,37.852714,1.0,1.0,111.0,63.33,2.3310651087151126,2.356568899219795,0.1244083974537084,太原直送,0.1244083974537084,山西省,太原市,万柏林区,小井峪街道,山西省太原市万柏林区小井峪街道小井峪华峪东区A区,112.49288631599968,37.85205283601649,167_86,112.49488501226531,37.85302824775237,1.0,2001203988.0,112.4936674,37.8504942,140109118609.0,0,0,102
太原直送,AWLS015,AWLS015,116,140109118652,（金***然金虎便利店,112.498068,37.852349,1.0,1.0,111.0,67.67,2.331841505180188,2.3577567036927265,0.1250567929422477,太原直送,0.1250567929422477,山西省,太原市,万柏林区,小井峪街道,山西省太原市万柏林区小井峪街道小井峪路小井峪华峪东区,112.49160259917883,37.8516839420292,166_86,112.48909208404818,37.85302824775237,1.0,5764621231.0,112.491467,37.849758,140109118652.0,0,0,102
太原直送,AWLS015,AWLS015,155,140109118854,太原***宝便利店,112.502719,37.845906,1.0,1.0,111.0,48.67,2.3363374611449004,2.358715971033816,0.1303739040030627,太原直送,0.1303739040030627,山西省,太原市,万柏林区,小井峪街道,山西省太原市万柏林区小井峪街道小井峪街32-37号楼,112.49627166246856,37.84525383164458,167_84,112.49488501226531,37.84403503733952,1.0,9545138599.0,112.4963024,37.8450504,140109118854.0,0,0,102
太原直送,AWLS015,AWLS015,104,140109118888,太原***鲜便利店,112.499502,37.85639,1.0,1.0,111.0,23.67,2.3275536555211773,2.353964565554243,0.1207934083052541,太原直送,0.1207934083052541,山西省,太原市,万柏林区,小井峪街道,山西省太原市万柏林区小井峪街道虎峪河南沿岸龙腾名邸,112.49304145721447,37.85572991273427,167_87,112.49488501226531,37.85752485295879,1.0,7215298297.0,112.494023,37.85578,140109118888.0,0,0,102
太原直送,AWLS015,AWLS015,111,140109118901,太原***言鲜果行,112.500588,37.856241,1.0,1.0,111.0,41.67,2.327326235985196,2.3532663677875534,0.1206934871026629,太原直送,0.1206934871026629,山西省,太原市,万柏林区,小井峪街道,山西省太原市万柏林区小井峪街道前进路2号龙腾小区,112.4941315162802,37.85558414370631,167_87,112.49488501226531,37.85752485295879,1.0,7215298297.0,112.494023,37.85578,140109118901.0,0,0,102
太原直送,AWLS015,AWLS015,156,140109119074,太原***昌明烟店,112.502719,37.845906,1.0,1.0,111.0,63.33,2.3363374611449004,2.358715971033816,0.1303739040030627,太原直送,0.1303739040030627,山西省,太原市,万柏林区,小井峪街道,山西省太原市万柏林区小井峪街道小井峪街32-37号楼,112.49627166246856,37.84525383164458,167_84,112.49488501226531,37.84403503733952,1.0,9545138599.0,112.4963024,37.8450504,140109119074.0,0,0,102
太原直送,AWLS015,AWLS015,106,140109119141,太原***生鲜超市,112.497824,37.854711,1.0,1.0,111.0,43.67,2.3297020046068115,2.356336236656392,0.1228197532361938,太原直送,0.1228197532361938,山西省,太原市,万柏林区,小井峪街道,山西省太原市万柏林区小井峪街道太原市晨旭塑印有限公司瑞司特生鲜便利,112.49135741107936,37.85404560269624,166_86,112.48909208404818,37.85302824775237,1.0,5764621230.0,112.4919756,37.8555715,140109119141.0,0,0,102
太原直送,AWLS015,AWLS015,145,140109119187,太原***生鲜超市,112.498526,37.850574,1.0,1.0,111.0,54.67,2.333356674688632,2.358623330137517,0.1266785319223399,太原直送,0.1266785319223399,山西省,太原市,万柏林区,小井峪街道,山西省太原市万柏林区小井峪街道小井峪街小井峪华峪,112.49206251407804,37.84991002247386,167_85,112.49488501226531,37.84853164254594,1.0,5764621231.0,112.491467,37.849758,140109119187.0,0,0,102
太原直送,AWLS015,AWLS015,134,140109119347,太原***百货商行,112.5044,37.854138,1.0,1.0,111.0,79.67,2.328019635140991,2.3518899078351825,0.1219726505164158,太原直送,0.1219726505164158,山西省,太原市,万柏林区,小井峪街道,山西省太原市万柏林区小井峪街道前进路下元小区,112.49795792613106,37.85349220988103,168_86,112.50067794048248,37.85302824775237,1.0,7012138181.0,112.4978804,37.8542752,140109119347.0,0,0,102
太原直送,AWLS015,AWLS015,187,140109119409,太原***百货商店,112.504405,37.854034,1.0,1.0,111.0,71.0,2.3281158856983457,2.351956811348792,0.1220738662654694,太原直送,0.1220738662654694,山西省,太原市,万柏林区,小井峪街道,山西省太原市万柏林区小井峪街道前进路下元小区,112.49796295696338,37.85338820754628,168_86,112.50067794048248,37.85302824775237,1.0,7012138181.0,112.4978804,37.8542752,140109119409.0,0,0,102
太原直送,AWLS015,AWLS015,100,140109119420,（唐***久副食便利店,112.498832,37.856391,1.0,1.0,111.0,64.0,2.3277797476765274,2.3544570113833063,0.1209483411419914,太原直送,0.1209483411419914,山西省,太原市,万柏林区,小井峪街道,山西省太原市万柏林区小井峪街道虎峪河南沿岸龙腾名邸,112.49236896336394,37.85572890434975,167_87,112.49488501226531,37.85752485295879,1.0,7215298293.0,112.4920455,37.8557319,140109119420.0,0,0,102
太原直送,AWLS015,AWLS015,143,140109119450,太原***品便利店,112.504435,37.853436,1.0,1.0,111.0,26.67,2.3286689189846173,2.352340641123641,0.1226557182238117,太原直送,0.1226557182238117,山西省,太原市,万柏林区,小井峪街道,山西省太原市万柏林区小井峪街道前进路山西医科大学第一医院(前进院区),112.49799313887708,37.85279019798579,168_86,112.50067794048248,37.85302824775237,1.0,7012138181.0,112.4978804,37.8542752,140109119450.0,0,0,102
太原直送,AWLS015,AWLS015,183,140109119459,太原***酒便利店,112.504615,37.851956,1.0,1.0,111.0,91.67,2.330002173579456,2.353213350056043,0.1240770722293174,太原直送,0.1240770722293174,山西省,太原市,万柏林区,小井峪街道,山西省太原市万柏林区小井峪街道前进路小井峪街33号小区,112.49817398091676,37.85131049140085,168_86,112.50067794048248,37.85302824775237,1.0,5271771067.0,112.498032,37.8506475,140109119459.0,0,0,102
太原直送,AWLS015,AWLS015,137,140109119493,太原***生便利店,112.504435,37.853436,1.0,1.0,111.0,48.67,2.3286689189846173,2.352340641123641,0.1226557182238117,太原直送,0.1226557182238117,山西省,太原市,万柏林区,小井峪街道,山西省太原市万柏林区小井峪街道前进路山西医科大学第一医院(前进院区),112.49799313887708,37.85279019798579,168_86,112.50067794048248,37.85302824775237,1.0,7012138181.0,112.4978804,37.8542752,140109119493.0,0,0,102
太原直送,AWLS015,AWLS015,171,140109119651,（金***妍金虎便利店,112.498307,37.854075,1.0,1.0,111.0,51.67,2.3301366074717578,2.35641154843652,0.1233228511671677,太原直送,0.1233228511671677,山西省,太原市,万柏林区,小井峪街道,山西省太原市万柏林区小井峪街道小井峪路小井峪华峪东区,112.4918422839733,37.85341094421334,166_86,112.48909208404818,37.85302824775237,1.0,5764621230.0,112.4919756,37.8555715,140109119651.0,0,0,102
太原直送,AWLS015,AWLS015,184,140109119654,太原***用百货店,112.504645,37.852267,1.0,1.0,111.0,50.67,2.329699190114469,2.3529801240684147,0.1237658308257992,太原直送,0.1237658308257992,山西省,太原市,万柏林区,小井峪街道,山西省太原市万柏林区小井峪街道前进路小井峪街33号小区,112.49820405529177,37.85162163238817,168_86,112.50067794048248,37.85302824775237,1.0,5271771067.0,112.498032,37.8506475,140109119654.0,0,0,102
太原直送,AWLS015,AWLS015,163,140109119684,太原***柒便利店,112.498176,37.852481,1.0,1.0,111.0,25.67,2.33168072701067,2.357587831733104,0.1249032310751016,太原直送,0.1249032310751016,山西省,太原市,万柏林区,小井峪街道,山西省太原市万柏林区小井峪街道小井峪路小井峪华峪东区,112.4917109854437,37.85181628747471,166_86,112.48909208404818,37.85302824775237,1.0,5764621231.0,112.491467,37.849758,140109119684.0,0,0,102
太原直送,AWLS015,AWLS015,185,140109119810,（金***波金虎便利店,112.504483,37.853197,1.0,1.0,111.0,50.67,2.3288778397717644,2.3524676278429446,0.1228816203343672,太原直送,0.1228816203343672,山西省,太原市,万柏林区,小井峪街道,山西省太原市万柏林区小井峪街道前进路下元小区,112.4980413450337,37.852551301889406,168_86,112.50067794048248,37.85302824775237,1.0,7012138181.0,112.4978804,37.8542752,140109119810.0,0,0,102
太原直送,AWLS015,AWLS015,141,140109119876,太原***宝顺奶站,112.504435,37.853436,1.0,1.0,111.0,63.33,2.3286689189846173,2.352340641123641,0.1226557182238117,太原直送,0.1226557182238117,山西省,太原市,万柏林区,小井峪街道,山西省太原市万柏林区小井峪街道前进路山西医科大学第一医院(前进院区),112.49799313887708,37.85279019798579,168_86,112.50067794048248,37.85302824775237,1.0,7012138181.0,112.4978804,37.8542752,140109119876.0,0,0,102
太原直送,AWLS015,AWLS015,173,140109119877,太原***烟酒商行,112.498371,37.854778,1.0,1.0,111.0,81.0,2.329453519923712,2.355888351324392,0.1226245461112845,太原直送,0.1226245461112845,山西省,太原市,万柏林区,小井峪街道,山西省太原市万柏林区小井峪街道小井峪路小井峪华峪,112.49190643880851,37.85411425301391,166_86,112.48909208404818,37.85302824775237,1.0,5764621230.0,112.4919756,37.8555715,140109119877.0,0,0,102
太原直送,AWLS015,AWLS015,146,140109119880,太原***品经销部,112.505878,37.850689,1.0,1.0,111.0,61.33,2.330771400322432,2.353147466842654,0.1251005625127207,太原直送,0.1251005625127207,山西省,太原市,万柏林区,小井峪街道,山西省太原市万柏林区小井峪街道大众机械厂(北门)太原五十六中,112.4994418051152,37.850047055088574,168_85,112.50067794048248,37.84853164254594,1.0,8898481104.0,112.4993739,37.8505086,140109119880.0,0,0,102
太原直送,AWLS015,AWLS015,112,140109119940,太原***货便利店,112.496505,37.853708,1.0,1.0,111.0,14.0,2.331093058223332,2.35798601770282,0.1241142867239719,太原直送,0.1241142867239719,山西省,太原市,万柏林区,小井峪街道,山西省太原市万柏林区小井峪街道华峪路小井峪华峪,112.4900336232308,37.853038485855535,166_86,112.48909208404818,37.85302824775237,1.0,7215298287.0,112.4895224,37.8556906,140109119940.0,0,0,102
太原直送,AWLS015,AWLS015,157,140109120014,太原***广邦烟店,112.502718,37.845917,1.0,1.0,111.0,63.33,2.336327437048367,2.358709222724155,0.1303632896984405,太原直送,0.1303632896984405,山西省,太原市,万柏林区,小井峪街道,山西省太原市万柏林区小井峪街道小井峪街32-37号楼,112.496270657453,37.84526483042141,167_84,112.49488501226531,37.84403503733952,1.0,9545138599.0,112.4963024,37.8450504,140109120014.0,0,0,102
太原直送,AWLS015,AWLS015,117,140109120101,（金***静金虎便利店,112.504369,37.855363,1.0,1.0,111.0,34.67,2.3268765725315155,2.3510815694324627,0.1207755197711874,太原直送,0.1207755197711874,山西省,太原市,万柏林区,小井峪街道,山西省太原市万柏林区小井峪街道前进路智诚·御河骏景,112.49792666634076,37.85471732128229,168_86,112.50067794048248,37.85302824775237,1.0,7012138181.0,112.4978804,37.8542752,140109120101.0,0,0,102
太原直送,AWLS015,AWLS015,133,140109120177,太原***倩便利店,112.502771,37.854937,1.0,1.0,111.0,35.67,2.327816193944016,2.352544822320078,0.1215061995126172,太原直送,0.1215061995126172,山西省,太原市,万柏林区,小井峪街道,山西省太原市万柏林区小井峪街道煤气化小西区,112.49632278694769,37.85428646780015,167_86,112.49488501226531,37.85302824775237,1.0,7012138181.0,112.4978804,37.8542752,140109120177.0,0,0,102
太原直送,AWLS015,AWLS015,164,140109120343,太原***庆烟酒店,112.502646,37.849071,1.0,1.0,111.0,83.33,2.333381363697968,2.356618070298196,0.1272811494016264,太原直送,0.1272811494016264,山西省,太原市,万柏林区,小井峪街道,山西省太原市万柏林区小井峪街道老白家族(小井峪店)大众三益小区,112.4961980168348,37.84841912600552,167_85,112.49488501226531,37.84853164254594,1.0,9545138579.0,112.4963094,37.849446,140109120343.0,0,0,102
太原直送,AWLS015,AWLS015,158,140109120376,(金***凯凯金虎便利店,112.498062,37.851273,1.0,1.0,111.0,17.67,2.332855959802275,2.358490423362364,0.1261046401247773,太原直送,0.1261046401247773,山西省,太原市,万柏林区,小井峪街道,山西省太原市万柏林区小井峪街道小井峪路小井峪华峪东区,112.49159670443166,37.850607746714346,166_85,112.48909208404818,37.84853164254594,1.0,5764621231.0,112.491467,37.849758,140109120376.0,0,0,102
太原直送,AWLS015,AWLS015,152,140109120393,太原***和便利店,112.500159,37.850397,1.0,1.0,111.0,30.0,2.332971334758316,2.357543602075898,0.1264905849144496,太原直送,0.1264905849144496,山西省,太原市,万柏林区,小井峪街道,山西省太原市万柏林区小井峪街道小井峪街118号小井峪华峪南区,112.49370161234292,37.84973788898591,167_85,112.49488501226531,37.84853164254594,1.0,9545138581.0,112.4940374,37.8493926,140109120393.0,0,0,102
太原直送,AWLS015,AWLS015,178,140109120436,太原***顺便利店,112.507195,37.851247,1.0,1.0,111.0,33.67,2.329804099103613,2.3518022416566,0.1243311627066988,太原直送,0.1243311627066988,山西省,太原市,万柏林区,小井峪街道,山西省太原市万柏林区小井峪街道小井峪街彩虹湾,112.50076360109584,37.85060907179586,168_85,112.50067794048248,37.84853164254594,1.0,7840653437.0,112.5021028,37.8506206,140109120436.0,0,0,102
太原直送,AWLS015,AWLS015,125,140109120445,太原***果便利店,112.495312,37.850254,1.0,1.0,111.0,44.67,2.3347469356300694,2.361203112776408,0.1277566165879475,太原直送,0.1277566165879475,山西省,太原市,万柏林区,小井峪街道,山西省太原市万柏林区小井峪街道小井峪街恒大城一期,112.48883659900214,37.84958034782643,166_85,112.48909208404818,37.84853164254594,1.0,9545138587.0,112.489809,37.8495847,140109120445.0,0,0,102
太原直送,AWLS015,AWLS015,135,140109120491,太原***鲜便利店,112.495307,37.850243,1.0,1.0,111.0,50.67,2.334758979775001,2.3612142433495964,0.1277685180159811,太原直送,0.1277685180159811,山西省,太原市,万柏林区,小井峪街道,山西省太原市万柏林区小井峪街道小井峪街恒大城一期,112.48883158173454,37.84956933107928,166_85,112.48909208404818,37.84853164254594,1.0,9545138587.0,112.489809,37.8495847,140109120491.0,0,0,102
太原直送,AWLS015,AWLS015,166,140109120502,太原***源水果店,112.502638,37.849236,1.0,1.0,111.0,67.33,2.3332286810790746,2.356511844325206,0.1271208278528738,太原直送,0.1271208278528738,山西省,太原市,万柏林区,小井峪街道,山西省太原市万柏林区小井峪街道太原市万柏林区三益西社区卫生服务站大众三益小区,112.49618996759332,37.8485841289621,167_85,112.49488501226531,37.84853164254594,1.0,9545138579.0,112.4963094,37.849446,140109120502.0,0,0,102
太原直送,AWLS015,AWLS015,132,140109120515,太原***儿便利店,112.495197,37.850227,1.0,1.0,111.0,25.67,2.3348113743572525,2.361305985496371,0.1278115873933195,太原直送,0.1278115873933195,山西省,太原市,万柏林区,小井峪街道,山西省太原市万柏林区小井峪街道小井峪街恒大城一期,112.48872117504663,37.84955299969501,166_85,112.48909208404818,37.84853164254594,1.0,9545138588.0,112.4898064,37.8494865,140109120515.0,0,0,102
太原直送,AWLS015,AWLS015,181,140109120528,太原***涵便利店,112.505068,37.851263,1.0,1.0,111.0,77.33,2.330502645069726,2.3533516389906555,0.1246769145631987,太原直送,0.1246769145631987,山西省,太原市,万柏林区,小井峪街道,山西省太原市万柏林区小井峪街道小井峪街小井峪街33号小区,112.49862874063136,37.85061873101348,168_85,112.50067794048248,37.84853164254594,1.0,5271771067.0,112.498032,37.8506475,140109120528.0,0,0,102
太原直送,AWLS015,AWLS015,130,140109120606,太原***货便利店,112.495279,37.85024,1.0,1.0,111.0,57.67,2.334771307169292,2.3612368688926586,0.1277784348198082,太原直送,0.1277784348198082,山西省,太原市,万柏林区,小井峪街道,山西省太原市万柏林区小井峪街道小井峪街恒大城一期,112.48880347808216,37.84956624689813,166_85,112.48909208404818,37.84853164254594,1.0,9545138587.0,112.489809,37.8495847,140109120606.0,0,0,102
太原直送,AWLS015,AWLS015,167,140109120638,太原***食经销部,112.498357,37.85423,1.0,1.0,111.0,63.67,2.329973834802656,2.3562697799721475,0.1231604419649403,太原直送,0.1231604419649403,山西省,太原市,万柏林区,小井峪街道,山西省太原市万柏林区小井峪街道小井峪北街小井峪华峪东区,112.49189245168,37.85356611983172,166_86,112.48909208404818,37.85302824775237,1.0,5764621230.0,112.4919756,37.8555715,140109120638.0,0,0,102
太原直送,AWLS015,AWLS015,123,140109120687,太原***鲜便利店,112.495832,37.849363,1.0,1.0,111.0,65.67,2.3354086276549166,2.361424605828445,0.1284911316823106,太原直送,0.1284911316823106,山西省,太原市,万柏林区,小井峪街道,山西省太原市万柏林区小井峪街道恒大城一期(东门),112.4893586368568,37.84869075687474,166_85,112.48909208404818,37.84853164254594,1.0,9545138588.0,112.4898064,37.8494865,140109120687.0,0,0,102
太原直送,AWLS015,AWLS015,105,140109120725,太原***百货商店,112.498278,37.854676,1.0,1.0,111.0,25.5,2.329581004191528,2.3560258547233737,0.1227456211601873,太原直送,0.1227456211601873,山西省,太原市,万柏林区,小井峪街道,山西省太原市万柏林区小井峪街道小井峪路小井峪华峪,112.49181310478288,37.85401195730172,166_86,112.48909208404818,37.85302824775237,1.0,5764621230.0,112.4919756,37.8555715,140109120725.0,0,0,102
太原直送,AWLS015,AWLS015,144,140109120746,（唐***胖唐久便利店,112.499015,37.850739,1.0,1.0,111.0,84.33,2.3330360081524693,2.358152074766384,0.1264075587138692,太原直送,0.1264075587138692,山西省,太原市,万柏林区,小井峪街道,山西省太原市万柏林区小井峪街道小井峪街小井峪华峪,112.4925533144378,37.85007651533278,167_85,112.49488501226531,37.84853164254594,1.0,5764621231.0,112.491467,37.849758,140109120746.0,0,0,102
太原直送,AWLS015,AWLS015,129,140109120798,太原***客便利店,112.495348,37.848122,1.0,1.0,111.0,73.0,2.336740225666944,2.3626217545364683,0.1298129695600561,太原直送,0.1298129695600561,山西省,太原市,万柏林区,小井峪街道,山西省太原市万柏林区小井峪街道馋嘴宝宝麻辣拌恒大城一期,112.4888729857785,37.84744810754576,166_85,112.48909208404818,37.84853164254594,1.0,9545138596.0,112.4897357,37.8461171,140109120798.0,0,0,102
太原直送,AWLS015,AWLS015,109,140109120809,太原***食便利店,112.496871,37.855037,1.0,1.0,111.0,53.67,2.329718738128701,2.356816997567904,0.1227360375765774,太原直送,0.1227360375765774,山西省,太原市,万柏林区,小井峪街道,山西省太原市万柏林区小井峪街道太原市煤气安装工程有限公司,112.49040082675847,37.8543688026317,166_86,112.48909208404818,37.85302824775237,1.0,7215298287.0,112.4895224,37.8556906,140109120809.0,0,0,102
太原直送,AWLS015,AWLS015,150,140109120892,太原***连便利店,112.502718,37.845917,1.0,1.0,111.0,81.0,2.336327437048367,2.358709222724155,0.1303632896984405,太原直送,0.1303632896984405,山西省,太原市,万柏林区,小井峪街道,山西省太原市万柏林区小井峪街道小井峪街32-37号楼,112.496270657453,37.84526483042141,167_84,112.49488501226531,37.84403503733952,1.0,9545138599.0,112.4963024,37.8450504,140109120892.0,0,0,102
太原直送,AWLS015,AWLS015,107,140109120897,太原***楼便利店,112.498738,37.856394,1.0,1.0,111.0,83.33,2.3278087913885845,2.3545241721190666,0.1209675800617631,太原直送,0.1209675800617631,山西省,太原市,万柏林区,小井峪街道,山西省太原市万柏林区小井峪街道虎峪河南沿岸龙腾名邸,112.49227461313964,37.85573162308496,167_87,112.49488501226531,37.85752485295879,1.0,7215298293.0,112.4920455,37.8557319,140109120897.0,0,0,102
太原直送,AWLS015,AWLS015,162,140109120922,太原***酒便利店,112.499386,37.853222,1.0,1.0,111.0,49.33,2.330573869169991,2.35619589960703,0.1239046427297984,太原直送,0.1239046427297984,山西省,太原市,万柏林区,小井峪街道,山西省太原市万柏林区小井峪街道小井峪华峪东区小井峪华峪东区A区,112.4929254009451,37.85256103702359,167_86,112.49488501226531,37.85302824775237,1.0,2001203988.0,112.4936674,37.8504942,140109120922.0,0,0,102
太原直送,AWLS015,AWLS015,153,140109120935,太原***宝利超市,112.502725,37.846936,1.0,1.0,111.0,38.0,2.335365380069037,2.3580111592615505,0.1293613724146425,太原直送,0.1293613724146425,山西省,太原市,万柏林区,小井峪街道,山西省太原市万柏林区小井峪街道小井峪街32-38号楼,112.49627756289097,37.84628401586552,167_85,112.49488501226531,37.84853164254594,1.0,9545138599.0,112.4963024,37.8450504,140109120935.0,0,0,102
太原直送,AWLS015,AWLS015,102,140109120965,太原***鲜便利店,112.498249,37.854613,3.0,1.0,111.0,15.0,2.329650104478351,2.356089856033718,0.1228136915657185,太原直送,0.1228136915657185,山西省,太原市,万柏林区,小井峪街道,山西省太原市万柏林区小井峪街道小井峪路小井峪华峪,112.4917840043246,37.85394885989914,166_86,112.48909208404818,37.85302824775237,1.0,5764621230.0,112.4919756,37.8555715,140109120965.0,0,0,102
太原直送,AWLS015,AWLS015,142,140109120986,山西***酒便利店,112.499062,37.850733,1.0,1.0,111.0,72.0,2.333025762580648,2.358121607087305,0.1264029013155962,太原直送,0.1264029013155962,山西省,太原市,万柏林区,小井峪街道,山西省太原市万柏林区小井峪街道小井峪街小井峪华峪,112.492600490071,37.85007065524296,167_85,112.49488501226531,37.84853164254594,1.0,8898481101.0,112.4936878,37.8504122,140109120986.0,0,0,102
太原直送,AWLS015,AWLS015,149,140109120994,太原***鲜便利店,112.504273,37.850148,1.0,1.0,111.0,24.33,2.331819935779136,2.3546925331622406,0.1259171252252862,太原直送,0.1259171252252862,山西省,太原市,万柏林区,小井峪街道,山西省太原市万柏林区小井峪街道小井峪街32-7号楼太原五十六中,112.49783092725028,37.84950117174407,168_85,112.50067794048248,37.84853164254594,1.0,5271771067.0,112.498032,37.8506475,140109120994.0,0,0,102
太原直送,AWLS015,AWLS015,101,140109120999,太原***副食商店,112.499502,37.85639,1.0,1.0,111.0,81.0,2.3275536555211773,2.353964565554243,0.1207934083052541,太原直送,0.1207934083052541,山西省,太原市,万柏林区,小井峪街道,山西省太原市万柏林区小井峪街道虎峪河南沿岸龙腾名邸,112.49304145721447,37.85572991273427,167_87,112.49488501226531,37.85752485295879,1.0,7215298297.0,112.494023,37.85578,140109120999.0,0,0,102
太原直送,AWLS015,AWLS015,136,140109121085,太原***烟酒商行,112.496399,37.849976,1.0,1.0,111.0,48.0,2.334639679956847,2.360592223034298,0.127758586110681,太原直送,0.127758586110681,山西省,太原市,万柏林区,小井峪街道,山西省太原市万柏林区小井峪街道小井峪街86号恒大城一期,112.48992767187366,37.84930555346485,166_85,112.48909208404818,37.84853164254594,1.0,9545138588.0,112.4898064,37.8494865,140109121085.0,0,0,102
太原直送,AWLS015,AWLS015,148,140109121143,太原***烟酒商行,112.499799,37.851016,1.0,1.0,111.0,55.33,2.3325103114432304,2.357388111145469,0.1259641511105422,太原直送,0.1259641511105422,山西省,太原市,万柏林区,小井峪街道,山西省太原市万柏林区小井峪街道小井峪街小井峪华峪,112.49334019937292,37.8503559112431,167_85,112.49488501226531,37.84853164254594,1.0,8898481101.0,112.4936878,37.8504122,140109121143.0,0,0,102
太原直送,AWLS015,AWLS015,189,140109121176,太原***食便利店,112.504399,37.85424,1.0,1.0,111.0,82.33,2.32792392229235,2.3518214260734123,0.1218726525722649,太原直送,0.1218726525722649,山西省,太原市,万柏林区,小井峪街道,山西省太原市万柏林区小井峪街道前进路下元小区,112.49795691036095,37.85359422385006,168_86,112.50067794048248,37.85302824775237,1.0,7012138181.0,112.4978804,37.8542752,140109121176.0,0,0,102
太原直送,AWLS015,AWLS015,154,140109121177,太原***鲜便利店,112.498986,37.850906,1.0,1.0,111.0,62.33,2.3328886527603463,2.3580601229529705,0.1262512955101809,太原直送,0.1262512955101809,山西省,太原市,万柏林区,小井峪街道,山西省太原市万柏林区小井峪街道小井峪街小井峪华峪,112.49252418671436,37.85024345581883,167_85,112.49488501226531,37.84853164254594,1.0,5764621231.0,112.491467,37.849758,140109121177.0,0,0,102
太原直送,AWLS015,AWLS015,186,140109121248,自***便利店,112.504408,37.853952,1.0,1.0,111.0,40.67,2.328192093150821,2.352010256195538,0.1221538509667207,太原直送,0.1221538509667207,山西省,太原市,万柏林区,小井峪街道,山西省太原市万柏林区小井峪街道前进路下元小区,112.49796597778072,37.85330620289249,168_86,112.50067794048248,37.85302824775237,1.0,7012138181.0,112.4978804,37.8542752,140109121248.0,0,0,102
太原直送,AWLS015,AWLS015,108,140109121325,太原***高便利店,112.496063,37.855789,1.0,1.0,111.0,55.0,2.329285985300212,2.356903119789392,0.1222116222623646,太原直送,0.1222116222623646,山西省,太原市,万柏林区,小井峪街道,山西省太原市万柏林区小井峪街道华峪路小井峪华峪,112.48958973286346,37.85511850995546,166_86,112.48909208404818,37.85302824775237,1.0,7215298287.0,112.4895224,37.8556906,140109121325.0,0,0,102
太原直送,AWLS015,AWLS015,147,140109121326,太原***强熟食店,112.502632,37.84869,1.0,1.0,111.0,22.33,2.333744854736695,2.356887206750671,0.1276576630288989,太原直送,0.1276576630288989,山西省,太原市,万柏林区,小井峪街道,山西省太原市万柏林区小井峪街道老白家族(小井峪店),112.49618400991405,37.84803802198024,167_85,112.49488501226531,37.84853164254594,1.0,9545138579.0,112.4963094,37.849446,140109121326.0,0,0,102
太原直送,AWLS015,AWLS015,165,140109121382,太原***食便利店,112.502638,37.849236,1.0,1.0,111.0,60.33,2.3332286810790746,2.356511844325206,0.1271208278528738,太原直送,0.1271208278528738,山西省,太原市,万柏林区,小井峪街道,山西省太原市万柏林区小井峪街道太原市万柏林区三益西社区卫生服务站大众三益小区,112.49618996759332,37.8485841289621,167_85,112.49488501226531,37.84853164254594,1.0,9545138579.0,112.4963094,37.849446,140109121382.0,0,0,102
太原直送,AWLS015,AWLS015,151,140109121457,太原***烟酒商行,112.500622,37.849961,1.0,1.0,111.0,31.67,2.333225464226075,2.357499447188052,0.1268182895524109,太原直送,0.1268182895524109,山西省,太原市,万柏林区,小井峪街道,山西省太原市万柏林区小井峪街道小井峪街32-13号楼大众三益小区,112.49416638665232,37.84930320568548,167_85,112.49488501226531,37.84853164254594,1.0,9545138581.0,112.4940374,37.8493926,140109121457.0,0,0,102
太原直送,AWLS015,AWLS015,121,140109121472,太原***乐便利店,112.496158,37.849305,1.0,1.0,111.0,68.0,2.335352646590446,2.3612242730727657,0.1284679698173818,太原直送,0.1284679698173818,山西省,太原市,万柏林区,小井峪街道,山西省太原市万柏林区小井峪街道恒大城一期(东门),112.4896858554805,37.84863372262199,166_85,112.48909208404818,37.84853164254594,1.0,9545138588.0,112.4898064,37.8494865,140109121472.0,0,0,102
太原直送,AWLS015,AWLS015,69,140109121556,太原***清便利店,112.499454,37.853393,1.0,1.0,111.0,31.67,2.3303899469747567,2.3560300056705565,0.1237227239475447,太原直送,0.1237227239475447,山西省,太原市,万柏林区,小井峪街道,山西省太原市万柏林区小井峪街道小井峪华峪东区小井峪华峪东区A区,112.49299363376022,37.852732269228326,167_86,112.49488501226531,37.85302824775237,1.0,2001203988.0,112.4936674,37.8504942,140109121556.0,0,0,102
太原直送,AWLS015,AWLS015,220,140109121564,太原***雪便利店,112.496874,37.853573,1.0,1.0,111.0,33.0,2.3310947980296723,2.357805875406197,0.1241541479814507,太原直送,0.1241541479814507,山西省,太原市,万柏林区,小井峪街道,山西省太原市万柏林区小井峪街道华峪农贸市场小井峪华峪东区B区,112.490404011608,37.85290456808192,166_86,112.48909208404818,37.85302824775237,1.0,7215298287.0,112.4895224,37.8556906,140109121564.0,0,0,102
太原直送,AWLS015,AWLS015,43,140109121595,太原***祯烟酒店,112.506008,37.851255,1.0,1.0,111.0,50.0,2.3301945932983785,2.352667423021793,0.1245206672364046,太原直送,0.1245206672364046,山西省,太原市,万柏林区,小井峪街道,山西省太原市万柏林区小井峪街道小井峪街小井峪街33号小区,112.499572218739,37.85061353591567,168_85,112.50067794048248,37.84853164254594,1.0,2001203986.0,112.4993719,37.8505765,140109121595.0,0,0,102
太原直送,AWLS015,AWLS015,10,140109121657,太原***鲜便利店,112.496376,37.848064,1.0,1.0,111.0,62.67,2.33644632536551,2.3619056177859856,0.1296201509411231,太原直送,0.1296201509411231,山西省,太原市,万柏林区,小井峪街道,山西省太原市万柏林区小井峪街道馋嘴宝宝麻辣拌华峪南区文庭苑,112.48990481319166,37.847393172848776,166_85,112.48909208404818,37.84853164254594,1.0,9545138596.0,112.4897357,37.8461171,140109121657.0,0,0,102
太原直送,AWLS015,AWLS015,33,140109121665,太原***烟酒商行,112.504359,37.855512,1.0,1.0,111.0,56.33,2.326739642304015,2.3509878510775044,0.1206311324534448,太原直送,0.1206311324534448,山西省,太原市,万柏林区,小井峪街道,山西省太原市万柏林区小井峪街道前进路智诚·御河骏景,112.49791661164991,37.85486631626721,168_86,112.50067794048248,37.85302824775237,1.0,7012138181.0,112.4978804,37.8542752,140109121665.0,0,0,102
太原直送,AWLS015,AWLS015,44,140109121689,太原***齐副食店,112.506008,37.851255,1.0,1.0,111.0,65.67,2.3301945932983785,2.352667423021793,0.1245206672364046,太原直送,0.1245206672364046,山西省,太原市,万柏林区,小井峪街道,山西省太原市万柏林区小井峪街道小井峪街小井峪街33号小区,112.499572218739,37.85061353591567,168_85,112.50067794048248,37.84853164254594,1.0,2001203986.0,112.4993719,37.8505765,140109121689.0,0,0,102
太原直送,AWLS015,AWLS015,8,140109121780,太原***烟酒商行,112.495412,37.850281,1.0,1.0,111.0,51.0,2.334687592726912,2.361111273115263,0.1277054752350066,太原直送,0.1277054752350066,山西省,太原市,万柏林区,小井峪街道,山西省太原市万柏林区小井峪街道小井峪街恒大城一期,112.4889369672828,37.84960765116888,166_85,112.48909208404818,37.84853164254594,1.0,9545138587.0,112.489809,37.8495847,140109121780.0,0,0,102
太原直送,AWLS015,AWLS015,16,140109121815,太原***烟酒商行,112.506479,37.851184,1.0,1.0,111.0,62.33,2.3301034788448733,2.3523701885158266,0.124511022311275,太原直送,0.124511022311275,山西省,太原市,万柏林区,小井峪街道,山西省太原市万柏林区小井峪街道小井峪街彩虹湾,112.50004496700872,37.85054392871629,168_85,112.50067794048248,37.84853164254594,1.0,8898481104.0,112.4993739,37.8505086,140109121815.0,0,0,102
太原直送,AWLS015,AWLS015,98,140109121825,太原***烟酒商行,112.498236,37.854362,1.0,1.0,111.0,48.0,2.3298906530345964,2.356269403150872,0.1230606550039405,太原直送,0.1230606550039405,山西省,太原市,万柏林区,小井峪街道,山西省太原市万柏林区小井峪街道小井峪路小井峪华峪东区,112.49177098570546,37.85369777915931,166_86,112.48909208404818,37.85302824775237,1.0,5764621230.0,112.4919756,37.8555715,140109121825.0,0,0,102
太原直送,AWLS015,AWLS015,19,140109121833,太原***汇便利店,112.498201,37.853011,1.0,1.0,111.0,77.0,2.331173590170409,2.357210314227605,0.1243820448778658,太原直送,0.1243820448778658,山西省,太原市,万柏林区,小井峪街道,山西省太原市万柏林区小井峪街道小井峪路小井峪华峪东区,112.4917360156404,37.8523464500499,166_86,112.48909208404818,37.85302824775237,1.0,5764621231.0,112.491467,37.849758,140109121833.0,0,0,102
太原直送,AWLS015,AWLS015,23,140109121839,太原***艳烟酒店,112.498167,37.851441,1.0,1.0,111.0,62.0,2.3326623319777764,2.3582993442514897,0.1259168927507331,太原直送,0.1259168927507331,山西省,太原市,万柏林区,小井峪街道,山西省太原市万柏林区小井峪街道小井峪路a43号小井峪华峪东区,112.49170207525836,37.85077608900517,166_85,112.48909208404818,37.84853164254594,1.0,5764621231.0,112.491467,37.849758,140109121839.0,0,0,102
太原直送,AWLS015,AWLS015,42,140109121846,太原***货经销部,112.502693,37.847389,1.0,1.0,111.0,36.33,2.33494951728212,2.357726659091977,0.1289227478608798,太原直送,0.1289227478608798,山西省,太原市,万柏林区,小井峪街道,山西省太原市万柏林区小井峪街道九牛私家牧场(小井峪店),112.49624539043708,37.8467369933548,167_85,112.49488501226531,37.84853164254594,1.0,9545138599.0,112.4963024,37.8450504,140109121846.0,0,0,102
太原直送,AWLS015,AWLS015,9,140109121850,太原***期便利店,112.493359,37.849662,1.0,1.0,111.0,34.67,2.3359673538962373,2.363040749736236,0.1288304440611738,太原直送,0.1288304440611738,山西省,太原市,万柏林区,小井峪街道,山西省太原市万柏林区小井峪街道巷口小院馕坑烧烤恒大城二期,112.48687642323502,37.84898242192172,166_85,112.48909208404818,37.84853164254594,1.0,5765509776.0,112.4871143,37.8463831,140109121850.0,0,0,102
太原直送,AWLS015,AWLS015,41,140109121911,太原***鲜便利店,112.502693,37.847389,1.0,1.0,111.0,35.33,2.33494951728212,2.357726659091977,0.1289227478608798,太原直送,0.1289227478608798,山西省,太原市,万柏林区,小井峪街道,山西省太原市万柏林区小井峪街道九牛私家牧场(小井峪店),112.49624539043708,37.8467369933548,167_85,112.49488501226531,37.84853164254594,1.0,9545138599.0,112.4963024,37.8450504,140109121911.0,0,0,102
太原直送,AWLS015,AWLS015,50,140109121928,太原***烟酒商行,112.504312,37.855848,1.0,1.0,111.0,46.33,2.326439100730984,2.35079450178381,0.1203102463882411,太原直送,0.1203102463882411,山西省,太原市,万柏林区,小井峪街道,山西省太原市万柏林区小井峪街道前进路智诚·御河骏景,112.49786939768316,37.85520223189314,168_86,112.50067794048248,37.85302824775237,1.0,7215264053.0,112.497857,37.855859,140109121928.0,0,0,102
太原直送,AWLS015,AWLS015,24,140109121985,太原***辉烟酒店,112.498032,37.851376,1.0,1.0,111.0,59.33,2.3327692011551413,2.3584426538410903,0.1260114106341146,太原直送,0.1260114106341146,山西省,太原市,万柏林区,小井峪街道,山西省太原市万柏林区小井峪街道小井峪路小井峪华峪东区,112.49156658057947,37.85071067376185,166_85,112.48909208404818,37.84853164254594,1.0,5764621231.0,112.491467,37.849758,140109121985.0,0,0,102
太原直送,AWLS015,AWLS015,11,140109122094,太原***烟酒商行,112.498741,37.850632,1.0,1.0,111.0,66.33,2.333229366417501,2.3584259948639508,0.1265733756561803,太原直送,0.1265733756561803,山西省,太原市,万柏林区,小井峪街道,山西省太原市万柏林区小井峪街道小井峪街小井峪华峪,112.49227830736372,37.8499686764241,167_85,112.49488501226531,37.84853164254594,1.0,5764621231.0,112.491467,37.849758,140109122094.0,0,0,102
太原直送,AWLS015,AWLS015,18,140109122095,太原***烟酒商行,112.500156,37.850072,1.0,1.0,111.0,56.0,2.333278262389208,2.357766350303818,0.1268086803416867,太原直送,0.1268086803416867,山西省,太原市,万柏林区,小井峪街道,山西省太原市万柏林区小井峪街道小井峪街116号小井峪华峪南区,112.49369863967904,37.84941282674843,167_85,112.49488501226531,37.84853164254594,1.0,9545138581.0,112.4940374,37.8493926,140109122095.0,0,0,102
太原直送,AWLS015,AWLS015,22,140109122101,太原***佳烟酒店,112.499309,37.852497,1.0,1.0,111.0,46.0,2.331282170374063,2.3567439358337183,0.1246283883069981,太原直送,0.1246283883069981,山西省,太原市,万柏林区,小井峪街道,山西省太原市万柏林区小井峪街道小井峪华峪东区A区,112.49284820028926,37.85183568622392,167_86,112.49488501226531,37.85302824775237,1.0,2001203988.0,112.4936674,37.8504942,140109122101.0,0,0,102
太原直送,AWLS015,AWLS015,126,140109122102,太原***壹便利店,112.495245,37.849993,1.0,1.0,111.0,47.67,2.3350151810281683,2.3614292390196683,0.1280260786090098,太原直送,0.1280260786090098,山西省,太原市,万柏林区,小井峪街道,山西省太原市万柏林区小井峪街道恒大城1期(北门)恒大城一期,112.48876938110898,37.84931910483096,166_85,112.48909208404818,37.84853164254594,1.0,9545138588.0,112.4898064,37.8494865,140109122102.0,0,0,102
太原直送,AWLS015,AWLS015,17,140109122125,太原***军烟酒店,112.500185,37.849067,1.0,1.0,111.0,23.0,2.334214490508532,2.3584272014164425,0.1277844240899493,太原直送,0.1277844240899493,山西省,太原市,万柏林区,小井峪街道,山西省太原市万柏林区小井峪街道小井峪街32-13号楼小井峪华峪南区,112.49372786663334,37.84840774946989,167_85,112.49488501226531,37.84853164254594,1.0,9545138581.0,112.4940374,37.8493926,140109122125.0,0,0,102
太原直送,AWLS015,AWLS015,7,140109122128,太原***英便利店,112.499286,37.855236,1.0,1.0,111.0,44.67,2.328712608910341,2.3549049466806524,0.1219661588228483,太原直送,0.1219661588228483,山西省,太原市,万柏林区,小井峪街道,山西省太原市万柏林区小井峪街道启山舞蹈艺术小井峪华峪东区C区,112.492824790061,37.85457507214896,167_86,112.49488501226531,37.85302824775237,1.0,5764621230.0,112.4919756,37.8555715,140109122128.0,0,0,102
太原直送,AWLS015,AWLS015,35,140109122182,太原***烟酒商行,112.500128,37.850032,1.0,1.0,111.0,54.33,2.333325367035209,2.357814061059308,0.1268537470711832,太原直送,0.1268537470711832,山西省,太原市,万柏林区,小井峪街道,山西省太原市万柏林区小井峪街道小井峪街116号小井峪华峪南区,112.49367054022936,37.84937273625196,167_85,112.49488501226531,37.84853164254594,1.0,9545138581.0,112.4940374,37.8493926,140109122182.0,0,0,102
太原直送,AWLS015,AWLS015,49,140109122190,太原***顺缘商店,112.505536,37.851272,1.0,1.0,111.0,42.67,2.330337002894212,2.3530021427582604,0.1245854778455296,太原直送,0.1245854778455296,山西省,太原市,万柏林区,小井峪街道,山西省太原市万柏林区小井峪街道小井峪街小井峪街33号小区,112.49909847151162,37.85062913014124,168_85,112.50067794048248,37.84853164254594,1.0,2001203986.0,112.4993719,37.8505765,140109122190.0,0,0,102
太原直送,AWLS015,AWLS015,38,140109122191,太原***鑫烟酒店,112.499568,37.850762,1.0,1.0,111.0,72.33,2.3328274275758134,2.357730136696945,0.1262625612998526,太原直送,0.1262625612998526,山西省,太原市,万柏林区,小井峪街道,山西省太原市万柏林区小井峪街道小井峪街26号小井峪华峪南区,112.4931083698036,37.85010117696459,167_85,112.49488501226531,37.84853164254594,1.0,8898481101.0,112.4936878,37.8504122,140109122191.0,0,0,102
太原直送,AWLS015,AWLS015,103,140109122239,（金***人金虎便利店,112.498352,37.854744,1.0,1.0,111.0,53.33,2.329491947243865,2.3559253559960287,0.1226620686357466,太原直送,0.1226620686357466,山西省,太原市,万柏林区,小井峪街道,山西省太原市万柏林区小井峪街道小井峪路小井峪华峪,112.49188737212673,37.8540801904052,166_86,112.48909208404818,37.85302824775237,1.0,5764621230.0,112.4919756,37.8555715,140109122239.0,0,0,102
太原直送,AWLS015,AWLS015,40,140109122240,太原***百货商店,112.504202,37.850627,3.0,1.0,111.0,11.0,2.331392666011664,2.354419183233088,0.1254592768072517,太原直送,0.1254592768072517,山西省,太原市,万柏林区,小井峪街道,山西省太原市万柏林区小井峪街道太原五十六中,112.4977596073941,37.849980037921945,167_85,112.49488501226531,37.84853164254594,1.0,5271771067.0,112.498032,37.8506475,140109122240.0,0,0,102
太原直送,AWLS015,AWLS015,21,140109122533,太原***百货商行,112.498159,37.853286,1.0,1.0,111.0,72.67,2.33092908181888,2.3570548895369403,0.1241245407040858,太原直送,0.1241245407040858,山西省,太原市,万柏林区,小井峪街道,山西省太原市万柏林区小井峪街道小井峪路小井峪华峪东区,112.49169382672902,37.852621369735616,166_86,112.48909208404818,37.85302824775237,1.0,5764621231.0,112.491467,37.849758,140109122533.0,0,0,102
太原直送,AWLS015,AWLS015,13,140109122558,太原***酒茶商行,112.499112,37.8517,1.0,1.0,111.0,64.67,2.332098827324862,2.357429091757587,0.1254492718591844,太原直送,0.1254492718591844,山西省,太原市,万柏林区,小井峪街道,山西省太原市万柏林区小井峪街道睿璟国际幼儿园小井峪华峪东区A区,112.49265056155392,37.85103796414567,167_86,112.49488501226531,37.85302824775237,1.0,2001203988.0,112.4936674,37.8504942,140109122558.0,0,0,102
太原直送,AWLS015,AWLS015,6,140109122564,太原***程烟酒店,112.496201,37.854196,1.0,1.0,111.0,66.0,2.3307372937920285,2.3578794246326487,0.123717648187311,太原直送,0.123717648187311,山西省,太原市,万柏林区,小井峪街道,山西省太原市万柏林区小井峪街道华峪西区(东门)小井峪华峪西区,112.48972843496504,37.85352565717819,166_86,112.48909208404818,37.85302824775237,1.0,7215298287.0,112.4895224,37.8556906,140109122564.0,0,0,102
太原直送,AWLS015,AWLS015,14,140109122600,太原***楚便利店,112.496856,37.852579,1.0,1.0,111.0,47.0,2.3320359477737496,2.358492307336197,0.1251224658684456,太原直送,0.1251224658684456,,,,,,112.49038606258009,37.851910349589375,166_86,112.48909208404818,37.85302824775237,1.0,9545138587.0,112.489809,37.8495847,140109122600.0,0,0,102
太原直送,AWLS015,AWLS015,71,140109122603,（唐***鹏唐久便利店,112.498119,37.852513,1.0,1.0,111.0,48.33,2.331669924967079,2.357608063361037,0.1248854161861945,太原直送,0.1248854161861945,山西省,太原市,万柏林区,小井峪街道,山西省太原市万柏林区小井峪街道小井峪路小井峪华峪东区,112.49165376952556,37.85184812194929,166_86,112.48909208404818,37.85302824775237,1.0,5764621231.0,112.491467,37.849758,140109122603.0,0,0,102
太原直送,AWLS015,AWLS015,76,140109122627,太原***食便利店,112.504435,37.853436,1.0,1.0,111.0,67.67,2.3286689189846173,2.352340641123641,0.1226557182238117,太原直送,0.1226557182238117,山西省,太原市,万柏林区,小井峪街道,山西省太原市万柏林区小井峪街道前进路山西医科大学第一医院(前进院区),112.49799313887708,37.85279019798579,168_86,112.50067794048248,37.85302824775237,1.0,7012138181.0,112.4978804,37.8542752,140109122627.0,0,0,102
太原直送,AWLS015,AWLS015,131,140109220120,太原***业经销部,112.504958,37.854903,1.0,1.0,111.0,58.67,2.327111479778524,2.350960929807211,0.121117190460312,太原直送,0.121117190460312,山西省,太原市,万柏林区,小井峪街道,山西省太原市万柏林区小井峪街道下元街智诚·御河骏景,112.49851790295634,37.85425900509591,168_86,112.50067794048248,37.85302824775237,1.0,7012138181.0,112.4978804,37.8542752,140109220120.0,0,0,102
太原直送,AWLS015,AWLS015,115,140109220185,太原***有限公司,112.504315,37.856104,1.0,1.0,111.0,23.33,2.326197050307858,2.3506186874544257,0.1200583958122002,太原直送,0.1200583958122002,山西省,太原市,万柏林区,小井峪街道,山西省太原市万柏林区小井峪街道前进路智诚·御河骏景,112.4978723785234,37.85545828370672,168_87,112.50067794048248,37.85752485295879,1.0,7215264053.0,112.497857,37.855859,140109220185.0,0,0,102
太原直送,AWLS015,AWLS015,169,140109220896,山西***有限公司,112.499522,37.854484,1.0,1.0,111.0,64.67,2.329340301457475,2.3552407260670827,0.1226445315617449,太原直送,0.1226445315617449,山西省,太原市,万柏林区,小井峪街道,山西省太原市万柏林区小井峪街道小井峪派出所华峪幼儿园校园警务室小井峪华峪东区C区,112.4930617575452,37.85382365433093,167_86,112.49488501226531,37.85302824775237,1.0,5764621230.0,112.4919756,37.8555715,140109220896.0,0,0,102
太原直送,AWLS015,AWLS015,138,140109220966,山西***有限公司,112.498217,37.849053,1.0,1.0,111.0,41.33,2.334892538529345,2.35988209521938,0.1282299726117118,太原直送,0.1282299726117118,山西省,太原市,万柏林区,小井峪街道,山西省太原市万柏林区小井峪街道优行教育托管中心小井峪华峪南区,112.4917525444386,37.8483878476078,166_85,112.48909208404818,37.84853164254594,1.0,8898481099.0,112.4914573,37.8496402,140109220966.0,0,0,102
太原直送,AWLS015,AWLS015,119,140109221008,太原***有限公司,112.498069,37.852127,1.0,1.0,111.0,80.0,2.3320500446782826,2.3579064174281767,0.1252724232702427,太原直送,0.1252724232702427,山西省,太原市,万柏林区,小井峪街道,山西省太原市万柏林区小井峪街道小井峪路小井峪华峪东区,112.49160362922314,37.85146190837927,166_86,112.48909208404818,37.85302824775237,1.0,5764621231.0,112.491467,37.849758,140109221008.0,0,0,102
太原直送,AWLS015,AWLS015,25,140109122716,太原***族便利店,112.49227,37.849691,1.0,1.0,111.0,29.0,2.336310721476274,2.3638224201813416,0.1290936483061784,太原直送,0.1290936483061784,山西省,太原市,万柏林区,小井峪街道,山西省太原市万柏林区小井峪街道西中环东社区退役军人服务站恒大城二期,112.4857833886375,37.84900818513892,165_85,112.48329915583102,37.84853164254594,1.0,5765509784.0,112.4840556,37.8488762,140109122716.0,0,0,102
太原直送,AWLS015,AWLS015,15,140109122736,太原***朝烟酒店,112.499096,37.851913,1.0,1.0,111.0,57.0,2.331903794556069,2.357296435023818,0.1252453260964222,太原直送,0.1252453260964222,山西省,太原市,万柏林区,小井峪街道,山西省太原市万柏林区小井峪街道小井峪华峪东区A区,112.49263447676076,37.85125095128423,167_86,112.49488501226531,37.85302824775237,1.0,2001203988.0,112.4936674,37.8504942,140109122736.0,0,0,102
太原直送,AWLS015,AWLS015,78,140109122759,太原***豪便利店,112.504399,37.85424,1.0,1.0,111.0,58.0,2.32792392229235,2.3518214260734123,0.1218726525722649,太原直送,0.1218726525722649,山西省,太原市,万柏林区,小井峪街道,山西省太原市万柏林区小井峪街道前进路下元小区,112.49795691036095,37.85359422385006,168_86,112.50067794048248,37.85302824775237,1.0,7012138181.0,112.4978804,37.8542752,140109122759.0,0,0,102
太原直送,AWLS015,AWLS015,83,140109222810,太原***有限公司,112.49859,37.84951,1.0,1.0,111.0,35.0,2.334336324457553,2.359298020794535,0.1277005626377561,太原直送,0.1277005626377561,山西省,太原市,万柏林区,小井峪街道,山西省太原市万柏林区小井峪街道前进路15号小井峪华峪南区,112.4921268783845,37.84884604011663,167_85,112.49488501226531,37.84853164254594,1.0,8898481099.0,112.4914573,37.8496402,140109222810.0,0,0,102
太原直送,AWLS015,AWLS015,95,140109122809,山西***鼎胜商行,112.506375,37.851251,1.0,1.0,111.0,38.0,2.3300752397208115,2.3524009313883933,0.1244624023068812,太原直送,0.1244624023068812,山西省,太原市,万柏林区,小井峪街道,山西省太原市万柏林区小井峪街道小井峪街53号彩虹湾,112.4999405750614,37.85061062971526,168_85,112.50067794048248,37.84853164254594,1.0,2001203986.0,112.4993719,37.8505765,140109122809.0,0,0,102
太原直送,AWLS015,AWLS015,12,140109122811,太原***意便利店,112.497276,37.850304,1.0,1.0,111.0,38.0,2.3340338863679744,2.359725150920969,0.1272305883425811,太原直送,0.1272305883425811,山西省,太原市,万柏林区,小井峪街道,山西省太原市万柏林区小井峪街道小井峪街小井峪华峪,112.49080789477212,37.84963623288019,166_85,112.48909208404818,37.84853164254594,1.0,8898481099.0,112.4914573,37.8496402,140109122811.0,0,0,102
太原直送,AWLS015,AWLS015,26,140109122833,太原***烟酒商行,112.495728,37.849945,1.0,1.0,111.0,36.67,2.3348964148280764,2.361106586913856,0.1279525428782097,太原直送,0.1279525428782097,山西省,太原市,万柏林区,小井峪街道,山西省太原市万柏林区小井峪街道嘉凯影城(太原恒大城中国巨幕店)恒大城一期,112.48925418129316,37.849272540976806,166_85,112.48909208404818,37.84853164254594,1.0,9545138588.0,112.4898064,37.8494865,140109122833.0,0,0,102
太原直送,AWLS015,AWLS015,90,140109122830,山西***有限公司,112.501008,37.856698,1.0,1.0,111.0,22.0,2.326754109398325,2.352647844481828,0.1201552797425038,太原直送,0.1201552797425038,山西省,太原市,万柏林区,小井峪街道,山西省太原市万柏林区小井峪街道虎峪河北沿岸龙腾小区,112.49455302466156,37.8560424794316,167_87,112.49488501226531,37.85752485295879,1.0,7215264041.0,112.4947485,37.8561779,140109122830.0,0,0,102
太原直送,AWLS015,AWLS015,77,140109222832,太原***有限公司,112.498532,37.850072,1.0,1.0,111.0,1.33,2.333827052045205,2.3589593948521053,0.1271661109022386,太原直送,0.1271661109022386,山西省,太原市,万柏林区,小井峪街道,山西省太原市万柏林区小井峪街道小井峪街104号小井峪华峪南区,112.49206859591446,37.8494079581884,167_85,112.49488501226531,37.84853164254594,1.0,8898481099.0,112.4914573,37.8496402,140109222832.0,0,0,102
太原直送,AWLS015,AWLS015,37,140109122881,太原***烟酒商行,112.495496,37.850211,1.0,1.0,111.0,52.67,2.334724925470447,2.3610969293690545,0.1277523269181389,太原直送,0.1277523269181389,山西省,太原市,万柏林区,小井峪街道,山西省太原市万柏林区小井峪街道小井峪街恒大城一期,112.48902128766773,37.84953789082123,166_85,112.48909208404818,37.84853164254594,1.0,9545138588.0,112.4898064,37.8494865,140109122881.0,0,0,102
太原直送,AWLS015,AWLS015,93,140109122889,太原***点烟酒店,112.504369,37.855363,1.0,1.0,111.0,78.67,2.3268765725315155,2.3510815694324627,0.1207755197711874,太原直送,0.1207755197711874,山西省,太原市,万柏林区,小井峪街道,山西省太原市万柏林区小井峪街道前进路智诚·御河骏景,112.49792666634076,37.85471732128229,168_86,112.50067794048248,37.85302824775237,1.0,7012138181.0,112.4978804,37.8542752,140109122889.0,0,0,102
太原直送,AWLS015,AWLS015,139,140109122910,(金***轩苑金虎便利店,112.497889,37.850048,1.0,1.0,111.0,29.33,2.334067197618995,2.359448182115892,0.127336429355465,太原直送,0.127336429355465,山西省,太原市,万柏林区,小井峪街道,山西省太原市万柏林区小井峪街道小井峪路小井峪华峪南区,112.49142320590737,37.84938202731492,166_85,112.48909208404818,37.84853164254594,1.0,8898481099.0,112.4914573,37.8496402,140109122910.0,0,0,102
太原直送,AWLS015,AWLS015,113,140109122923,太原***百货商行,112.504273,37.850148,1.0,1.0,111.0,23.0,2.331819935779136,2.3546925331622406,0.1259171252252862,太原直送,0.1259171252252862,山西省,太原市,万柏林区,小井峪街道,山西省太原市万柏林区小井峪街道小井峪街32-7号楼太原五十六中,112.49783092725028,37.84950117174407,168_85,112.50067794048248,37.84853164254594,1.0,5271771067.0,112.498032,37.8506475,140109122923.0,0,0,102
太原直送,AWLS015,AWLS015,222,140109122946,太原***居烟酒店,112.500559,37.84958,1.0,1.0,111.0,46.67,2.3336053783493447,2.3578043313086856,0.1272040192957718,太原直送,0.1272040192957718,山西省,太原市,万柏林区,小井峪街道,山西省太原市万柏林区小井峪街道小井峪街32-13号楼大众三益小区,112.4941031973951,37.84892195450478,167_85,112.49488501226531,37.84853164254594,1.0,9545138581.0,112.4940374,37.8493926,140109122946.0,0,0,102
太原直送,AWLS015,AWLS015,35,140109123066,太原***瑞鑫商行,112.497881,37.8479,1.0,1.0,111.0,38.0,2.336091232461817,2.360911278340201,0.1294291450678653,太原直送,0.1294291450678653,山西省,太原市,万柏林区,小井峪街道,山西省太原市万柏林区小井峪街道小井峪路小井峪文化产业园,112.49141543081429,37.84723365314428,166_85,112.48909208404818,37.84853164254594,1.0,5764621232.0,112.4911566,37.8459802,140109123066.0,0,0,102
太原直送,AWLS015,AWLS015,21,140109123073,太原***果便利店,112.495435,37.850193,1.0,1.0,111.0,35.0,2.33476256116377,2.3611539868498626,0.1277849547638542,太原直送,0.1277849547638542,山西省,太原市,万柏林区,小井峪街道,山西省太原市万柏林区小井峪街道小井峪街恒大城一期,112.48896006317456,37.84951970550824,166_85,112.48909208404818,37.84853164254594,1.0,9545138588.0,112.4898064,37.8494865,140109123073.0,0,0,102
