station_name,line_code,line_name,deliver_no,customer_code,customer_name,longitude,latitude,order_cycle_type,order_weekday,city_village_code,avg_order_qty,distance_to_平城直送,distance_to_灵丘中转站,distance_to_太原直送,nearest_station,distance_to_station,province,city,district,township,full_address,lon_84,lat_84,grid_id,LonGridCenter,LatGridCenter,group,customer_osmid_mapping,OSM_X,OSM_Y,BB_RETAIL_CUSTOMER_CODE,kmeans_cluster,dbscan_label,kmeans_label
太原直送,BWLS017,BWLS017,99,140105100207,太原***捷便利店,112.554844,37.823031,1.0,2.0,111.0,50.33,2.341052588761942,2.336645087354942,0.1534062884793175,太原直送,0.1534062884793175,山西省,太原市,小店区,平阳路街道,山西省太原市小店区平阳路街道亲贤北街92-18号水工大厦,112.54856420049126,37.8225098238065,176_79,112.54702136621977,37.82155201130741,1.0,7842223159.0,112.5484787,37.822641,140105100207.0,0,0,51
太原直送,BWLS016,BWLS016,112,140105101324,太原***娜便利店,112.548049,37.820282,1.0,2.0,111.0,32.33,2.3457977551547344,2.3434377924224865,0.1550564879551969,太原直送,0.1550564879551969,山西省,太原市,小店区,平阳路街道,山西省太原市小店区平阳路街道南环四巷长风小区,112.54175338785888,37.819747011026685,175_79,112.5412284380026,37.82155201130741,1.0,7317556172.0,112.5413884,37.8183028,140105101324.0,0,0,51
太原直送,BWLS016,BWLS016,83,140105101371,太原***惠娥烟店,112.551195,37.828263,1.0,2.0,111.0,22.0,2.3372319142934845,2.3356292290594776,0.1476278022731489,太原直送,0.1476278022731489,山西省,太原市,小店区,平阳路街道,山西省太原市小店区平阳路街道平阳路西二巷御龙庭西区,112.54490620092884,37.82773560043381,176_80,112.54702136621977,37.82604861651383,1.0,1984181886.0,112.5440772,37.8275746,140105101371.0,0,0,51
太原直送,BWLS016,BWLS016,113,140105107899,太原***奥特产店,112.548753,37.822891,1.0,2.0,111.0,10.33,2.343099884789378,2.3411178051616672,0.1525687985926355,太原直送,0.1525687985926355,山西省,太原市,小店区,平阳路街道,山西省太原市小店区平阳路街道南内环街南四巷长风公寓B座,112.54245885624964,37.82235785539535,175_79,112.5412284380026,37.82155201130741,1.0,4200938547.0,112.5425363,37.8225714,140105107899.0,0,0,51
太原直送,BWLS017,BWLS017,88,140105108890,太原***小秦商店,112.557996,37.824306,1.0,2.0,111.0,70.33,2.338856148081363,2.3334953813883974,0.1527543975733586,太原直送,0.1527543975733586,山西省,太原市,小店区,营盘街道,山西省太原市小店区营盘街道寇庄西路阳光地带,112.551722774209,37.82379064188859,177_79,112.55281429443691,37.82155201130741,1.0,1893499358.0,112.5517347,37.8227683,140105108890.0,0,0,51
太原直送,CWLS014,CWLS014,55,140105108897,太原***产经销部,112.554582,37.816894,1.0,3.0,111.0,67.33,2.346963588544571,2.3411103902817167,0.1594022519351593,太原直送,0.1594022519351593,山西省,太原市,小店区,平阳路街道,山西省太原市小店区平阳路街道长风街132号长风大厦(长风街),112.54830233151304,37.81637145961862,176_78,112.54702136621977,37.81705540610098,1.0,7689952077.0,112.5483162,37.8170844,140105108897.0,0,0,51
太原直送,BWLS017,BWLS017,85,140105109092,（唐***帮唐久便利店,112.555275,37.82605,1.0,2.0,111.0,44.33,2.338050518563916,2.334234242052413,0.1505168820199202,太原直送,0.1505168820199202,山西省,太原市,小店区,营盘街道,山西省太原市小店区营盘街道北园街山西省能源职业学校,112.54899579860285,37.82553005896768,176_80,112.54702136621977,37.82604861651383,1.0,4200938548.0,112.5490191,37.8276604,140105109092.0,0,0,51
太原直送,BWLS016,BWLS016,89,140105109174,太原***来顺商店,112.552629,37.827877,1.0,2.0,111.0,25.0,2.3371466991149696,2.334865733743378,0.1482470547835574,太原直送,0.1482470547835574,山西省,太原市,小店区,平阳路街道,山西省太原市小店区平阳路街道平阳路山西省地方志办公室,112.54634362038406,37.82735235082488,176_80,112.54702136621977,37.82604861651383,1.0,1984182019.0,112.546363,37.8276064,140105109174.0,0,0,51
太原直送,BWLS017,BWLS017,115,140105109651,（唐***衡唐久便利店,112.553179,37.824547,1.0,2.0,111.0,56.0,2.3401351029596524,2.3367854984805483,0.1516220624183656,太原直送,0.1516220624183656,山西省,太原市,小店区,营盘街道,山西省太原市小店区营盘街道平阳路68-11尚领世家,112.54689527516432,37.82402291568808,176_80,112.54702136621977,37.82604861651383,1.0,2150336012.0,112.5464101,37.8237003,140105109651.0,0,0,51
太原直送,BWLS017,BWLS017,98,140105109690,太原***英梅商店,112.554947,37.823075,1.0,2.0,111.0,66.0,2.3409785502050173,2.336540524554408,0.1533815410667091,太原直送,0.1533815410667091,山西省,太原市,小店区,平阳路街道,山西省太原市小店区平阳路街道亲贤北街92-18号水工大厦,112.54866742286497,37.82255402033256,176_79,112.54702136621977,37.82155201130741,1.0,7842223159.0,112.5484787,37.822641,140105109690.0,0,0,51
太原直送,BWLS016,BWLS016,108,140105111168,太原***康源商行,112.547815,37.818521,1.0,2.0,111.0,77.0,2.347542699594623,2.344830958337296,0.1567710131625118,太原直送,0.1567710131625118,山西省,太原市,小店区,平阳路街道,山西省太原市小店区平阳路街道南内环街南四巷华德,112.54151899871826,37.81798526789038,175_78,112.5412284380026,37.81705540610098,1.0,1993057823.0,112.5413052,37.8180415,140105111168.0,0,0,51
太原直送,BWLS017,BWLS017,110,140105111886,太原***产经销部,112.558408,37.818475,1.0,2.0,111.0,35.67,2.344268386699142,2.3372667860704293,0.1585510714217967,太原直送,0.1585510714217967,山西省,太原市,小店区,平阳路街道,山西省太原市小店区平阳路街道富豪大厦君威财富中心,112.55213629166336,37.81795950829832,177_78,112.55281429443691,37.81705540610098,1.0,4202768317.0,112.551741,37.8170704,140105111886.0,0,0,51
太原直送,BWLS017,BWLS017,118,140105112081,太原***守祥商行,112.553242,37.827921,1.0,2.0,111.0,55.67,2.336912148984849,2.334394323290731,0.1483097268725095,太原直送,0.1483097268725095,山西省,太原市,小店区,营盘街道,山西省太原市小店区营盘街道平阳路56号平阳商贸城停车场,112.54695802780144,37.82739753438754,176_80,112.54702136621977,37.82604861651383,1.0,4200938555.0,112.546629,37.8276107,140105112081.0,0,0,51
太原直送,CWLS014,CWLS014,54,140105114098,（唐***永富唐久便利店,112.55512,37.815785,1.0,3.0,111.0,67.67,2.3478491170892988,2.341498909553449,0.1605873435019092,太原直送,0.1605873435019092,山西省,太原市,小店区,平阳路街道,山西省太原市小店区平阳路街道文化街福鑫苑小区,112.54884164941453,37.81526329779179,176_78,112.54702136621977,37.81705540610098,1.0,1906863725.0,112.5476905,37.8140214,140105114098.0,0,0,51
太原直送,BWLS016,BWLS016,128,140105114482,（金***刚金虎便利店,112.549778,37.826206,1.0,2.0,111.0,29.33,2.339630807116797,2.338077324291261,0.14943826950952,太原直送,0.14943826950952,山西省,太原市,小店区,平阳路街道,山西省太原市小店区平阳路街道南环四巷万厦华府小区,112.543486010024,37.82567544659605,175_80,112.5412284380026,37.82604861651383,1.0,1984181886.0,112.5440772,37.8275746,140105114482.0,0,0,51
太原直送,BWLS016,BWLS016,115,140105114605,（唐***春唐久便利店,112.548867,37.823136,1.0,2.0,111.0,85.67,2.3428314325049087,2.3408655553196547,0.1523423405524549,太原直送,0.1523423405524549,山西省,太原市,小店区,平阳路街道,山西省太原市小店区平阳路街道亲贤北街金地广场小区,112.54257311254034,37.82260312704129,175_79,112.5412284380026,37.82155201130741,1.0,4200938550.0,112.54256,37.8226434,140105114605.0,0,0,51
太原直送,BWLS017,BWLS017,97,140105115268,太原***飞便利店,112.554947,37.823075,1.0,2.0,111.0,22.0,2.3409785502050173,2.336540524554408,0.1533815410667091,太原直送,0.1533815410667091,山西省,太原市,小店区,平阳路街道,山西省太原市小店区平阳路街道亲贤北街92-18号水工大厦,112.54866742286497,37.82255402033256,176_79,112.54702136621977,37.82155201130741,1.0,7842223159.0,112.5484787,37.822641,140105115268.0,0,0,51
太原直送,CWLS014,CWLS014,56,140105115924,（唐***华唐久便利店,112.556331,37.817275,1.0,3.0,111.0,68.0,2.34605568296236,2.3395917075568944,0.1593363350526138,太原直送,0.1593363350526138,山西省,太原市,小店区,平阳路街道,山西省太原市小店区平阳路街道长风街辅路人口大厦(长风街),112.55005510107384,37.81675570405065,177_78,112.55281429443691,37.81705540610098,1.0,12441672105.0,112.5499041,37.8168902,140105115924.0,0,0,51
太原直送,BWLS016,BWLS016,95,140105116172,太原***源便利店,112.551424,37.821334,1.0,2.0,111.0,59.33,2.343736739791822,2.340281636280771,0.1545050550694031,太原直送,0.1545050550694031,山西省,太原市,小店区,平阳路街道,山西省太原市小店区平阳路街道红河谷(平阳路店)恒实平阳景苑,112.54513655111576,37.82080603752959,176_79,112.54702136621977,37.82155201130741,1.0,2150336001.0,112.5464434,37.821088,140105116172.0,0,0,51
太原直送,BWLS016,BWLS016,117,140105116591,太原***佳博商行,112.547871,37.823239,1.0,2.0,111.0,56.67,2.3430480817823587,2.3415101841394983,0.1521024316044923,太原直送,0.1521024316044923,山西省,太原市,小店区,平阳路街道,山西省太原市小店区平阳路街道亲贤北街7天连锁酒店(太原滨河东路亲贤街店),112.54157459266378,37.82270406449599,175_79,112.5412284380026,37.82155201130741,1.0,1993058160.0,112.5412448,37.8226271,140105116591.0,0,0,51
太原直送,BWLS016,BWLS016,114,140105116734,太原***展展商店,112.548753,37.822891,1.0,2.0,111.0,81.0,2.343099884789378,2.3411178051616672,0.1525687985926355,太原直送,0.1525687985926355,山西省,太原市,小店区,平阳路街道,山西省太原市小店区平阳路街道南内环街南四巷长风公寓B座,112.54245885624964,37.82235785539535,175_79,112.5412284380026,37.82155201130741,1.0,4200938547.0,112.5425363,37.8225714,140105116734.0,0,0,51
太原直送,BWLS017,BWLS017,91,140105116959,太原***酒经销部,112.556103,37.823252,1.0,2.0,111.0,45.33,2.3404487375383853,2.335587709925283,0.1534203167152257,太原直送,0.1534203167152257,山西省,太原市,小店区,营盘街道,山西省太原市小店区营盘街道亲贤北街水总小区,112.54982591933704,37.82273315194257,176_79,112.54702136621977,37.82155201130741,1.0,7842223156.0,112.5495887,37.8226628,140105116959.0,0,0,51
太原直送,BWLS016,BWLS016,121,140105117071,太原***信利商行,112.550974,37.822142,1.0,2.0,111.0,67.0,2.343111173861369,2.340042575174436,0.1536370182019929,太原直送,0.1536370182019929,山西省,太原市,小店区,平阳路街道,山西省太原市小店区平阳路街道善知鸟美术恒实平阳景苑,112.54468538315876,37.82161326131914,176_79,112.54702136621977,37.82155201130741,1.0,2150336000.0,112.5463055,37.8224584,140105117071.0,0,0,51
太原直送,BWLS017,BWLS017,92,140105117366,太原***水工商店,112.554844,37.823031,1.0,2.0,111.0,57.33,2.341052588761942,2.336645087354942,0.1534062884793175,太原直送,0.1534062884793175,山西省,太原市,小店区,平阳路街道,山西省太原市小店区平阳路街道亲贤北街92-18号水工大厦,112.54856420049126,37.8225098238065,176_79,112.54702136621977,37.82155201130741,1.0,7842223159.0,112.5484787,37.822641,140105117366.0,0,0,51
太原直送,BWLS016,BWLS016,94,140105117463,（唐***军唐久便利店,112.552293,37.821331,1.0,2.0,111.0,68.33,2.343466662826673,2.33965981277727,0.154646120365173,太原直送,0.154646120365173,山西省,太原市,小店区,平阳路街道,山西省太原市小店区平阳路街道金小脉·国医推拿恒实平阳景苑,112.54600759853932,37.82080474042899,176_79,112.54702136621977,37.82155201130741,1.0,2150336001.0,112.5464434,37.821088,140105117463.0,0,0,51
太原直送,BWLS017,BWLS017,106,140105117713,太原***峰便利店,112.557104,37.819884,1.0,2.0,111.0,61.33,2.343335730161172,2.3372175970570224,0.1569167652037177,太原直送,0.1569167652037177,山西省,太原市,小店区,平阳路街道,山西省太原市小店区平阳路街道亲贤西街馨海银座,112.55082943546412,37.819366447359045,177_79,112.55281429443691,37.82155201130741,1.0,1893499355.0,112.5517368,37.8193837,140105117713.0,0,0,51
太原直送,BWLS016,BWLS016,105,140105117771,太原***鲜便利店,112.54782,37.818712,1.0,2.0,111.0,61.0,2.3473598641218185,2.344694466612013,0.1565823141034779,太原直送,0.1565823141034779,山西省,太原市,小店区,平阳路街道,山西省太原市小店区平阳路街道南内环街南四巷华德,112.54152398923358,37.81817630557903,175_78,112.5412284380026,37.81705540610098,1.0,7317556172.0,112.5413884,37.8183028,140105117771.0,0,0,51
太原直送,BWLS017,BWLS017,109,140105118272,（金***军金虎便利店,112.557976,37.819246,1.0,2.0,111.0,56.33,2.3436701894887007,2.337038010790797,0.1577105205685384,太原直送,0.1577105205685384,山西省,太原市,小店区,平阳路街道,山西省太原市小店区平阳路街道寇庄西路百盛(太原长风街店),112.55170331976842,37.81872987618252,177_78,112.55281429443691,37.81705540610098,1.0,1893499355.0,112.5517368,37.8193837,140105118272.0,0,0,51
太原直送,BWLS016,BWLS016,92,140105118377,（唐***久唐久便利店,112.552686,37.826112,1.0,2.0,111.0,56.0,2.3388042235078155,2.3360514242466937,0.149996029980792,太原直送,0.149996029980792,山西省,太原市,小店区,平阳路街道,山西省太原市小店区平阳路街道平阳路米兰假日小区,112.54640095742792,37.8255871991942,176_80,112.54702136621977,37.82604861651383,1.0,2038405239.0,112.54671,37.8254045,140105118377.0,0,0,51
太原直送,BWLS016,BWLS016,86,140105118414,太原***梦缘商店,112.549838,37.828176,1.0,2.0,111.0,67.33,2.337742556178932,2.3366662831831624,0.147500153606698,太原直送,0.147500153606698,山西省,太原市,小店区,平阳路街道,山西省太原市小店区平阳路街道平阳路西二巷煤气用具宿舍,112.54354592823589,37.8276458610222,175_80,112.5412284380026,37.82604861651383,1.0,1984181886.0,112.5440772,37.8275746,140105118414.0,0,0,51
太原直送,BWLS016,BWLS016,103,140105118674,太原***烟酒商行,112.551798,37.81899,1.0,2.0,111.0,61.33,2.345844734674908,2.3416452809281294,0.1568787022957544,太原直送,0.1568787022957544,山西省,太原市,小店区,平阳路街道,山西省太原市小店区平阳路街道长风街421号恒实平阳景苑,112.54551170868574,37.81846243803478,176_78,112.54702136621977,37.81705540610098,1.0,7317556173.0,112.5460344,37.8182423,140105118674.0,0,0,51
太原直送,BWLS016,BWLS016,123,140105118766,（金***锋金虎便利店,112.550551,37.822191,1.0,2.0,111.0,46.67,2.3431977358148868,2.340312358327625,0.1535239527500529,太原直送,0.1535239527500529,山西省,太原市,小店区,平阳路街道,山西省太原市小店区平阳路街道善知鸟美术恒实平阳景苑,112.54426135909868,37.8216614222982,176_79,112.54702136621977,37.82155201130741,1.0,4200938547.0,112.5425363,37.8225714,140105118766.0,0,0,51
太原直送,BWLS016,BWLS016,98,140105118784,（唐***天唐久便利店,112.551596,37.820791,1.0,2.0,111.0,68.67,2.3441982094808007,2.340536106561055,0.1550682782293004,太原直送,0.1550682782293004,山西省,太原市,小店区,平阳路街道,山西省太原市小店区平阳路街道太原景苑盛捷公寓恒实平阳景苑,112.54530902218968,37.820263298686505,176_79,112.54702136621977,37.82155201130741,1.0,7842223149.0,112.5462886,37.8195445,140105118784.0,0,0,51
太原直送,BWLS017,BWLS017,105,140105118804,太原***思诚商店,112.557979,37.821035,1.0,2.0,111.0,73.67,2.341969300288965,2.335787767116905,0.1559566832809646,太原直送,0.1559566832809646,山西省,太原市,小店区,平阳路街道,山西省太原市小店区平阳路街道寇庄西路太原天伦不孕不育医院,112.55170611853744,37.82051913775485,177_79,112.55281429443691,37.82155201130741,1.0,1893499355.0,112.5517368,37.8193837,140105118804.0,0,0,51
太原直送,BWLS017,BWLS017,89,140105118916,太原***豪情商店,112.557981,37.825285,1.0,2.0,111.0,90.0,2.337930746895638,2.332824145307356,0.1517924711835179,太原直送,0.1517924711835179,山西省,太原市,小店区,营盘街道,山西省太原市小店区营盘街道寇庄西路阳光地带,112.55170762989285,37.82476975961066,177_80,112.55281429443691,37.82604861651383,1.0,1893499136.0,112.5516196,37.825484,140105118916.0,0,0,51
太原直送,BWLS016,BWLS016,81,140105119212,太原***鲜便利店,112.551004,37.828193,1.0,2.0,111.0,48.67,2.3373585560116767,2.3358152794088785,0.1476660896109874,太原直送,0.1476660896109874,山西省,太原市,小店区,平阳路街道,山西省太原市小店区平阳路街道平阳路西二巷汾河小区,112.54471475221912,37.82766521029,176_80,112.54702136621977,37.82604861651383,1.0,1984181886.0,112.5440772,37.8275746,140105119212.0,0,0,51
太原直送,BWLS017,BWLS017,96,140105119218,太原***辰便利店,112.554947,37.823075,1.0,2.0,111.0,57.0,2.3409785502050173,2.336540524554408,0.1533815410667091,太原直送,0.1533815410667091,山西省,太原市,小店区,平阳路街道,山西省太原市小店区平阳路街道亲贤北街92-18号水工大厦,112.54866742286497,37.82255402033256,176_79,112.54702136621977,37.82155201130741,1.0,7842223159.0,112.5484787,37.822641,140105119218.0,0,0,51
太原直送,BWLS016,BWLS016,80,140105119340,太原***五金商店,112.552012,37.828196,1.0,2.0,111.0,15.33,2.3370381096631685,2.335087935384229,0.1478283361537978,太原直送,0.1478283361537978,山西省,太原市,小店区,平阳路街道,山西省太原市小店区平阳路街道西吴御龙庭御龙庭西区,112.54572514336348,37.827670199519154,176_80,112.54702136621977,37.82604861651383,1.0,1984182019.0,112.546363,37.8276064,140105119340.0,0,0,51
太原直送,BWLS016,BWLS016,99,140105119461,太原***尔便利店,112.550862,37.818944,1.0,2.0,111.0,47.0,2.346182284954431,2.342348964489494,0.1567806995838412,太原直送,0.1567806995838412,山西省,太原市,小店区,平阳路街道,山西省太原市小店区平阳路街道长风街411号恒实平阳景苑,112.54457348573568,37.81841457862858,176_78,112.54702136621977,37.81705540610098,1.0,7317556173.0,112.5460344,37.8182423,140105119461.0,0,0,51
太原直送,BWLS017,BWLS017,120,140105119618,太原***英便利店,112.552801,37.828048,1.0,2.0,111.0,53.67,2.336930272443956,2.3346232200391515,0.1481080993362581,太原直送,0.1481080993362581,山西省,太原市,小店区,营盘街道,山西省太原市小店区营盘街道平阳路春光里平阳商贸城,112.5465159986935,37.827523707965696,176_80,112.54702136621977,37.82604861651383,1.0,4200938555.0,112.546629,37.8276107,140105119618.0,0,0,51
太原直送,BWLS016,BWLS016,120,140105119795,（寸***寸草心便利店,112.55148,37.821991,1.0,2.0,111.0,60.0,2.343095427891278,2.3397842024708195,0.1538649449127393,太原直送,0.1538649449127393,山西省,太原市,小店区,平阳路街道,山西省太原市小店区平阳路街道创享家折扣超市(平阳景苑店)恒实平阳景苑,112.545192607823,37.82146324302757,176_79,112.54702136621977,37.82155201130741,1.0,2150336001.0,112.5464434,37.821088,140105119795.0,0,0,51
太原直送,BWLS017,BWLS017,112,140105119948,太原***久便利店,112.556881,37.81795,1.0,2.0,111.0,47.67,2.345242853093252,2.3387267161842504,0.1587742604863859,太原直送,0.1587742604863859,山西省,太原市,小店区,平阳路街道,山西省太原市小店区平阳路街道长风街辅路和信商城,112.55060619056384,37.81743177840091,177_78,112.55281429443691,37.81705540610098,1.0,1993058843.0,112.5506417,37.8170758,140105119948.0,0,0,51
太原直送,BWLS016,BWLS016,118,140105119997,（唐***萍唐久便利店,112.547466,37.8232,1.0,2.0,111.0,54.0,2.343213031811234,2.34182856974395,0.1520868238145551,太原直送,0.1520868238145551,山西省,太原市,小店区,平阳路街道,山西省太原市小店区平阳路街道亲贤北街7天连锁酒店(太原滨河东路亲贤街店),112.5411685645968,37.82266420410713,175_79,112.5412284380026,37.82155201130741,1.0,1993058160.0,112.5412448,37.8226271,140105119997.0,0,0,51
太原直送,BWLS016,BWLS016,97,140105120019,太原***航烟酒店,112.551479,37.820248,1.0,2.0,111.0,61.33,2.3447504786439426,2.3409981268531577,0.1555863606522105,太原直送,0.1555863606522105,山西省,太原市,小店区,平阳路街道,山西省太原市小店区平阳路街道兴县老王骨汤羊杂恒实平阳景苑,112.5451918078436,37.81971998999299,176_79,112.54702136621977,37.82155201130741,1.0,7842223149.0,112.5462886,37.8195445,140105120019.0,0,0,51
太原直送,BWLS017,BWLS017,82,140105120072,（金***河金虎便利店,112.552992,37.826005,1.0,2.0,111.0,43.67,2.338809627828862,2.335905871151484,0.1501535562182896,太原直送,0.1501535562182896,山西省,太原市,小店区,营盘街道,山西省太原市小店区营盘街道北园街山西省水产科学研究所宿舍,112.54670767637012,37.82548077205416,176_80,112.54702136621977,37.82604861651383,1.0,2038405239.0,112.54671,37.8254045,140105120072.0,0,0,51
太原直送,BWLS016,BWLS016,101,140105120089,太原***小武商店,112.549733,37.821184,1.0,2.0,111.0,48.33,2.34441103141087,2.3416005100481967,0.1543983992177346,太原直送,0.1543983992177346,山西省,太原市,小店区,平阳路街道,山西省太原市小店区平阳路街道露茜LucyCake烘焙教室(恒实平阳景苑店)恒实平阳景苑,112.54344148305684,37.820652622231854,175_79,112.5412284380026,37.82155201130741,1.0,4200938547.0,112.5425363,37.8225714,140105120089.0,0,0,51
太原直送,BWLS016,BWLS016,122,140105120130,太原***德烟酒店,112.551459,37.821989,1.0,2.0,111.0,55.33,2.343103926867094,2.339800676081833,0.1538636203655646,太原直送,0.1538636203655646,山西省,太原市,小店区,平阳路街道,山西省太原市小店区平阳路街道创享家折扣超市(平阳景苑店)恒实平阳景苑,112.54517155819768,37.82146120127499,176_79,112.54702136621977,37.82155201130741,1.0,2150336001.0,112.5464434,37.821088,140105120130.0,0,0,51
太原直送,BWLS017,BWLS017,111,140105120136,（唐***辉吉唐久便利店,112.557976,37.819234,1.0,2.0,111.0,83.67,2.3436815926473447,2.3370463849502428,0.1577222912907329,太原直送,0.1577222912907329,山西省,太原市,小店区,平阳路街道,山西省太原市小店区平阳路街道寇庄西路百盛(太原长风街店),112.5517033211595,37.818717874470615,177_78,112.55281429443691,37.81705540610098,1.0,1893499355.0,112.5517368,37.8193837,140105120136.0,0,0,51
太原直送,BWLS017,BWLS017,93,140105120140,（金***瑞金虎便利店,112.554827,37.823091,1.0,2.0,111.0,31.33,2.3410009297922114,2.336615508490216,0.1533442110416962,太原直送,0.1533442110416962,山西省,太原市,小店区,平阳路街道,山西省太原市小店区平阳路街道亲贤北街92-18号水工大厦,112.5485471559342,37.822569801113794,176_79,112.54702136621977,37.82155201130741,1.0,7842223159.0,112.5484787,37.822641,140105120140.0,0,0,51
太原直送,CWLS019,CWLS019,109,140105120244,（金***珅金虎便利店,112.54595,37.817379,1.0,3.0,111.0,38.0,2.3492148515154967,2.346965096468196,0.1576717151076847,太原直送,0.1576717151076847,山西省,太原市,小店区,平阳路街道,山西省太原市小店区平阳路街道滨河东路40号秀石园,112.53964931145563,37.81683911957845,175_78,112.5412284380026,37.81705540610098,1.0,1876562790.0,112.539714,37.8168204,140105120244.0,0,0,51
太原直送,BWLS017,BWLS017,76,140105120281,太原***鲜便利店,112.558887,37.826111,1.0,2.0,111.0,36.0,2.3368632508403246,2.3315987310849624,0.1511703709726222,太原直送,0.1511703709726222,山西省,太原市,小店区,营盘街道,山西省太原市小店区营盘街道永康街太原七七影院酒店,112.55261537391723,37.8255974284854,177_80,112.55281429443691,37.82604861651383,1.0,1893499136.0,112.5516196,37.825484,140105120281.0,0,0,51
太原直送,BWLS016,BWLS016,91,140105120282,太原***货经销部,112.55265,37.826324,1.0,2.0,111.0,84.67,2.3386142900670897,2.3359299257565485,0.1497809954900809,太原直送,0.1497809954900809,山西省,太原市,小店区,平阳路街道,山西省太原市小店区平阳路街道平阳路米兰假日小区,112.5463648493967,37.825799161024335,176_80,112.54702136621977,37.82604861651383,1.0,2038405239.0,112.54671,37.8254045,140105120282.0,0,0,51
太原直送,BWLS017,BWLS017,73,140105120303,（唐***宇唐久便利店,112.56066,37.82539,1.0,2.0,111.0,73.0,2.3369959323203804,2.3308294087438064,0.1522542298197321,太原直送,0.1522542298197321,山西省,太原市,小店区,营盘街道,山西省太原市小店区营盘街道阳光国际商务中心A座,112.55439193546094,37.82487925487845,177_80,112.55281429443691,37.82604861651383,1.0,1897916384.0,112.555402,37.8255716,140105120303.0,0,0,51
太原直送,BWLS016,BWLS016,93,140105120403,太原***烟酒商行,112.552467,37.821742,1.0,2.0,111.0,86.33,2.343021818040328,2.33924878226024,0.1542688389695049,太原直送,0.1542688389695049,山西省,太原市,小店区,平阳路街道,山西省太原市小店区平阳路街道平阳路恒实平阳景苑,112.54618195638388,37.82121613745424,176_79,112.54702136621977,37.82155201130741,1.0,2150336001.0,112.5464434,37.821088,140105120403.0,0,0,51
太原直送,BWLS017,BWLS017,95,140105120406,太原***叁便利店,112.554819,37.822998,1.0,2.0,111.0,32.67,2.341091757556933,2.3366860094094832,0.1534342650811732,太原直送,0.1534342650811732,山西省,太原市,小店区,平阳路街道,山西省太原市小店区平阳路街道亲贤北街92-18号水工大厦,112.54853914902796,37.82247677279946,176_79,112.54702136621977,37.82155201130741,1.0,7842223159.0,112.5484787,37.822641,140105120406.0,0,0,51
太原直送,BWLS016,BWLS016,87,140105120498,太原***酒便利店,112.55062,37.828192,1.0,2.0,111.0,98.0,2.3374805980307083,2.336092318501348,0.1476059041163289,太原直送,0.1476059041163289,山西省,太原市,小店区,平阳路街道,山西省太原市小店区平阳路街道平阳路西二巷汾河小区,112.54432982867772,37.827663442729694,176_80,112.54702136621977,37.82604861651383,1.0,1984181886.0,112.5440772,37.8275746,140105120498.0,0,0,51
太原直送,BWLS017,BWLS017,74,140105120622,太原***昌隆商店,112.559101,37.826093,1.0,2.0,111.0,68.33,2.3368136011244025,2.3314577230910705,0.1512328382461936,太原直送,0.1512328382461936,山西省,太原市,小店区,营盘街道,山西省太原市小店区营盘街道永康街阳光地带,112.55282980442368,37.82557978650143,177_80,112.55281429443691,37.82604861651383,1.0,1893499136.0,112.5516196,37.825484,140105120622.0,0,0,51
太原直送,BWLS017,BWLS017,77,140105120633,（唐***宙唐久便利店,112.558985,37.826093,1.0,2.0,111.0,66.0,2.336849781931219,2.331540952206709,0.1512084831085872,太原直送,0.1512084831085872,山西省,太原市,小店区,营盘街道,山西省太原市小店区营盘街道永康街太原七七影院酒店,112.55271357248871,37.82557959122367,177_80,112.55281429443691,37.82604861651383,1.0,1893499136.0,112.5516196,37.825484,140105120633.0,0,0,51
太原直送,BWLS017,BWLS017,119,140105120656,太原***烟酒商店,112.553689,37.828185,1.0,2.0,111.0,33.67,2.336521033351936,2.3338894355288087,0.148128806719019,太原直送,0.148128806719019,山西省,太原市,小店区,营盘街道,山西省太原市小店区营盘街道平阳路东二巷春光里平阳商贸城,112.54740601571058,37.82766242311002,176_80,112.54702136621977,37.82604861651383,1.0,4200938555.0,112.546629,37.8276107,140105120656.0,0,0,51
太原直送,BWLS016,BWLS016,96,140105120793,太原***豪豪商店,112.551662,37.820609,1.0,2.0,111.0,72.67,2.3443502708872272,2.340615429450132,0.1552583772844478,太原直送,0.1552583772844478,山西省,太原市,小店区,平阳路街道,山西省太原市小店区平阳路街道太原景苑盛捷公寓恒实平阳景苑,112.54537519951566,37.82008140245311,176_79,112.54702136621977,37.82155201130741,1.0,7842223149.0,112.5462886,37.8195445,140105120793.0,0,0,51
太原直送,BWLS016,BWLS016,100,140105120833,（金***贾金虎便利店,112.550049,37.820855,1.0,2.0,111.0,49.0,2.344623834143974,2.34160242002202,0.1547700593784181,太原直送,0.1547700593784181,山西省,太原市,小店区,平阳路街道,山西省太原市小店区平阳路街道露茜LucyCake烘焙教室(恒实平阳景苑店)恒实平阳景苑,112.54375829487682,37.82032421691152,175_79,112.5412284380026,37.82155201130741,1.0,4200938547.0,112.5425363,37.8225714,140105120833.0,0,0,51
太原直送,BWLS016,BWLS016,102,140105120881,太原***久缘商店,112.550872,37.821282,1.0,2.0,111.0,65.67,2.3439596186491807,2.3407142198570523,0.1544711952501193,太原直送,0.1544711952501193,山西省,太原市,小店区,平阳路街道,山西省太原市小店区平阳路街道红河谷(平阳路店)恒实平阳景苑,112.54458323824365,37.82075293364191,176_79,112.54702136621977,37.82155201130741,1.0,2150336001.0,112.5464434,37.821088,140105120881.0,0,0,51
太原直送,BWLS016,BWLS016,116,140105121071,太原***烟酒商行,112.549048,37.82323,1.0,2.0,111.0,63.67,2.342685140065132,2.34067008872096,0.1522750419274241,太原直送,0.1522750419274241,山西省,太原市,小店区,平阳路街道,山西省太原市小店区平阳路街道亲贤北街金地广场小区,112.54275455252036,37.822697514508135,175_79,112.5412284380026,37.82155201130741,1.0,4200938550.0,112.54256,37.8226434,140105121071.0,0,0,51
太原直送,BWLS017,BWLS017,117,140105121086,太原***源便利店,112.553002,37.825748,1.0,2.0,111.0,47.0,2.339050469709877,2.3360773812519526,0.1504084795016579,太原直送,0.1504084795016579,山西省,太原市,小店区,营盘街道,山西省太原市小店区营盘街道平阳路山西省水产科学研究所宿舍,112.54671772921954,37.82522375333471,176_80,112.54702136621977,37.82604861651383,1.0,2038405239.0,112.54671,37.8254045,140105121086.0,0,0,51
太原直送,BWLS017,BWLS017,100,140105121290,（唐***嫣唐久便利店,112.55852,37.823222,1.0,2.0,111.0,67.0,2.339722627032954,2.3338750437761195,0.1539218807382473,太原直送,0.1539218807382473,山西省,太原市,小店区,平阳路街道,山西省太原市小店区平阳路街道亲贤北街王府井百货(太原店),112.55224796865552,37.822707382194544,177_79,112.55281429443691,37.82155201130741,1.0,1893499429.0,112.5517341,37.8226993,140105121290.0,0,0,51
太原直送,BWLS016,BWLS016,79,140105121308,太原***帅帅商店,112.552667,37.828302,1.0,2.0,111.0,44.0,2.3367313266126666,2.334543131515456,0.1478348428382135,太原直送,0.1478348428382135,山西省,太原市,小店区,平阳路街道,山西省太原市小店区平阳路街道平阳路御龙庭西区,112.54638165912324,37.82777748753272,176_80,112.54702136621977,37.82604861651383,1.0,1984182019.0,112.546363,37.8276064,140105121308.0,0,0,51
太原直送,BWLS017,BWLS017,86,140105121530,太原***乐便利店,112.557979,37.824684,1.0,2.0,111.0,52.33,2.338502336352265,2.333244226783384,0.1523807063804351,太原直送,0.1523807063804351,山西省,太原市,小店区,营盘街道,山西省太原市小店区营盘街道寇庄西路阳光地带,112.55170569547164,37.82416866792121,177_80,112.55281429443691,37.82604861651383,1.0,1893499136.0,112.5516196,37.825484,140105121530.0,0,0,51
太原直送,BWLS016,BWLS016,90,140105121553,太原***和便利店,112.55266,37.826786,1.0,2.0,111.0,98.67,2.3381725776704334,2.3356016021267383,0.149327383081604,太原直送,0.149327383081604,山西省,太原市,小店区,平阳路街道,山西省太原市小店区平阳路街道平阳路锦江之星品尚(太原平阳路店),112.54637481893148,37.82626124867961,176_80,112.54702136621977,37.82604861651383,1.0,2038405239.0,112.54671,37.8254045,140105121553.0,0,0,51
太原直送,BWLS016,BWLS016,107,140105121624,（金***宇金虎便利店,112.547875,37.818598,1.0,2.0,111.0,56.67,2.347450710698093,2.344734286976239,0.1567025454451817,太原直送,0.1567025454451817,山西省,太原市,小店区,平阳路街道,山西省太原市小店区平阳路街道新声语艺华德,112.54157914226172,37.81806240509308,175_78,112.5412284380026,37.81705540610098,1.0,1993057823.0,112.5413052,37.8180415,140105121624.0,0,0,51
太原直送,BWLS017,BWLS017,108,140105121775,太原***鲜便利店,112.557987,37.819704,1.0,2.0,111.0,22.67,2.3432315468406,2.3367105408693645,0.1572634438036979,太原直送,0.1572634438036979,山西省,太原市,小店区,平阳路街道,山西省太原市小店区平阳路街道寇庄西路馨海银座,112.5517142892657,37.81918796058144,177_78,112.55281429443691,37.81705540610098,1.0,1893499355.0,112.5517368,37.8193837,140105121775.0,0,0,51
太原直送,BWLS017,BWLS017,72,140105121908,（金***多金虎便利店,112.557968,37.825809,1.0,2.0,111.0,53.33,2.337437005585604,2.332468530130253,0.1512766921273723,太原直送,0.1512766921273723,山西省,太原市,小店区,营盘街道,山西省太原市小店区营盘街道寇庄西路阳光地带,112.55169454242896,37.82529381431651,177_80,112.55281429443691,37.82604861651383,1.0,1893499136.0,112.5516196,37.825484,140105121908.0,0,0,51
太原直送,BWLS017,BWLS017,107,140105121931,太原***平便利店,112.557788,37.819907,1.0,2.0,111.0,68.0,2.343100649567788,2.3367114679917123,0.157025584924876,太原直送,0.157025584924876,山西省,太原市,小店区,平阳路街道,山西省太原市小店区平阳路街道亲贤西街馨海银座,112.5515148561038,37.819390645474336,177_79,112.55281429443691,37.82155201130741,1.0,1893499355.0,112.5517368,37.8193837,140105121931.0,0,0,51
太原直送,BWLS016,BWLS016,127,140105122082,太原***宏烟酒店,112.550638,37.823749,1.0,2.0,111.0,44.33,2.34169154404268,2.3391663342284943,0.1519974561004229,太原直送,0.1519974561004229,山西省,太原市,小店区,平阳路街道,山西省太原市小店区平阳路街道上党烩面恒实城市广场紫金谷,112.544348388268,37.82321982335717,176_79,112.54702136621977,37.82155201130741,1.0,4200938550.0,112.54256,37.8226434,140105122082.0,0,0,51
太原直送,BWLS016,BWLS016,126,140105122102,（金***武金虎便利店,112.549279,37.821642,1.0,2.0,111.0,59.33,2.3441193469507926,2.341608128922089,0.1538797543440992,太原直送,0.1538797543440992,山西省,太原市,小店区,平阳路街道,山西省太原市小店区平阳路街道平阳路社区卫生服务中心(太原市小店区中医医院)恒实平阳景苑,112.54298631031897,37.82110975960468,175_79,112.5412284380026,37.82155201130741,1.0,4200938547.0,112.5425363,37.8225714,140105122102.0,0,0,51
太原直送,BWLS016,BWLS016,10,140105122449,（金***耀金虎便利店,112.549976,37.81794,1.0,2.0,111.0,63.0,2.3474138501274107,2.343683992523094,0.1576434410243557,太原直送,0.1576434410243557,山西省,太原市,小店区,平阳路街道,山西省太原市小店区平阳路街道长风街辅路华德中心广场,112.54368545517409,37.817408652699214,175_78,112.5412284380026,37.81705540610098,1.0,9641966981.0,112.5435799,37.8162343,140105122449.0,0,0,51
太原直送,BWLS016,BWLS016,11,140105122466,太原***烟酒商行,112.550638,37.823749,1.0,2.0,111.0,40.0,2.34169154404268,2.3391663342284943,0.1519974561004229,太原直送,0.1519974561004229,山西省,太原市,小店区,平阳路街道,山西省太原市小店区平阳路街道上党烩面恒实城市广场紫金谷,112.544348388268,37.82321982335717,176_79,112.54702136621977,37.82155201130741,1.0,4200938550.0,112.54256,37.8226434,140105122466.0,0,0,51
太原直送,BWLS017,BWLS017,25,140105122499,（金***云金虎便利店,112.55592,37.823125,1.0,2.0,111.0,64.0,2.3406265935208475,2.335807475388329,0.1535108278037751,太原直送,0.1535108278037751,山西省,太原市,小店区,平阳路街道,山西省太原市小店区平阳路街道亲贤北街198号水总小区,112.54964254004427,37.82260580353287,176_79,112.54702136621977,37.82155201130741,1.0,7842223156.0,112.5495887,37.8226628,140105122499.0,0,0,51
太原直送,BWLS016,BWLS016,5,140105122595,太原***品经销部,112.551798,37.81899,1.0,2.0,111.0,56.67,2.345844734674908,2.3416452809281294,0.1568787022957544,太原直送,0.1568787022957544,山西省,太原市,小店区,平阳路街道,山西省太原市小店区平阳路街道长风街421号恒实平阳景苑,112.54551170868574,37.81846243803478,176_78,112.54702136621977,37.81705540610098,1.0,7317556173.0,112.5460344,37.8182423,140105122595.0,0,0,51
太原直送,BWLS017,BWLS017,17,140105122633,太原***烟酒商行,112.561755,37.823424,1.0,2.0,111.0,68.67,2.3385241472648888,2.331415737059773,0.1544137260900047,太原直送,0.1544137260900047,山西省,太原市,小店区,营盘街道,山西省太原市小店区营盘街道长治路王府井百货(太原店),112.55548922933916,37.82291471461836,177_79,112.55281429443691,37.82155201130741,1.0,4086640943.0,112.5554965,37.822834,140105122633.0,0,0,51
太原直送,BWLS016,BWLS016,4,140105122649,太原***刻便利店,112.551479,37.820248,1.0,2.0,111.0,46.67,2.3447504786439426,2.3409981268531577,0.1555863606522105,太原直送,0.1555863606522105,山西省,太原市,小店区,平阳路街道,山西省太原市小店区平阳路街道兴县老王骨汤羊杂恒实平阳景苑,112.5451918078436,37.81971998999299,176_79,112.54702136621977,37.82155201130741,1.0,7842223149.0,112.5462886,37.8195445,140105122649.0,0,0,51
太原直送,BWLS017,BWLS017,13,140105122727,太原***烟酒商行,112.557897,37.826998,1.0,2.0,111.0,87.0,2.3363296816470456,2.331691640367996,0.1500980940618447,太原直送,0.1500980940618447,山西省,太原市,小店区,营盘街道,山西省太原市小店区营盘街道寇庄西路君泰风尚,112.55162325855456,37.82648286742437,177_80,112.55281429443691,37.82604861651383,1.0,1893499136.0,112.5516196,37.825484,140105122727.0,0,0,51
太原直送,BWLS016,BWLS016,45,140105123040,太原***寻悦商店,112.55006,37.822847,1.0,2.0,111.0,16.0,2.3427296666079465,2.3402089227152296,0.152801627952711,太原直送,0.152801627952711,山西省,太原市,小店区,平阳路街道,山西省太原市小店区平阳路街道平阳路196号恒实平阳景苑,112.54376909031872,37.822316527184526,175_79,112.5412284380026,37.82155201130741,1.0,4200938550.0,112.54256,37.8226434,140105123040.0,0,0,51
太原直送,BWLS017,BWLS017,26,140105123168,（唐***鸿唐久便利店,112.557995,37.822451,1.0,2.0,111.0,67.33,2.3406188843551576,2.334788923384076,0.1545717919544169,太原直送,0.1545717919544169,山西省,太原市,小店区,平阳路街道,山西省太原市小店区平阳路街道寇庄西路中正亲贤们,112.5517219872291,37.82193536995239,177_79,112.55281429443691,37.82155201130741,1.0,1893499429.0,112.5517341,37.8226993,140105123168.0,0,0,51
太原直送,BWLS017,BWLS017,40,140105123209,（唐***二卫唐久便利店,112.555218,37.819723,1.0,2.0,111.0,76.67,2.344077525457933,2.338681650066976,0.156727834238205,太原直送,0.156727834238205,山西省,太原市,小店区,平阳路街道,山西省太原市小店区平阳路街道金郡小区d座,112.54893940773586,37.81920203514428,176_78,112.54702136621977,37.81705540610098,1.0,7842223146.0,112.5484948,37.8193836,140105123209.0,0,0,51
太原直送,BWLS016,BWLS016,23,140105123300,太原***聚便利店,112.549838,37.828176,1.0,2.0,111.0,35.33,2.337742556178932,2.3366662831831624,0.147500153606698,太原直送,0.147500153606698,山西省,太原市,小店区,平阳路街道,山西省太原市小店区平阳路街道平阳路西二巷煤气用具宿舍,112.54354592823589,37.8276458610222,175_80,112.5412284380026,37.82604861651383,1.0,1984181886.0,112.5440772,37.8275746,140105123300.0,0,0,51
太原直送,BWLS017,BWLS017,32,140105123323,太原***韵烟酒店,112.553009,37.820078,1.0,2.0,111.0,64.0,2.3444318235856167,2.340018535646668,0.1559992015396199,太原直送,0.1559992015396199,山西省,太原市,小店区,平阳路街道,山西省太原市小店区平阳路街道亲贤西街春天时代广场营销中心,112.54672540350428,37.81955294272002,176_79,112.54702136621977,37.82155201130741,1.0,7842223149.0,112.5462886,37.8195445,140105123323.0,0,0,51
太原直送,BWLS017,BWLS017,37,140105123335,太原***客烟酒店,112.557995,37.822451,1.0,2.0,111.0,61.0,2.3406188843551576,2.334788923384076,0.1545717919544169,太原直送,0.1545717919544169,山西省,太原市,小店区,平阳路街道,山西省太原市小店区平阳路街道寇庄西路中正亲贤们,112.5517219872291,37.82193536995239,177_79,112.55281429443691,37.82155201130741,1.0,1893499429.0,112.5517341,37.8226993,140105123335.0,0,0,51
太原直送,BWLS017,BWLS017,39,140105123374,太原***檬便利店,112.558023,37.822281,1.0,2.0,111.0,50.67,2.3407716765246462,2.334887368235347,0.1547439664219606,太原直送,0.1547439664219606,山西省,太原市,小店区,平阳路街道,山西省太原市小店区平阳路街道寇庄西路中正亲贤们,112.5517500644032,37.82176539360177,177_79,112.55281429443691,37.82155201130741,1.0,1893499429.0,112.5517341,37.8226993,140105123374.0,0,0,51
太原直送,CWLS014,CWLS014,20,140105123495,太原***源汇茶行,112.556196,37.817191,1.0,3.0,111.0,46.67,2.346177594158846,2.339747016520373,0.1593943942332952,太原直送,0.1593943942332952,山西省,太原市,小店区,平阳路街道,山西省太原市小店区平阳路街道长风街辅路人口大厦(长风街),112.54991982186434,37.81667145012276,177_78,112.55281429443691,37.81705540610098,1.0,12441672105.0,112.5499041,37.8168902,140105123495.0,0,0,51
太原直送,BWLS016,BWLS016,25,140105123554,太原***旦小卖铺,112.549838,37.828176,1.0,2.0,111.0,50.67,2.337742556178932,2.3366662831831624,0.147500153606698,太原直送,0.147500153606698,山西省,太原市,小店区,平阳路街道,山西省太原市小店区平阳路街道平阳路西二巷煤气用具宿舍,112.54354592823589,37.8276458610222,175_80,112.5412284380026,37.82604861651383,1.0,1984181886.0,112.5440772,37.8275746,140105123554.0,0,0,51
太原直送,BWLS017,BWLS017,41,140105123559,（金***浩天金虎便利店,112.553861,37.824379,1.0,2.0,111.0,49.0,2.340080585621785,2.336412509551556,0.1519053939792767,太原直送,0.1519053939792767,山西省,太原市,小店区,营盘街道,山西省太原市小店区营盘街道平阳路76-6顶好时尚商城(平阳路),112.5475788468246,37.82385618561564,176_80,112.54702136621977,37.82604861651383,1.0,2150336012.0,112.5464101,37.8237003,140105123559.0,0,0,51
太原直送,BWLS016,BWLS016,40,140105123641,（早***早早便利店,112.548805,37.823049,1.0,2.0,111.0,52.33,2.342933548527573,2.340970600153918,0.1524197014168455,太原直送,0.1524197014168455,山西省,太原市,小店区,平阳路街道,山西省太原市小店区平阳路街道南内环街南四巷长风公寓B座,112.54251096785327,37.82251598608093,175_79,112.5412284380026,37.82155201130741,1.0,4200938547.0,112.5425363,37.8225714,140105123641.0,0,0,51
太原直送,BWLS016,BWLS016,29,140105123653,太原***兴烟酒店,112.550285,37.820194,1.0,2.0,111.0,50.67,2.3451770187772585,2.3418929255049177,0.1554586345784607,太原直送,0.1554586345784607,山西省,太原市,小店区,平阳路街道,山西省太原市小店区平阳路街道长风街149号恒实平阳景苑,112.54399494637956,37.81966359914392,175_79,112.5412284380026,37.82155201130741,1.0,7842223149.0,112.5462886,37.8195445,140105123653.0,0,0,51
太原直送,BWLS016,BWLS016,33,140105123670,太原***庄烟酒行,112.547875,37.818598,1.0,2.0,111.0,45.0,2.347450710698093,2.344734286976239,0.1567025454451817,太原直送,0.1567025454451817,山西省,太原市,小店区,平阳路街道,山西省太原市小店区平阳路街道新声语艺华德,112.54157914226172,37.81806240509308,175_78,112.5412284380026,37.81705540610098,1.0,1993057823.0,112.5413052,37.8180415,140105123670.0,0,0,51
太原直送,BWLS016,BWLS016,27,140105123766,太原***佩东酒行,112.552236,37.820387,1.0,2.0,111.0,89.33,2.344380853951213,2.3403580051137527,0.1555686291801795,太原直送,0.1555686291801795,山西省,太原市,小店区,平阳路街道,山西省太原市小店区平阳路街道平阳路5号楼恒实平阳景苑,112.54595057496172,37.819860493764935,176_79,112.54702136621977,37.82155201130741,1.0,7842223149.0,112.5462886,37.8195445,140105123766.0,0,0,51
太原直送,BWLS016,BWLS016,26,140105123806,太原***烟酒商行,112.551583,37.823132,1.0,2.0,111.0,28.33,2.3419798904698137,2.3389163806929933,0.1527545803601283,太原直送,0.1527545803601283,山西省,太原市,小店区,平阳路街道,山西省太原市小店区平阳路街道亲贤北街恒实平阳景苑,112.54529571956432,37.82260461170243,176_79,112.54702136621977,37.82155201130741,1.0,2150336000.0,112.5463055,37.8224584,140105123806.0,0,0,51
太原直送,BWLS017,BWLS017,42,140105123881,太原***大鑫商行,112.557976,37.819531,1.0,2.0,111.0,58.67,2.3433993662227124,2.3368391337950527,0.157430976091111,太原直送,0.157430976091111,山西省,太原市,小店区,平阳路街道,山西省太原市小店区平阳路街道寇庄西路馨海银座,112.55170328673044,37.81901491687116,177_78,112.55281429443691,37.81705540610098,1.0,1893499355.0,112.5517368,37.8193837,140105123881.0,0,0,51
太原直送,BWLS016,BWLS016,35,140105123909,（金***君越金虎便利店,112.547879,37.819452,1.0,2.0,111.0,42.33,2.3466390113328064,2.3441372539239285,0.1558565124625847,太原直送,0.1558565124625847,山西省,太原市,小店区,平阳路街道,山西省太原市小店区平阳路街道南环四巷万厦苑小区,112.54158305316766,37.81891653521142,175_78,112.5412284380026,37.81705540610098,1.0,7317556172.0,112.5413884,37.8183028,140105123909.0,0,0,51
太原直送,BWLS016,BWLS016,47,140105123914,太原***云便利店,112.550463,37.823772,1.0,2.0,111.0,23.33,2.3417248181297934,2.3392761251707803,0.1519479454977913,太原直送,0.1519479454977913,山西省,太原市,小店区,平阳路街道,山西省太原市小店区平阳路街道上党烩面恒实城市广场紫金谷,112.5441729625378,37.82324247531825,176_79,112.54702136621977,37.82155201130741,1.0,4200938550.0,112.54256,37.8226434,140105123914.0,0,0,51
太原直送,CWLS014,CWLS014,18,140105123915,太原***金辉超市,112.554117,37.815763,1.0,3.0,111.0,14.0,2.3481832557660405,2.342232617388159,0.1604382727905058,太原直送,0.1604382727905058,山西省,太原市,小店区,平阳路街道,山西省太原市小店区平阳路街道文化街文化街景森汽车充电站,112.54783642335632,37.81523943266607,176_78,112.54702136621977,37.81705540610098,1.0,1906863725.0,112.5476905,37.8140214,140105123915.0,0,0,51
太原直送,BWLS017,BWLS017,44,140105123935,太原***佳便利店,112.553751,37.82536,1.0,2.0,111.0,57.0,2.339183641163081,2.335809028014483,0.1509202890700876,太原直送,0.1509202890700876,山西省,太原市,小店区,营盘街道,山西省太原市小店区营盘街道MUSE(顶好时尚店)顶好时尚商城(平阳路),112.54746848414212,37.82483712196018,176_80,112.54702136621977,37.82604861651383,1.0,2038405239.0,112.54671,37.8254045,140105123935.0,0,0,51
太原直送,BWLS016,BWLS016,104,140105209331,山西***有限公司,112.54862,37.818996,1.0,2.0,111.0,65.0,2.346838216011066,2.3439222946627303,0.1564078442342325,太原直送,0.1564078442342325,山西省,太原市,小店区,平阳路街道,山西省太原市小店区平阳路街道长风街141号恒实平阳景苑,112.54232597590892,37.81846201891752,175_78,112.5412284380026,37.81705540610098,1.0,7317556172.0,112.5413884,37.8183028,140105209331.0,0,0,51
太原直送,BWLS017,BWLS017,83,140105210241,太原***有限公司,112.556175,37.826065,1.0,2.0,111.0,56.0,2.337754411269927,2.333577447308104,0.1506720704311165,太原直送,0.1506720704311165,山西省,太原市,小店区,营盘街道,山西省太原市小店区营盘街道北园街山西省人口宣传教育中心,112.549897747601,37.82554669374184,176_80,112.54702136621977,37.82604861651383,1.0,1893499136.0,112.5516196,37.825484,140105210241.0,0,0,51
太原直送,BWLS017,BWLS017,84,140105210694,山西***有限公司,112.552986,37.826004,1.0,2.0,111.0,64.0,2.3388124625446136,2.335910878819864,0.1501535146774809,太原直送,0.1501535146774809,山西省,太原市,小店区,营盘街道,山西省太原市小店区营盘街道北园街山西省水产科学研究所宿舍,112.5467016626763,37.82547976039806,176_80,112.54702136621977,37.82604861651383,1.0,2038405239.0,112.54671,37.8254045,140105210694.0,0,0,51
太原直送,BWLS016,BWLS016,110,140105215390,山西***有限公司,112.547602,37.818488,1.0,2.0,111.0,22.67,2.3476411756420505,2.345006901115004,0.1567759946739256,太原直送,0.1567759946739256,山西省,太原市,小店区,平阳路街道,山西省太原市小店区平阳路街道南内环街南四巷长风小区,112.54130545989771,37.81795181397969,175_78,112.5412284380026,37.81705540610098,1.0,1993057823.0,112.5413052,37.8180415,140105215390.0,0,0,51
太原直送,BWLS017,BWLS017,113,140105216329,太原***信分公司,112.558053,37.818065,1.0,2.0,111.0,77.0,2.344768509979612,2.337807188053155,0.1588840095289656,太原直送,0.1588840095289656,山西省,太原市,小店区,平阳路街道,山西省太原市小店区平阳路街道寇庄西路君威财富中心,112.55178061466673,37.817548840987854,177_78,112.55281429443691,37.81705540610098,1.0,4202768317.0,112.551741,37.8170704,140105216329.0,0,0,51
太原直送,BWLS017,BWLS017,94,140105218720,山西***有限公司,112.554819,37.822998,1.0,2.0,111.0,41.33,2.341091757556933,2.3366860094094832,0.1534342650811732,太原直送,0.1534342650811732,山西省,太原市,小店区,平阳路街道,山西省太原市小店区平阳路街道亲贤北街92-18号水工大厦,112.54853914902796,37.82247677279946,176_79,112.54702136621977,37.82155201130741,1.0,7842223159.0,112.5484787,37.822641,140105218720.0,0,0,51
太原直送,BWLS017,BWLS017,90,140105218836,山西***有限公司,112.560645,37.825466,1.0,2.0,111.0,58.0,2.33692837403824,2.3307871875402992,0.1521767900601123,太原直送,0.1521767900601123,山西省,太原市,小店区,营盘街道,山西省太原市小店区营盘街道阳光健身俱乐部(阳光国际商务中心店)阳光国际商务中心,112.55437689791454,37.824955241782135,177_80,112.55281429443691,37.82604861651383,1.0,1897916384.0,112.555402,37.8255716,140105218836.0,0,0,51
太原直送,BWLS016,BWLS016,119,140105218857,太原***有限公司,112.54818,37.823084,1.0,2.0,111.0,87.33,2.343097576642079,2.341395670369488,0.1522980782872822,太原直送,0.1522980782872822,山西省,太原市,小店区,平阳路街道,山西省太原市小店区平阳路街道亲贤北街长风公寓B座,112.54188439354836,37.822549690205335,175_79,112.5412284380026,37.82155201130741,1.0,1993057949.0,112.5412474,37.8225634,140105218857.0,0,0,51
太原直送,BWLS016,BWLS016,106,140105219058,山西***有限公司,112.547865,37.818421,1.0,2.0,111.0,87.33,2.3476218381843337,2.3448646342117456,0.1568767021198474,太原直送,0.1568767021198474,山西省,太原市,小店区,平阳路街道,山西省太原市小店区平阳路街道华德,112.54156913742864,37.81788535890157,175_78,112.5412284380026,37.81705540610098,1.0,1993057823.0,112.5413052,37.8180415,140105219058.0,0,0,51
太原直送,BWLS016,BWLS016,84,140105219269,太原***有限公司,112.550763,37.828195,1.0,2.0,111.0,56.67,2.3374326499456592,2.335987322339952,0.1476256089030607,太原直送,0.1476256089030607,山西省,太原市,小店区,平阳路街道,山西省太原市小店区平阳路街道平阳路西二巷汾河小区,112.5444731731042,37.82766672958479,176_80,112.54702136621977,37.82604861651383,1.0,1984181886.0,112.5440772,37.8275746,140105219269.0,0,0,51
太原直送,BWLS016,BWLS016,125,140105219386,太原***有限公司,112.549937,37.822115,1.0,2.0,111.0,68.67,2.3434631551488088,2.340806363671503,0.1535073038001793,太原直送,0.1535073038001793,山西省,太原市,小店区,平阳路街道,山西省太原市小店区平阳路街道山西银行股份有限公司太原平阳景苑小微支行山银驿站恒实平阳景苑,112.54364587484714,37.82158417158877,175_79,112.5412284380026,37.82155201130741,1.0,4200938547.0,112.5425363,37.8225714,140105219386.0,0,0,51
太原直送,BWLS016,BWLS016,109,140105219535,山西***有限公司,112.548802,37.818065,1.0,2.0,111.0,24.67,2.3476645292939566,2.3444396137798087,0.1573549743891186,太原直送,0.1573549743891186,山西省,太原市,小店区,平阳路街道,山西省太原市小店区平阳路街道平阳路279号华德,112.54250853950174,37.817531264018726,175_78,112.5412284380026,37.81705540610098,1.0,4202768299.0,112.5418155,37.8170667,140105219535.0,0,0,51
太原直送,CWLS014,CWLS014,70,140105220475,太原***有限公司,112.55261,37.815338,1.0,3.0,111.0,48.33,2.3490582584350705,2.343608770498395,0.1606128777962729,太原直送,0.1606128777962729,山西省,太原市,小店区,平阳路街道,山西省太原市小店区平阳路街道平阳路锦江之星风尚(太原长风街地铁站国际会展中心店),112.54632603191966,37.81481150385504,176_78,112.54702136621977,37.81705540610098,1.0,1906863746.0,112.54622,37.8148583,140105220475.0,0,0,51
太原直送,BWLS017,BWLS017,29,140105222526,太原***有限公司,112.557788,37.819907,1.0,2.0,111.0,79.0,2.343100649567788,2.3367114679917123,0.157025584924876,太原直送,0.157025584924876,山西省,太原市,小店区,平阳路街道,山西省太原市小店区平阳路街道亲贤西街馨海银座,112.5515148561038,37.819390645474336,177_79,112.55281429443691,37.82155201130741,1.0,1893499355.0,112.5517368,37.8193837,140105222526.0,0,0,51
太原直送,CWLS014,CWLS014,17,140105222631,山西***有限公司,112.554952,37.815773,1.0,3.0,111.0,39.33,2.347912957420908,2.341627593421292,0.160570137886842,太原直送,0.160570137886842,山西省,太原市,小店区,平阳路街道,山西省太原市小店区平阳路街道文化街268号福鑫苑小区,112.54867328097323,37.81525098690402,176_78,112.54702136621977,37.81705540610098,1.0,1906863725.0,112.5476905,37.8140214,140105222631.0,0,0,51
太原直送,BWLS017,BWLS017,31,140105222839,太原***有限公司,112.553141,37.827893,1.0,2.0,111.0,20.0,2.336970482860232,2.3344864094187816,0.1483196602072646,太原直送,0.1483196602072646,山西省,太原市,小店区,营盘街道,山西省太原市小店区营盘街道平阳路56号平阳商贸城停车场,112.54685679956746,37.827369337258105,176_80,112.54702136621977,37.82604861651383,1.0,4200938555.0,112.546629,37.8276107,140105222839.0,0,0,51
太原直送,CWLS014,CWLS014,24,140105222912,太原***有限公司,112.553222,37.817376,1.0,3.0,111.0,69.0,2.346931107360839,2.34174886246091,0.1586995227781067,太原直送,0.1586995227781067,山西省,太原市,小店区,平阳路街道,山西省太原市小店区平阳路街道长风街辅路电力设计院宿舍,112.5469392059942,37.81685096580867,176_78,112.54702136621977,37.81705540610098,1.0,4202768307.0,112.5461876,37.8167966,140105222912.0,0,0,51
太原直送,BWLS016,BWLS016,42,140105222926,太原***有限公司,112.549021,37.82337,1.0,2.0,111.0,71.0,2.342560801982526,2.34059219500408,0.1521326208050076,太原直送,0.1521326208050076,山西省,太原市,小店区,平阳路街道,山西省太原市小店区平阳路街道南环四巷金地广场小区,112.54272746908462,37.82283747921068,175_79,112.5412284380026,37.82155201130741,1.0,4200938550.0,112.54256,37.8226434,140105222926.0,0,0,51
太原直送,BWLS016,BWLS016,43,140105222935,太原***有限公司,112.55148,37.821991,1.0,2.0,111.0,60.67,2.343095427891278,2.3397842024708195,0.1538649449127393,太原直送,0.1538649449127393,山西省,太原市,小店区,平阳路街道,山西省太原市小店区平阳路街道创享家折扣超市(平阳景苑店)恒实平阳景苑,112.545192607823,37.82146324302757,176_79,112.54702136621977,37.82155201130741,1.0,2150336001.0,112.5464434,37.821088,140105222935.0,0,0,51
太原直送,BWLS017,BWLS017,19,140105223058,山西***有限公司,112.554844,37.823031,1.0,2.0,111.0,32.33,2.341052588761942,2.336645087354942,0.1534062884793175,太原直送,0.1534062884793175,山西省,太原市,小店区,平阳路街道,山西省太原市小店区平阳路街道亲贤北街92-18号水工大厦,112.54856420049126,37.8225098238065,176_79,112.54702136621977,37.82155201130741,1.0,7842223159.0,112.5484787,37.822641,140105223058.0,0,0,51
太原直送,BWLS016,BWLS016,14,140105223059,山西***责任公司,112.550776,37.818468,1.0,2.0,111.0,25.67,2.346661204743877,2.34274218290468,0.1572384396831721,太原直送,0.1572384396831721,山西省,太原市,小店区,平阳路街道,山西省太原市小店区平阳路街道平阳路277号梧桐大厦,112.54448733420467,37.81793833905847,176_78,112.54702136621977,37.81705540610098,1.0,7317556173.0,112.5460344,37.8182423,140105223059.0,0,0,51
太原直送,BWLS016,BWLS016,34,140105223217,山西***有限公司,112.550077,37.817778,1.0,2.0,111.0,88.0,2.3475358915818534,2.343724339866358,0.157818306545852,太原直送,0.157818306545852,山西省,太原市,小店区,平阳路街道,山西省太原市小店区平阳路街道长风街辅路华德中心广场,112.5437867206034,37.81724683447073,175_78,112.5412284380026,37.81705540610098,1.0,9641966981.0,112.5435799,37.8162343,140105223217.0,0,0,51
太原直送,CWLS014,CWLS014,12,140105223322,太原***有限公司,112.555324,37.815782,1.0,3.0,111.0,68.67,2.3477883047059427,2.341354922844676,0.1606257727825763,太原直送,0.1606257727825763,山西省,太原市,小店区,平阳路街道,山西省太原市小店区平阳路街道文化街福鑫苑小区,112.5490460969688,37.81526067137947,176_78,112.54702136621977,37.81705540610098,1.0,1906863725.0,112.5476905,37.8140214,140105223322.0,0,0,51
太原直送,BWLS016,BWLS016,36,140105223671,山西***责任公司,112.549187,37.819003,1.0,2.0,111.0,47.0,2.346653020154445,2.343510272364296,0.1564792345201081,太原直送,0.1564792345201081,山西省,太原市,小店区,平阳路街道,山西省太原市小店区平阳路街道山西太原闪亮柚近防控中心八一小学,112.54289438891416,37.81847019192182,175_78,112.5412284380026,37.81705540610098,1.0,7317556172.0,112.5413884,37.8183028,140105223671.0,0,0,51
太原直送,BWLS016,BWLS016,30,140105223891,山西***街分公司,112.550776,37.818468,1.0,2.0,111.0,34.67,2.346661204743877,2.34274218290468,0.1572384396831721,太原直送,0.1572384396831721,山西省,太原市,小店区,平阳路街道,山西省太原市小店区平阳路街道平阳路277号梧桐大厦,112.54448733420467,37.81793833905847,176_78,112.54702136621977,37.81705540610098,1.0,7317556173.0,112.5460344,37.8182423,140105223891.0,0,0,51
太原直送,BWLS016,BWLS016,32,140105224045,山西***有限公司,112.551517,37.820239,1.0,2.0,111.0,56.0,2.344747088656682,2.340977116352267,0.1556011625663492,太原直送,0.1556011625663492,山西省,太原市,小店区,平阳路街道,山西省太原市小店区平阳路街道兴县老王骨汤羊杂恒实平阳景苑,112.54522989905377,37.81971106369141,176_79,112.54702136621977,37.82155201130741,1.0,7842223149.0,112.5462886,37.8195445,140105224045.0,0,0,51
太原直送,BWLS016,BWLS016,52,140105224046,太原***有限公司,112.547496,37.823095,1.0,2.0,111.0,4.33,2.343303172678472,2.341879940168582,0.1521948761062562,太原直送,0.1521948761062562,山西省,太原市,小店区,平阳路街道,山西省太原市小店区平阳路街道亲贤北街长风公寓A座,112.54119865354514,37.82255925233576,175_79,112.5412284380026,37.82155201130741,1.0,1993057949.0,112.5412474,37.8225634,140105224046.0,0,0,51
太原直送,BWLS017,BWLS017,52,140105124054,太原***恒烟酒店,112.552982,37.82732,1.0,2.0,111.0,61.67,2.337564415833282,2.3349989461935508,0.1488564034564837,太原直送,0.1488564034564837,山西省,太原市,小店区,营盘街道,山西省太原市小店区营盘街道平阳路春光里平阳商贸城,112.54669750068024,37.82679594751671,176_80,112.54702136621977,37.82604861651383,1.0,4200938555.0,112.546629,37.8276107,140105124054.0,0,0,51
太原直送,CWLS014,CWLS014,23,140105124075,太原***烟酒商行,112.554156,37.815763,1.0,3.0,111.0,36.67,2.348171068811853,2.3422046815502657,0.1604447978870016,太原直送,0.1604447978870016,山西省,太原市,小店区,平阳路街道,山西省太原市小店区平阳路街道文化街文化街景森汽车充电站,112.54787551093494,37.8152395057849,176_78,112.54702136621977,37.81705540610098,1.0,1906863725.0,112.5476905,37.8140214,140105124075.0,0,0,51
太原直送,BWLS016,BWLS016,46,140105124084,太原***业副食店,112.549804,37.823044,1.0,2.0,111.0,48.33,2.34262334020004,2.3402559355405983,0.1525688478097621,太原直送,0.1525688478097621,山西省,太原市,小店区,平阳路街道,山西省太原市小店区平阳路街道亲贤北街恒实平阳景苑,112.54351244118828,37.822513036061046,175_79,112.5412284380026,37.82155201130741,1.0,4200938550.0,112.54256,37.8226434,140105124084.0,0,0,51
太原直送,BWLS017,BWLS017,49,140105224098,（寸***商贸有限公司,112.557653,37.819956,1.0,2.0,111.0,36.67,2.343096160208753,2.336774004154016,0.1569513484140876,太原直送,0.1569513484140876,山西省,太原市,小店区,平阳路街道,山西省太原市小店区平阳路街道亲贤西街欣中苑小区,112.55137957138696,37.81943941812925,177_79,112.55281429443691,37.82155201130741,1.0,1893499355.0,112.5517368,37.8193837,140105224098.0,0,0,51
太原直送,BWLS016,BWLS016,57,140105124113,太原***藓便利店,112.54693,37.818669,1.0,2.0,111.0,94.33,2.3476814223486526,2.3453636941719687,0.1565107882703287,太原直送,0.1565107882703287,山西省,太原市,小店区,平阳路街道,山西省太原市小店区平阳路街道长风小区(东南门),112.54063171350136,37.81813141214501,175_78,112.5412284380026,37.81705540610098,1.0,1993057823.0,112.5413052,37.8180415,140105124113.0,0,0,51
太原直送,BWLS016,BWLS016,58,140105124167,（金***金虎便利店,112.552805,37.825799,1.0,2.0,111.0,46.33,2.339063956653595,2.336183503341499,0.1503246715612538,太原直送,0.1503246715612538,山西省,太原市,小店区,平阳路街道,山西省太原市小店区平阳路街道平阳路米兰假日小区,112.54652026906152,37.82527438235736,176_80,112.54702136621977,37.82604861651383,1.0,2038405239.0,112.54671,37.8254045,140105124167.0,0,0,51
太原直送,BWLS016,BWLS016,59,140105124236,太原***产品商行,112.549815,37.822122,1.0,2.0,111.0,46.33,2.3434949328652284,2.3408891575523194,0.1534824306720454,太原直送,0.1534824306720454,山西省,太原市,小店区,平阳路街道,山西省太原市小店区平阳路街道杜夫朗格生日蛋糕纯动物奶油冰激凌木糖醇(恒实平阳景苑店)恒实平阳景苑,112.54352357527586,37.821590924658025,175_79,112.5412284380026,37.82155201130741,1.0,4200938547.0,112.5425363,37.8225714,140105124236.0,0,0,51
太原直送,CWLS014,CWLS014,32,140105124247,太原***便利商店,112.556374,37.817299,1.0,3.0,111.0,33.33,2.346019471088208,2.3395441620640507,0.1593205802682136,太原直送,0.1593205802682136,山西省,太原市,小店区,平阳路街道,山西省太原市小店区平阳路街道长风街辅路人口大厦(长风街),112.5500981901352,37.816779784394434,177_78,112.55281429443691,37.81705540610098,1.0,1876713703.0,112.5502613,37.8168086,140105124247.0,0,0,51
太原直送,BWLS017,BWLS017,45,140105124254,太原***九领商行,112.552765,37.821222,1.0,2.0,111.0,58.67,2.343422041985824,2.3393968939763123,0.154830638521578,太原直送,0.154830638521578,山西省,太原市,小店区,平阳路街道,山西省太原市小店区平阳路街道平阳路春天时代广场营销中心,112.54648070795191,37.8206966381613,176_79,112.54702136621977,37.82155201130741,1.0,2150336001.0,112.5464434,37.821088,140105124254.0,0,0,51
太原直送,BWLS017,BWLS017,51,140105124255,太原***烟酒商行,112.552147,37.81986,1.0,2.0,111.0,35.67,2.344909164075444,2.340788886288121,0.1560746366486247,太原直送,0.1560746366486247,山西省,太原市,小店区,平阳路街道,山西省太原市小店区平阳路街道恒实平阳景苑(东1门),112.54586142790222,37.81933324488454,176_79,112.54702136621977,37.82155201130741,1.0,7842223149.0,112.5462886,37.8195445,140105124255.0,0,0,51
太原直送,BWLS016,BWLS016,53,140105124272,太原***佳萌商行,112.548564,37.822038,1.0,2.0,111.0,33.33,2.343968953238502,2.3418466310040453,0.1533870413887683,太原直送,0.1533870413887683,山西省,太原市,小店区,平阳路街道,山西省太原市小店区平阳路街道南环四巷世方嘉园,112.54226948197125,37.82150433938703,175_79,112.5412284380026,37.82155201130741,1.0,4200938547.0,112.5425363,37.8225714,140105124272.0,0,0,51
太原直送,BWLS016,BWLS016,39,140105124291,（金***茜金虎便利店,112.550505,37.828192,1.0,2.0,111.0,36.0,2.337516873920911,2.3361750839065945,0.1475877736975498,太原直送,0.1475877736975498,山西省,太原市,小店区,平阳路街道,山西省太原市小店区平阳路街道平阳路西二巷汾河小区,112.54421455071636,37.82766321186312,176_80,112.54702136621977,37.82604861651383,1.0,1984181886.0,112.5440772,37.8275746,140105124291.0,0,0,51
太原直送,BWLS017,BWLS017,46,140105224354,山西***有限公司,112.560224,37.823229,1.0,2.0,111.0,11.33,2.339185326908708,2.332648719710704,0.154269765531035,太原直送,0.154269765531035,山西省,太原市,小店区,平阳路街道,山西省太原市小店区平阳路街道亲贤北街供电长安小区,112.55395534575828,37.82271722924215,177_79,112.55281429443691,37.82155201130741,1.0,1107158661.0,112.555499,37.8227607,140105224354.0,0,0,51
太原直送,BWLS016,BWLS016,54,140105124392,太原***晖便利店,112.552698,37.8265,1.0,2.0,111.0,20.0,2.3384321237363235,2.3357730761897573,0.1496156819120208,太原直送,0.1496156819120208,山西省,太原市,小店区,平阳路街道,山西省太原市小店区平阳路街道平阳路米兰假日小区,112.54641294016984,37.82597527967773,176_80,112.54702136621977,37.82604861651383,1.0,2038405239.0,112.54671,37.8254045,140105124392.0,0,0,51
太原直送,BWLS016,BWLS016,56,140105124505,太原***达便利店,112.550449,37.820226,1.0,2.0,111.0,31.33,2.345095064753027,2.341752895642492,0.1554513313709474,太原直送,0.1554513313709474,山西省,太原市,小店区,平阳路街道,山西省太原市小店区平阳路街道N多寿司(恒实平阳景苑店)恒实平阳景苑,112.54415934051676,37.81969593413091,176_79,112.54702136621977,37.82155201130741,1.0,7842223149.0,112.5462886,37.8195445,140105124505.0,0,0,51
太原直送,BWLS017,BWLS017,127,140105124569,太原***玖烟酒店,112.556956,37.819333,1.0,2.0,111.0,29.67,2.343905406040311,2.337707999904178,0.1574298118813567,太原直送,0.1574298118813567,山西省,太原市,小店区,平阳路街道,山西省太原市小店区平阳路街道长风街107号得风公寓,112.55068118827089,37.8188151076557,177_78,112.55281429443691,37.81705540610098,1.0,1993058844.0,112.5498757,37.8188042,140105124569.0,0,0,51
太原直送,BWLS016,BWLS016,9,140105124630,太原***誉烟酒店,112.550569,37.828195,1.0,2.0,111.0,34.67,2.3374938381343378,2.336126939961312,0.1475948904264611,太原直送,0.1475948904264611,山西省,太原市,小店区,平阳路街道,山西省太原市小店区平阳路街道平阳路西二巷汾河小区,112.54427870513572,37.8276663408519,176_80,112.54702136621977,37.82604861651383,1.0,1984181886.0,112.5440772,37.8275746,140105124630.0,0,0,51
太原直送,BWLS017,BWLS017,78,140105124650,太原***之居宾馆,112.558007,37.822377,1.0,2.0,111.0,25.33,2.340685452252817,2.334831909744462,0.154646701070533,太原直送,0.154646701070533,山西省,太原市,小店区,平阳路街道,山西省太原市小店区平阳路街道寇庄西路中正亲贤们,112.55173402044116,37.82186137992343,177_79,112.55281429443691,37.82155201130741,1.0,1893499429.0,112.5517341,37.8226993,140105124650.0,0,0,51
太原直送,BWLS017,BWLS017,98,140105124680,（金***源金虎便利店,112.554814,37.818257,1.0,2.0,111.0,34.67,2.345596350502148,2.3399934372224225,0.1580997660877406,太原直送,0.1580997660877406,山西省,太原市,小店区,平阳路街道,山西省太原市小店区平阳路街道瑞声达助听器小店旗舰店和信商城,112.54853468799986,37.81773508239623,176_78,112.54702136621977,37.81705540610098,1.0,7689952079.0,112.5483859,37.8183431,140105124680.0,0,0,51
太原直送,BWLS016,BWLS016,3,140105124705,太原***茶艺中心,112.548742,37.818114,1.0,2.0,111.0,34.67,2.347636911686725,2.344448577914426,0.1572982417002786,太原直送,0.1572982417002786,山西省,太原市,小店区,平阳路街道,山西省太原市小店区平阳路街道平阳路279号华德,112.54244838383885,37.81758014666634,175_78,112.5412284380026,37.81705540610098,1.0,4202768299.0,112.5418155,37.8170667,140105124705.0,0,0,51
太原直送,BWLS016,BWLS016,50,140105124735,太原***酒酒商行,112.551793,37.822789,1.0,2.0,111.0,29.33,2.3422394922500964,2.339004147066221,0.1531266851858278,太原直送,0.1531266851858278,山西省,太原市,小店区,平阳路街道,山西省太原市小店区平阳路街道平阳路235号恒实平阳景苑,112.54550625580018,37.82226197478411,176_79,112.54702136621977,37.82155201130741,1.0,2150336000.0,112.5463055,37.8224584,140105124735.0,0,0,51
太原直送,BWLS017,BWLS017,102,140105124748,太原***鑫便利店,112.554273,37.824346,1.0,2.0,111.0,34.67,2.339982716283394,2.3361395937079648,0.1520104694058922,太原直送,0.1520104694058922,山西省,太原市,小店区,营盘街道,山西省太原市小店区营盘街道平阳路186号飞云·国际公寓,112.5479917773456,37.82382395430093,176_80,112.54702136621977,37.82604861651383,1.0,7842223159.0,112.5484787,37.822641,140105124748.0,0,0,51
太原直送,BWLS016,BWLS016,49,140105224738,太原***有限公司,112.551793,37.822789,1.0,2.0,111.0,37.67,2.3422394922500964,2.339004147066221,0.1531266851858278,太原直送,0.1531266851858278,山西省,太原市,小店区,平阳路街道,山西省太原市小店区平阳路街道平阳路235号恒实平阳景苑,112.54550625580018,37.82226197478411,176_79,112.54702136621977,37.82155201130741,1.0,2150336000.0,112.5463055,37.8224584,140105224738.0,0,0,51
太原直送,BWLS016,BWLS016,113,140105224841,山西***有限公司,112.550201,37.826348,1.0,2.0,111.0,20.0,2.3393626339806706,2.337674383259136,0.1493621789108565,太原直送,0.1493621789108565,山西省,太原市,小店区,平阳路街道,山西省太原市小店区平阳路街道南环四巷32号万厦华府小区,112.54391002720958,37.82581832552132,175_80,112.5412284380026,37.82604861651383,1.0,1984181886.0,112.5440772,37.8275746,140105224841.0,0,0,51
