station_name,line_code,line_name,deliver_no,customer_code,customer_name,longitude,latitude,order_cycle_type,order_weekday,city_village_code,avg_order_qty,distance_to_平城直送,distance_to_灵丘中转站,distance_to_太原直送,nearest_station,distance_to_station,province,city,district,township,full_address,lon_84,lat_84,grid_id,LonGridCenter,LatGridCenter,group,customer_osmid_mapping,OSM_X,OSM_Y,BB_RETAIL_CUSTOMER_CODE,kmeans_cluster,dbscan_label,kmeans_label
太原直送,BWLS022,BWLS022,30,140106100902,太原***烟酒商店,112.555511,37.860275,1.0,2.0,111.0,65.67,2.3054991572065244,2.3103810924323724,0.1171181870932053,太原直送,0.1171181870932053,山西省,太原市,迎泽区,庙前街道,山西省太原市迎泽区庙前街道加油站(南海街)中国石化南海街加油站,112.54922834014708,37.85976093400073,176_87,112.54702136621977,37.85752485295879,1.0,1798355115.0,112.5495204,37.860179,140106100902.0,0,0,9
太原直送,BWLS025,BWLS025,80,140106102328,太原***副食商店,112.557407,37.866351,1.0,2.0,111.0,24.67,2.2991355879999755,2.304826354794867,0.1117268609601073,太原直送,0.1117268609601073,山西省,太原市,迎泽区,庙前街道,山西省太原市迎泽区庙前街道陈家巷17号庙前社区,112.5511276760292,37.86584136183969,177_89,112.55281429443691,37.86651806337164,1.0,7843319399.0,112.5515308,37.865828,140106102328.0,0,0,9
太原直送,BWLS025,BWLS025,79,140106102333,太原***英兰烟店,112.557291,37.86617,1.0,2.0,111.0,25.0,2.2993440660251347,2.3050350060929623,0.1118700117681263,太原直送,0.1118700117681263,山西省,太原市,迎泽区,庙前街道,山西省太原市迎泽区庙前街道陈家巷3号庙前社区,112.55101145496111,37.86566012740152,177_89,112.55281429443691,37.86651806337164,1.0,7843319399.0,112.5515308,37.865828,140106102333.0,0,0,9
太原直送,CWLS028,CWLS028,129,140106103194,太原***盛世烟店,112.56424,37.864095,1.0,3.0,111.0,29.67,2.299114904061344,2.301421094510955,0.115895055602039,太原直送,0.115895055602039,山西省,太原市,迎泽区,柳巷街道,山西省太原市迎泽区柳巷街道开化寺街8号金地国际公馆,112.55797396917971,37.86359597921007,178_88,112.55860722265408,37.862021458165216,1.0,2001349122.0,112.5579248,37.8641068,140106103194.0,0,0,9
太原直送,CWLS028,CWLS028,140,140106104394,太原***食经销部,112.562918,37.866426,1.0,3.0,111.0,62.33,2.2973193587331333,2.3007740734989635,0.1132653782671475,太原直送,0.1132653782671475,山西省,太原市,迎泽区,柳巷街道,山西省太原市迎泽区柳巷街道姑姑庵东米市小区,112.55664936929,37.86592540127819,178_89,112.55860722265408,37.86651806337164,1.0,7543087918.0,112.5572188,37.8658569,140106104394.0,0,0,9
太原直送,CWLS028,CWLS028,147,140106106455,太原***副食品店,112.565326,37.865453,1.0,3.0,111.0,13.0,2.297484179424308,2.2996983024640407,0.1149634254404376,太原直送,0.1149634254404376,山西省,太原市,迎泽区,柳巷街道,山西省太原市迎泽区柳巷街道东夹道开化寺古玩市场,112.55906165498236,37.86495578579059,178_89,112.55860722265408,37.86651806337164,1.0,11655729567.0,112.5590617,37.8649186,140106106455.0,0,0,9
太原直送,CWLS028,CWLS028,126,140106106960,太原***烟酒商店,112.562692,37.864093,1.0,3.0,111.0,47.67,2.299604519613103,2.302544417767442,0.1154127882905538,太原直送,0.1154127882905538,山西省,太原市,迎泽区,柳巷街道,山西省太原市迎泽区柳巷街道南牛肉巷开化寺农行宿舍,112.55642323242866,37.86359165243381,178_88,112.55860722265408,37.862021458165216,1.0,1990224573.0,112.5564391,37.8641538,140106106960.0,0,0,9
太原直送,BWLS021,BWLS021,31,140106107951,太原***食便利店,112.555604,37.85468,1.0,2.0,111.0,55.67,2.310775544830346,2.314167421953947,0.1225772241894851,太原直送,0.1225772241894851,山西省,太原市,迎泽区,迎泽街道,山西省太原市迎泽区迎泽街道文源巷山西医科大学第一医院(解放路院区),112.5493221926182,37.854165162304696,176_86,112.54702136621977,37.85302824775237,1.0,1107143147.0,112.550996,37.8541606,140106107951.0,0,0,9
太原直送,CWLS028,CWLS028,121,140106108580,太原***鑫便利店,112.561555,37.861945,1.0,3.0,111.0,60.0,2.302001513581606,2.3048483837131246,0.1171214610906124,太原直送,0.1171214610906124,山西省,太原市,迎泽区,柳巷街道,山西省太原市迎泽区柳巷街道大铁匠巷9号凯旋大地,112.55528439018268,37.86144151228015,177_88,112.55281429443691,37.862021458165216,1.0,2012475113.0,112.5557897,37.8606034,140106108580.0,0,0,9
太原直送,CWLS028,CWLS028,101,140106109286,太原***春烟酒店,112.563392,37.861189,1.0,3.0,111.0,58.67,2.3021401149558627,2.304038759430927,0.1183917324689458,太原直送,0.1183917324689458,山西省,太原市,迎泽区,柳巷街道,山西省太原市迎泽区柳巷街道后铁匠巷迎泽宾馆,112.55712482283596,37.86068821952653,178_88,112.55860722265408,37.862021458165216,1.0,2012475099.0,112.5575533,37.8606582,140106109286.0,0,0,9
太原直送,BWLS022,BWLS022,21,140106109479,（金***娟金虎便利店,112.55452,37.864608,1.0,2.0,111.0,16.0,2.301706587817399,2.3081216087063123,0.1126740953103247,太原直送,0.1126740953103247,山西省,太原市,迎泽区,庙前街道,山西省太原市迎泽区庙前街道中国建设银行(太原水西支行)国家税务总局山西省税务局,112.54823465267668,37.864092850807495,176_88,112.54702136621977,37.862021458165216,1.0,2001346007.0,112.5481012,37.8652498,140106109479.0,0,0,9
太原直送,CWLS028,CWLS028,131,140106112786,太原***园烟酒店,112.56109,37.864712,1.0,3.0,111.0,63.67,2.29952296325347,2.30327989797615,0.1143400567167944,太原直送,0.1143400567167944,山西省,太原市,迎泽区,柳巷街道,山西省太原市迎泽区柳巷街道开化寺街华宇购物中心(开化寺街),112.55481819402756,37.86420824725814,177_88,112.55281429443691,37.862021458165216,1.0,1108624775.0,112.5554678,37.864175,140106112786.0,0,0,9
太原直送,BWLS025,BWLS025,84,140106113075,太原***隆便利店,112.558296,37.865637,1.0,2.0,111.0,69.67,2.299530377427748,2.3046714009593643,0.1126560058097199,太原直送,0.1126560058097199,山西省,太原市,迎泽区,庙前街道,山西省太原市迎泽区庙前街道馒头巷颐园小区,112.55201859162884,37.86512877684447,177_89,112.55281429443691,37.86651806337164,1.0,1669896559.0,112.551497,37.8650864,140106113075.0,0,0,9
太原直送,BWLS022,BWLS022,39,140106113118,太原***佳便利店,112.559038,37.862686,1.0,2.0,111.0,29.67,2.302094053728042,2.306162971614322,0.1156972993375406,太原直送,0.1156972993375406,山西省,太原市,迎泽区,庙前街道,山西省太原市迎泽区庙前街道南海东街太原市商业职工医院2号住宅楼,112.55276243298316,37.86217852914536,177_88,112.55281429443691,37.862021458165216,1.0,2012475122.0,112.5527937,37.8621433,140106113118.0,0,0,9
太原直送,BWLS025,BWLS025,87,140106114075,太原***烟酒商店,112.557777,37.865933,1.0,2.0,111.0,64.0,2.2994144190380297,2.304844848447937,0.1122293827658341,太原直送,0.1122293827658341,山西省,太原市,迎泽区,庙前街道,山西省太原市迎泽区庙前街道庙前街颐园小区,112.55149849222728,37.86542393359752,177_89,112.55281429443691,37.86651806337164,1.0,1669896559.0,112.551497,37.8650864,140106114075.0,0,0,9
太原直送,BWLS022,BWLS022,42,140106114719,太原***通便利店,112.55811,37.86174,1.0,2.0,111.0,61.33,2.303285276139716,2.307487302752716,0.1163580710479515,太原直送,0.1163580710479515,山西省,太原市,迎泽区,庙前街道,山西省太原市迎泽区庙前街道旧城街全顺馨城,112.55183266413586,37.86123078785196,177_88,112.55281429443691,37.862021458165216,1.0,2012475133.0,112.5514928,37.8612003,140106114719.0,0,0,9
太原直送,BWLS025,BWLS025,91,140106115225,太原***酒经销部,112.556325,37.867008,1.0,2.0,111.0,74.67,2.298856747023833,2.305161292456993,0.1108059170306353,太原直送,0.1108059170306353,山西省,太原市,迎泽区,庙前街道,山西省太原市迎泽区庙前街道都司街中奥·名邸,112.55004331511871,37.866496561246265,177_89,112.55281429443691,37.86651806337164,1.0,2001346002.0,112.5499426,37.8665093,140106115225.0,0,0,9
太原直送,CWLS028,CWLS028,138,140106115639,太原***酒副食店,112.563138,37.866404,1.0,3.0,111.0,35.67,2.2972708167445104,2.3006296372804123,0.1133556374689793,太原直送,0.1133556374689793,山西省,太原市,迎泽区,柳巷街道,山西省太原市迎泽区柳巷街道姑姑庵东米市小区,112.55686976598447,37.865903732098,178_89,112.55860722265408,37.86651806337164,1.0,7543087918.0,112.5572188,37.8658569,140106115639.0,0,0,9
太原直送,BWLS025,BWLS025,90,140106115858,（金***便利都司街店,112.556251,37.866288,1.0,2.0,111.0,58.0,2.299562869913541,2.3057096077836845,0.1114816791629926,太原直送,0.1114816791629926,山西省,太原市,迎泽区,庙前街道,山西省太原市迎泽区庙前街道都司街都市广场,112.54996924038996,37.86577630368544,177_89,112.55281429443691,37.86651806337164,1.0,7843319402.0,112.5498942,37.865955,140106115858.0,0,0,9
太原直送,BWLS025,BWLS025,85,140106115903,（唐***国要唐久便利店,112.557777,37.865933,1.0,2.0,111.0,66.67,2.2994144190380297,2.304844848447937,0.1122293827658341,太原直送,0.1122293827658341,山西省,太原市,迎泽区,庙前街道,山西省太原市迎泽区庙前街道庙前街颐园小区,112.55149849222728,37.86542393359752,177_89,112.55281429443691,37.86651806337164,1.0,1669896559.0,112.551497,37.8650864,140106115903.0,0,0,9
太原直送,BWLS022,BWLS022,25,140106117377,太原***兴副食店,112.555994,37.862984,1.0,2.0,111.0,58.67,2.302777082231368,2.308167048402911,0.114610850629424,太原直送,0.114610850629424,山西省,太原市,迎泽区,庙前街道,山西省太原市迎泽区庙前街道南海街新建路一社区,112.54971207209348,37.86247127189555,176_88,112.54702136621977,37.862021458165216,1.0,1513044627.0,112.5496798,37.8622489,140106117377.0,0,0,9
太原直送,CWLS028,CWLS028,137,140106118250,（金***桃金虎便利店,112.562245,37.866468,1.0,3.0,111.0,58.67,2.2974919836763306,2.3012334035733937,0.1130155649855384,太原直送,0.1130155649855384,山西省,太原市,迎泽区,柳巷街道,山西省太原市迎泽区柳巷街道姑姑庵晋福小区,112.5559751427171,37.86596637246311,178_89,112.55860722265408,37.86651806337164,1.0,6363848303.0,112.5557302,37.8659531,140106118250.0,0,0,9
太原直送,CWLS028,CWLS028,40,140106118350,太原***龙便利店,112.562157,37.866505,1.0,3.0,111.0,89.67,2.297484674560423,2.3012717897686503,0.1129531864977714,太原直送,0.1129531864977714,山西省,太原市,迎泽区,柳巷街道,山西省太原市迎泽区柳巷街道柴市巷66号晋福小区,112.55588697689994,37.866003242021925,178_89,112.55860722265408,37.86651806337164,1.0,6363848303.0,112.5557302,37.8659531,140106118350.0,0,0,9
太原直送,BWLS021,BWLS021,36,140106118682,（金***刚金虎便利店,112.555127,37.8576,1.0,2.0,111.0,44.67,2.308157629912872,2.3125010930527155,0.1196261894611712,太原直送,0.1196261894611712,山西省,太原市,迎泽区,迎泽街道,山西省太原市迎泽区迎泽街道南宫南街2号南宫小区,112.5488438105458,37.85708477920231,176_87,112.54702136621977,37.85752485295879,1.0,2012475139.0,112.5492666,37.8570329,140106118682.0,0,0,9
太原直送,BWLS025,BWLS025,74,140106118745,太原***姐便利店,112.55973,37.868126,1.0,2.0,111.0,67.0,2.296715065864725,2.301918992805133,0.1106769915474778,太原直送,0.1106769915474778,山西省,太原市,迎泽区,庙前街道,山西省太原市迎泽区庙前街道羊市街同晟国际,112.55345517343338,37.8676206247367,177_89,112.55281429443691,37.86651806337164,1.0,6366966236.0,112.5534376,37.8675795,140106118745.0,0,0,9
太原直送,BWLS025,BWLS025,89,140106118747,太原***烟酒商店,112.555947,37.8657,1.0,2.0,111.0,45.67,2.300217039899714,2.3063344553663487,0.1119714194113861,太原直送,0.1119714194113861,山西省,太原市,迎泽区,庙前街道,山西省太原市迎泽区庙前街道水西巷都市广场,112.54966465513384,37.86518765483664,176_89,112.54702136621977,37.86651806337164,1.0,1108626597.0,112.5498246,37.8651679,140106118747.0,0,0,9
太原直送,CWLS028,CWLS028,132,140106118841,太原***园副食店,112.56161,37.864803,1.0,3.0,111.0,78.67,2.299272316955298,2.302840073107983,0.1144080245830655,太原直送,0.1144080245830655,山西省,太原市,迎泽区,柳巷街道,山西省太原市迎泽区柳巷街道开化寺街华宇商贸写字楼,112.55533916124652,37.864300089802285,177_89,112.55281429443691,37.86651806337164,1.0,1108624775.0,112.5554678,37.864175,140106118841.0,0,0,9
太原直送,CWLS028,CWLS028,134,140106118896,（唐***赫唐久便利店,112.561805,37.865376,1.0,3.0,111.0,74.67,2.2986670584373448,2.302304187582948,0.1139204618714329,太原直送,0.1139204618714329,山西省,太原市,迎泽区,柳巷街道,山西省太原市迎泽区柳巷街道柴市巷华宇购物中心(开化寺街),112.555534457744,37.86487349594398,177_89,112.55281429443691,37.86651806337164,1.0,1108624775.0,112.5554678,37.864175,140106118896.0,0,0,9
太原直送,CWLS028,CWLS028,99,140106118924,（唐***梅唐久便利店,112.56198,37.861034,1.0,3.0,111.0,42.67,2.302731977948368,2.305168322579717,0.1181170193071294,太原直送,0.1181170193071294,山西省,太原市,迎泽区,柳巷街道,山西省太原市迎泽区柳巷街道泽北巷海印通讯广场,112.55571028566418,37.86053102543293,177_88,112.55281429443691,37.862021458165216,1.0,2012475113.0,112.5557897,37.8606034,140106118924.0,0,0,9
太原直送,CWLS027,CWLS027,116,140106118934,太原***品经销部,112.563315,37.860384,1.0,3.0,111.0,64.0,2.302928450052449,2.3046497373201795,0.1191353472526062,太原直送,0.1191353472526062,山西省,太原市,迎泽区,柳巷街道,山西省太原市迎泽区柳巷街道迎泽宾馆大堂,112.55704777961276,37.859882966476654,178_88,112.55860722265408,37.862021458165216,1.0,2012475103.0,112.5565595,37.8593211,140106118934.0,0,0,9
太原直送,CWLS028,CWLS028,96,140106118965,太原***用品商行,112.561565,37.861053,1.0,3.0,111.0,43.33,2.302844808916137,2.305455875911962,0.1179776338294684,太原直送,0.1179776338294684,山西省,太原市,迎泽区,柳巷街道,山西省太原市迎泽区柳巷街道后铁匠巷铁匠巷社区,112.55529451238664,37.86054937595136,177_88,112.55281429443691,37.862021458165216,1.0,2012475113.0,112.5557897,37.8606034,140106118965.0,0,0,9
太原直送,BWLS021,BWLS021,32,140106119092,（唐***捷信唐久便利店,112.555687,37.854678,1.0,2.0,111.0,67.67,2.310751139678392,2.3141086803350386,0.1225983664695415,太原直送,0.1225983664695415,山西省,太原市,迎泽区,迎泽街道,山西省太原市迎泽区迎泽街道文源巷山西医科大学第一医院(解放路院区),112.54940537314882,37.85416331278333,176_86,112.54702136621977,37.85302824775237,1.0,1107143147.0,112.550996,37.8541606,140106119092.0,0,0,9
太原直送,CWLS028,CWLS028,120,140106119101,太原***旋便利店,112.561547,37.861733,1.0,3.0,111.0,28.67,2.302205208598917,2.30500026799499,0.1173218675950895,太原直送,0.1173218675950895,山西省,太原市,迎泽区,柳巷街道,山西省太原市迎泽区柳巷街道大铁匠巷凯旋大地,112.55527639982692,37.86122946342311,177_88,112.55281429443691,37.862021458165216,1.0,2012475113.0,112.5557897,37.8606034,140106119101.0,0,0,9
太原直送,BWLS022,BWLS022,34,140106119127,太原***凡烟酒店,112.557683,37.864822,1.0,2.0,111.0,69.0,2.3004977858726607,2.305676874688648,0.113273760160949,太原直送,0.113273760160949,山西省,太原市,迎泽区,庙前街道,山西省太原市迎泽区庙前街道水西门街山西税务大厦,112.55140442692202,37.864312578459725,177_89,112.55281429443691,37.86651806337164,1.0,8899495791.0,112.5514421,37.8642848,140106119127.0,0,0,9
太原直送,BWLS022,BWLS022,27,140106119152,太原***副食商店,112.555959,37.862662,1.0,2.0,111.0,75.33,2.303093510144344,2.30841388544472,0.1149138830472613,太原直送,0.1149138830472613,山西省,太原市,迎泽区,庙前街道,山西省太原市迎泽区庙前街道南海街新建路一社区,112.54967703404904,37.862149153576325,176_88,112.54702136621977,37.862021458165216,1.0,1513044627.0,112.5496798,37.8622489,140106119152.0,0,0,9
太原直送,BWLS022,BWLS022,37,140106119153,（金***巷金虎便利店,112.558643,37.86364,1.0,2.0,111.0,61.0,2.301314293493395,2.305793009638548,0.1146715932958141,太原直送,0.1146715932958141,山西省,太原市,迎泽区,庙前街道,山西省太原市迎泽区庙前街道韶九巷伊清园,112.5523665279311,37.8631320246588,177_88,112.55281429443691,37.862021458165216,1.0,2012475140.0,112.552877,37.8630257,140106119153.0,0,0,9
太原直送,BWLS022,BWLS022,38,140106119224,太原***烟酒商行,112.558415,37.863683,1.0,2.0,111.0,82.0,2.301345772280209,2.3059288828229283,0.1145680866733796,太原直送,0.1145680866733796,山西省,太原市,迎泽区,庙前街道,山西省太原市迎泽区庙前街道Y酒店(太原解放路柳巷开化寺地铁站店)伊清园,112.5521380608218,37.86317464355929,177_88,112.55281429443691,37.862021458165216,1.0,2012475074.0,112.5515842,37.8630702,140106119224.0,0,0,9
太原直送,CWLS028,CWLS028,145,140106119299,（唐***唐久便利店,112.564968,37.864586,1.0,3.0,111.0,67.33,2.298419778380353,2.300555205611247,0.1156648566938053,太原直送,0.1156648566938053,山西省,太原市,迎泽区,柳巷街道,山西省太原市迎泽区柳巷街道开化寺街王府井城市奥莱,112.55870315492616,37.86408812328406,178_88,112.55860722265408,37.862021458165216,1.0,11655729566.0,112.5590151,37.8640619,140106119299.0,0,0,9
太原直送,BWLS022,BWLS022,33,140106119339,（唐***平唐久便利店,112.557568,37.864829,1.0,2.0,111.0,62.33,2.3005276539700605,2.305755566778053,0.1132362160309138,太原直送,0.1132362160309138,山西省,太原市,迎泽区,庙前街道,山西省太原市迎泽区庙前街道水西门街山西税务大厦,112.5512891877178,37.86431937960205,177_89,112.55281429443691,37.86651806337164,1.0,8899495791.0,112.5514421,37.8642848,140106119339.0,0,0,9
太原直送,CWLS028,CWLS028,114,140106119353,太原***酒经销部,112.564067,37.862731,1.0,3.0,111.0,62.33,2.300464042511428,2.3024866273915734,0.1171342649270484,太原直送,0.1171342649270484,山西省,太原市,迎泽区,柳巷街道,山西省太原市迎泽区柳巷街道小铁匠巷怡华苑,112.55780082789062,37.862231490000575,178_88,112.55860722265408,37.862021458165216,1.0,2001349110.0,112.5578608,37.8624679,140106119353.0,0,0,9
太原直送,CWLS025,CWLS025,105,140106119354,太原***烟酒商店,112.565419,37.857507,1.0,3.0,111.0,74.67,2.3049991542436614,2.30511371731396,0.1225191167614281,太原直送,0.1225191167614281,山西省,太原市,迎泽区,迎泽街道,山西省太原市迎泽区迎泽街道湖滨国际大酒店大堂东方明珠·湖滨广场,112.55915573126389,37.85700856302663,178_87,112.55860722265408,37.85752485295879,1.0,1913060627.0,112.5601401,37.8569409,140106119354.0,0,0,9
太原直送,CWLS028,CWLS028,124,140106119360,太原***园便利店,112.562605,37.86236,1.0,3.0,111.0,24.33,2.3012765684586847,2.303801526427563,0.1170371873935777,太原直送,0.1170371873935777,山西省,太原市,迎泽区,柳巷街道,山西省太原市迎泽区柳巷街道崔家巷凯旋大地,112.55633627588831,37.86185822140615,178_88,112.55860722265408,37.862021458165216,1.0,1513044609.0,112.5563584,37.8625152,140106119360.0,0,0,9
太原直送,CWLS028,CWLS028,142,140106119397,（唐***花唐久便利店,112.563636,37.866408,1.0,3.0,111.0,67.67,2.297109954270799,2.300265689663041,0.1135103073469535,太原直送,0.1135103073469535,山西省,太原市,迎泽区,柳巷街道,山西省太原市迎泽区柳巷街道姑姑庵开化商住楼,112.55736864817024,37.86590848286512,178_89,112.55860722265408,37.86651806337164,1.0,7543087918.0,112.5572188,37.8658569,140106119397.0,0,0,9
太原直送,CWLS025,CWLS025,103,140106119485,（唐***月芳唐久便利店,112.566538,37.858202,1.0,3.0,111.0,67.67,2.303988587916617,2.303824580663427,0.1222135389635677,太原直送,0.1222135389635677,山西省,太原市,迎泽区,迎泽街道,山西省太原市迎泽区迎泽街道青年路东方明珠·湖滨广场,112.5602764773282,37.85770524384604,178_87,112.55860722265408,37.85752485295879,1.0,1913060597.0,112.5602719,37.8575595,140106119485.0,0,0,9
太原直送,CWLS028,CWLS028,116,140106119534,太原***婷菲烟店,112.563979,37.862596,1.0,3.0,111.0,71.33,2.3006198751443003,2.302643443803224,0.1172348796433856,太原直送,0.1172348796433856,山西省,太原市,迎泽区,柳巷街道,山西省太原市迎泽区柳巷街道小铁匠巷怡华苑,112.55771269058484,37.86209633666976,178_88,112.55860722265408,37.862021458165216,1.0,2001349110.0,112.5578608,37.8624679,140106119534.0,0,0,9
太原直送,BWLS025,BWLS025,88,140106119580,太原***副食商店,112.557267,37.865866,1.0,2.0,111.0,24.33,2.2996399382192454,2.3052613527151355,0.1121564915865331,太原直送,0.1121564915865331,山西省,太原市,迎泽区,庙前街道,山西省太原市迎泽区庙前街道庙前社区,112.55098744010516,37.86535603267536,177_89,112.55281429443691,37.86651806337164,1.0,1669896559.0,112.551497,37.8650864,140106119580.0,0,0,9
太原直送,BWLS025,BWLS025,93,140106119581,太原***瑞峰烟店,112.555156,37.864812,1.0,2.0,111.0,76.0,2.3013106355679143,2.307519298732949,0.1126317980412251,太原直送,0.1126317980412251,山西省,太原市,迎泽区,庙前街道,山西省太原市迎泽区庙前街道水西门街山西天瑞商务酒店,112.54887203614985,37.86429806133452,176_89,112.54702136621977,37.86651806337164,1.0,1102895917.0,112.5497563,37.864297,140106119581.0,0,0,9
太原直送,CWLS028,CWLS028,119,140106119586,太原***家便利店,112.562061,37.861737,1.0,3.0,111.0,73.0,2.3020392936802807,2.304625065867548,0.117469145991618,太原直送,0.117469145991618,山西省,太原市,迎泽区,柳巷街道,山西省太原市迎泽区柳巷街道大铁匠巷凯旋大地,112.55579135353152,37.8612342718666,178_88,112.55860722265408,37.862021458165216,1.0,2001349135.0,112.5562595,37.8611872,140106119586.0,0,0,9
太原直送,CWLS028,CWLS028,102,140106119596,太原***红烟酒店,112.564663,37.861232,1.0,3.0,111.0,63.67,2.301699606856854,2.3030888576852617,0.1187446269142274,太原直送,0.1187446269142274,山西省,太原市,迎泽区,柳巷街道,山西省太原市迎泽区柳巷街道后铁匠巷成成中学,112.5583980267659,37.86073310728371,178_88,112.55860722265408,37.862021458165216,1.0,2012475099.0,112.5575533,37.8606582,140106119596.0,0,0,9
太原直送,CWLS028,CWLS028,136,140106119651,（唐***皮皮唐久便利店,112.561805,37.865376,1.0,3.0,111.0,74.67,2.2986670584373448,2.302304187582948,0.1139204618714329,太原直送,0.1139204618714329,山西省,太原市,迎泽区,柳巷街道,山西省太原市迎泽区柳巷街道柴市巷华宇购物中心(开化寺街),112.555534457744,37.86487349594398,177_89,112.55281429443691,37.86651806337164,1.0,1108624775.0,112.5554678,37.864175,140106119651.0,0,0,9
太原直送,CWLS028,CWLS028,95,140106119653,太原***强便利店,112.561122,37.861079,1.0,3.0,111.0,17.67,2.302959903313346,2.305758932733432,0.1178248010267797,太原直送,0.1178248010267797,山西省,太原市,迎泽区,柳巷街道,山西省太原市迎泽区柳巷街道后铁匠巷柳巷街道办事处,112.55485067626292,37.86057467584606,177_88,112.55281429443691,37.862021458165216,1.0,2012475113.0,112.5557897,37.8606034,140106119653.0,0,0,9
太原直送,BWLS021,BWLS021,37,140106119751,太原***达烟酒店,112.554308,37.857543,1.0,2.0,111.0,94.33,2.3084718176397536,2.313134246744009,0.1194938083123975,太原直送,0.1194938083123975,山西省,太原市,迎泽区,迎泽街道,山西省太原市迎泽区迎泽街道亲朋好茶中国人民保险住宅小区,112.54802300039437,37.85702625229359,176_87,112.54702136621977,37.85752485295879,1.0,2012475139.0,112.5492666,37.8570329,140106119751.0,0,0,9
太原直送,CWLS028,CWLS028,97,140106119765,太原***丽便利店,112.56198,37.861034,1.0,3.0,111.0,50.67,2.302731977948368,2.305168322579717,0.1181170193071294,太原直送,0.1181170193071294,山西省,太原市,迎泽区,柳巷街道,山西省太原市迎泽区柳巷街道泽北巷海印通讯广场,112.55571028566418,37.86053102543293,177_88,112.55281429443691,37.862021458165216,1.0,2012475113.0,112.5557897,37.8606034,140106119765.0,0,0,9
太原直送,BWLS022,BWLS022,22,140106119769,太原***邻便利店,112.554896,37.864797,1.0,2.0,111.0,31.67,2.301407653344575,2.307718534830447,0.1125823028943669,太原直送,0.1125823028943669,山西省,太原市,迎泽区,庙前街道,山西省太原市迎泽区庙前街道水西门街兵工大院,112.5486114650398,37.86428258012919,176_89,112.54702136621977,37.86651806337164,1.0,2001346007.0,112.5481012,37.8652498,140106119769.0,0,0,9
太原直送,BWLS025,BWLS025,82,140106119858,（唐***宏唐久便利店,112.559306,37.867124,1.0,2.0,111.0,44.67,2.297799802470615,2.302915665644094,0.1115129182202704,太原直送,0.1115129182202704,山西省,太原市,迎泽区,庙前街道,山西省太原市迎泽区庙前街道兴隆街太原市热嘉建筑节能科技有限公司,112.5530304519732,37.86661774462761,177_89,112.55281429443691,37.86651806337164,1.0,6363837950.0,112.5530198,37.8669383,140106119858.0,0,0,9
太原直送,BWLS022,BWLS022,40,140106119871,（唐***乐唐久便利店,112.559025,37.86171,1.0,2.0,111.0,70.67,2.3030239785501534,2.306844338599804,0.1166326117044434,太原直送,0.1166326117044434,山西省,太原市,迎泽区,庙前街道,山西省太原市迎泽区庙前街道旧城街,112.55274952029522,37.86120234038264,177_88,112.55281429443691,37.862021458165216,1.0,2012475144.0,112.5534218,37.8611736,140106119871.0,0,0,9
太原直送,BWLS021,BWLS021,38,140106119891,（金***民金虎便利店,112.559049,37.858134,1.0,2.0,111.0,47.33,2.306408850534743,2.309290740452139,0.1200840040013647,太原直送,0.1200840040013647,山西省,太原市,迎泽区,迎泽街道,山西省太原市迎泽区迎泽街道解放南路泰吉通大厦,112.5527739834825,37.857625774161605,177_87,112.55281429443691,37.85752485295879,1.0,2012475091.0,112.5524797,37.8572201,140106119891.0,0,0,9
太原直送,BWLS025,BWLS025,94,140106119987,（金***利燕兴商场店,112.553658,37.865811,1.0,2.0,111.0,53.33,2.300841259288653,2.307922123859468,0.1112997872819144,太原直送,0.1112997872819144,山西省,太原市,迎泽区,庙前街道,山西省太原市迎泽区庙前街道水西巷海边街8号院,112.54737057386797,37.865294440986354,176_89,112.54702136621977,37.86651806337164,1.0,1108626600.0,112.5472427,37.8652948,140106119987.0,0,0,9
太原直送,CWLS028,CWLS028,127,140106119988,(金***鑫源金虎便利店,112.562877,37.864703,1.0,3.0,111.0,40.33,2.298967305191616,2.301990145582078,0.1148895062919149,太原直送,0.1148895062919149,山西省,太原市,迎泽区,柳巷街道,山西省太原市迎泽区柳巷街道开化寺街后街公寓,112.55660849547768,37.86420204076505,178_88,112.55860722265408,37.862021458165216,1.0,1990224573.0,112.5564391,37.8641538,140106119988.0,0,0,9
太原直送,CWLS028,CWLS028,141,140106120027,太原***果便利店,112.563596,37.86648,1.0,3.0,111.0,60.33,2.2970542394836864,2.3002451286871515,0.1134292915344151,太原直送,0.1134292915344151,山西省,太原市,迎泽区,柳巷街道,山西省太原市迎泽区柳巷街道南仓巷开化商住楼,112.5573285694109,37.86598043548462,178_89,112.55860722265408,37.86651806337164,1.0,7543087918.0,112.5572188,37.8658569,140106120027.0,0,0,9
太原直送,CWLS028,CWLS028,122,140106120060,（金***便利大铁匠店,112.561666,37.861776,1.0,3.0,111.0,43.67,2.3021268617037585,2.3048844028326,0.117315553180301,太原直送,0.117315553180301,山西省,太原市,迎泽区,柳巷街道,山西省太原市迎泽区柳巷街道大铁匠巷6号凯旋大地,112.55539561698372,37.86127265873803,177_88,112.55281429443691,37.862021458165216,1.0,2012475113.0,112.5557897,37.8606034,140106120060.0,0,0,9
太原直送,BWLS021,BWLS021,41,140106120077,（唐***斌唐久便利店,112.557984,37.856936,1.0,2.0,111.0,56.0,2.307882100583563,2.310888109378077,0.1209651831313477,太原直送,0.1209651831313477,山西省,太原市,迎泽区,迎泽街道,山西省太原市迎泽区迎泽街道解放南路省歌剧院综合楼,112.55170696351792,37.85642575746702,177_87,112.55281429443691,37.85752485295879,1.0,2012475106.0,112.5516431,37.8572489,140106120077.0,0,0,9
太原直送,CWLS029,CWLS029,127,140106120103,太原***伟烟酒店,112.561346,37.868063,1.0,3.0,111.0,23.33,2.296262983798893,2.3007886957250103,0.1112213163426859,太原直送,0.1112213163426859,山西省,太原市,迎泽区,柳巷街道,山西省太原市迎泽区柳巷街道钟楼街食品街,112.55507428820782,37.867560236703525,177_89,112.55281429443691,37.86651806337164,1.0,7543087946.0,112.555118,37.8675037,140106120103.0,0,0,9
太原直送,BWLS022,BWLS022,31,140106120160,太原***全顺便利,112.556501,37.863276,1.0,2.0,111.0,34.33,2.3023391118149825,2.3075981504469114,0.1144565076917852,太原直送,0.1144565076917852,山西省,太原市,迎泽区,庙前街道,山西省太原市迎泽区庙前街道南海东街北三巷山西省国税局家属院,112.55022012438351,37.86276423136757,177_88,112.55281429443691,37.862021458165216,1.0,2012475160.0,112.5501982,37.8631112,140106120160.0,0,0,9
太原直送,CWLS028,CWLS028,143,140106120177,太原***鑫烟酒行,112.563882,37.865491,1.0,3.0,111.0,91.67,2.2979026769846,2.300718785369471,0.1144578141718616,太原直送,0.1144578141718616,山西省,太原市,迎泽区,柳巷街道,山西省太原市迎泽区柳巷街道西夹道开化寺古玩市场,112.55761518566486,37.8649916908163,178_89,112.55860722265408,37.86651806337164,1.0,1911798123.0,112.5575448,37.8641206,140106120177.0,0,0,9
太原直送,BWLS025,BWLS025,83,140106120188,太原***戈烟酒行,112.558436,37.865632,1.0,2.0,111.0,48.33,2.299490702703101,2.3045731771035167,0.1126994195637232,太原直送,0.1126994195637232,山西省,太原市,迎泽区,庙前街道,山西省太原市迎泽区庙前街道馒头巷颐园小区,112.55215887714104,37.86512401543232,177_89,112.55281429443691,37.86651806337164,1.0,1669896559.0,112.551497,37.8650864,140106120188.0,0,0,9
太原直送,CWLS028,CWLS028,135,140106120192,太原***飞便利店,112.562157,37.866505,1.0,3.0,111.0,40.0,2.297484674560423,2.3012717897686503,0.1129531864977714,太原直送,0.1129531864977714,山西省,太原市,迎泽区,柳巷街道,山西省太原市迎泽区柳巷街道柴市巷66号晋福小区,112.55588697689994,37.866003242021925,178_89,112.55860722265408,37.86651806337164,1.0,6363848303.0,112.5557302,37.8659531,140106120192.0,0,0,9
太原直送,BWLS021,BWLS021,35,140106120253,太原***生活超市,112.554911,37.857615,1.0,2.0,111.0,14.0,2.3082119899957148,2.3126473859429955,0.1195615218538106,太原直送,0.1195615218538106,山西省,太原市,迎泽区,迎泽街道,山西省太原市迎泽区迎泽街道亲朋好茶南宫小区,112.54862733286342,37.85709938404524,176_87,112.54702136621977,37.85752485295879,1.0,2012475139.0,112.5492666,37.8570329,140106120253.0,0,0,9
太原直送,BWLS022,BWLS022,24,140106120279,太原***副食商行,112.555994,37.862984,1.0,2.0,111.0,61.67,2.302777082231368,2.308167048402911,0.114610850629424,太原直送,0.114610850629424,山西省,太原市,迎泽区,庙前街道,山西省太原市迎泽区庙前街道南海街新建路一社区,112.54971207209348,37.86247127189555,176_88,112.54702136621977,37.862021458165216,1.0,1513044627.0,112.5496798,37.8622489,140106120279.0,0,0,9
太原直送,BWLS022,BWLS022,44,140106120282,（唐***瑞唐久便利店,112.556697,37.861748,1.0,2.0,111.0,38.0,2.303725790571656,2.3085069411552563,0.1159841077087716,太原直送,0.1159841077087716,山西省,太原市,迎泽区,庙前街道,山西省太原市迎泽区庙前街道旧城街信达行,112.55041671836192,37.86123631870808,177_88,112.55281429443691,37.862021458165216,1.0,2012475124.0,112.5506828,37.8612112,140106120282.0,0,0,9
太原直送,CWLS028,CWLS028,125,140106120287,（唐***盛唐久便利店,112.562692,37.864093,1.0,3.0,111.0,57.67,2.299604519613103,2.302544417767442,0.1154127882905538,太原直送,0.1154127882905538,山西省,太原市,迎泽区,柳巷街道,山西省太原市迎泽区柳巷街道南牛肉巷开化寺农行宿舍,112.55642323242866,37.86359165243381,178_88,112.55860722265408,37.862021458165216,1.0,1990224573.0,112.5564391,37.8641538,140106120287.0,0,0,9
太原直送,CWLS028,CWLS028,113,140106120291,（唐***芳芳唐久便利店,112.564114,37.863061,1.0,3.0,111.0,55.67,2.3001360161888216,2.3022250798781547,0.1168357991584749,太原直送,0.1168357991584749,山西省,太原市,迎泽区,柳巷街道,山西省太原市迎泽区柳巷街道开化寺南街太原市迎泽区人民政府,112.55784787113998,37.86256161596797,178_88,112.55860722265408,37.862021458165216,1.0,2001349110.0,112.5578608,37.8624679,140106120291.0,0,0,9
太原直送,BWLS022,BWLS022,35,140106120314,太原***东东商行,112.558551,37.864819,1.0,2.0,111.0,41.33,2.300225257026802,2.305048744983286,0.1135125981554466,太原直送,0.1135125981554466,山西省,太原市,迎泽区,庙前街道,山西省太原市迎泽区庙前街道水西门街康隆商城,112.55227420486204,37.86431107111776,177_89,112.55281429443691,37.86651806337164,1.0,8899495791.0,112.5514421,37.8642848,140106120314.0,0,0,9
太原直送,BWLS022,BWLS022,41,140106120327,太原***酒便利店,112.558152,37.861743,1.0,2.0,111.0,78.33,2.303269123286508,2.3074547725604457,0.1163663090460496,太原直送,0.1163663090460496,山西省,太原市,迎泽区,庙前街道,山西省太原市迎泽区庙前街道旧城街全顺馨城,112.55187474976717,37.86123386059188,177_88,112.55281429443691,37.862021458165216,1.0,2012475133.0,112.5514928,37.8612003,140106120327.0,0,0,9
太原直送,CWLS028,CWLS028,112,140106120331,太原***唤食品店,112.565006,37.863009,1.0,3.0,111.0,38.0,2.2999048465119176,2.3016148429491867,0.1171692055319989,太原直送,0.1171692055319989,山西省,太原市,迎泽区,柳巷街道,山西省太原市迎泽区柳巷街道前所街前所街住宅小区,112.55874140190298,37.86251090689743,178_88,112.55860722265408,37.862021458165216,1.0,2001349110.0,112.5578608,37.8624679,140106120331.0,0,0,9
太原直送,CWLS028,CWLS028,123,140106120367,（唐***达唐久便利店,112.560741,37.861733,1.0,3.0,111.0,48.33,2.302459634321523,2.3055844064880846,0.117089080635211,太原直送,0.117089080635211,山西省,太原市,迎泽区,柳巷街道,山西省太原市迎泽区柳巷街道大铁匠巷凯旋大地,112.55446887560916,37.86122817502903,177_88,112.55281429443691,37.862021458165216,1.0,2001349130.0,112.5535843,37.8611729,140106120367.0,0,0,9
太原直送,BWLS022,BWLS022,43,140106120379,太原***勇烟酒店,112.557564,37.861748,1.0,2.0,111.0,36.0,2.3034507479488253,2.3078778755958904,0.1162069338120574,太原直送,0.1162069338120574,山西省,太原市,迎泽区,庙前街道,山西省太原市迎泽区庙前街道旧城街旧城街小区,112.5512855372891,37.86123784390387,177_88,112.55281429443691,37.862021458165216,1.0,2012475133.0,112.5514928,37.8612003,140106120379.0,0,0,9
太原直送,CWLS028,CWLS028,38,140106120384,（唐***刚唐久便利店,112.561123,37.863017,1.0,3.0,111.0,63.0,2.301120707833469,2.3044230257070883,0.1159700236095494,太原直送,0.1159700236095494,山西省,太原市,迎泽区,柳巷街道,山西省太原市迎泽区柳巷街道云路街凯旋大地,112.55485145323492,37.862513008622166,177_88,112.55281429443691,37.862021458165216,1.0,1990224572.0,112.5537443,37.8625695,140106120384.0,0,0,9
太原直送,CWLS028,CWLS028,33,140106120387,太原***聚烟酒行,112.562622,37.862268,1.0,3.0,111.0,59.67,2.301358522032147,2.303852616309684,0.1171300297361863,太原直送,0.1171300297361863,山西省,太原市,迎泽区,柳巷街道,山西省太原市迎泽区柳巷街道崔家巷怡华苑,112.55635331739224,37.86176623182011,178_88,112.55860722265408,37.862021458165216,1.0,2001349135.0,112.5562595,37.8611872,140106120387.0,0,0,9
太原直送,BWLS022,BWLS022,8,140106120400,太原***康烟酒店,112.554709,37.860801,1.0,2.0,111.0,49.0,2.305255365529811,2.310601234913757,0.1164162755803469,太原直送,0.1164162755803469,山西省,太原市,迎泽区,庙前街道,山西省太原市迎泽区庙前街道新海巷新建路一社区,112.54842451542814,37.86028554966215,176_88,112.54702136621977,37.862021458165216,1.0,2012475080.0,112.5485503,37.8602182,140106120400.0,0,0,9
太原直送,BWLS022,BWLS022,5,140106120447,（唐***来唐久便利店,112.559784,37.864731,1.0,2.0,111.0,58.0,2.299918066703466,2.3042143653097944,0.113942643575614,太原直送,0.113942643575614,山西省,太原市,迎泽区,庙前街道,山西省太原市迎泽区庙前街道水西门街常青大厦(水西门街),112.553509673674,37.86422512537788,177_88,112.55281429443691,37.862021458165216,1.0,8899495789.0,112.5536518,37.8642065,140106120447.0,0,0,9
太原直送,BWLS022,BWLS022,6,140106120509,太原***萍烟酒店,112.557486,37.861752,1.0,2.0,111.0,47.67,2.303471686680344,2.3079317104986,0.1161827772520473,太原直送,0.1161827772520473,山西省,太原市,迎泽区,庙前街道,山西省太原市迎泽区庙前街道旧城街旧城街小区,112.5512073747415,37.86124170858102,177_88,112.55281429443691,37.862021458165216,1.0,2012475133.0,112.5514928,37.8612003,140106120509.0,0,0,9
太原直送,BWLS022,BWLS022,9,140106120541,（金***华金虎便利店,112.556168,37.861739,1.0,2.0,111.0,33.0,2.3039022859446527,2.3088970327123715,0.1158598430906912,太原直送,0.1158598430906912,山西省,太原市,迎泽区,庙前街道,山西省太原市迎泽区庙前街道旧城街信达行,112.54988659098387,37.86122637213122,176_88,112.54702136621977,37.862021458165216,1.0,2012475081.0,112.5496053,37.8612327,140106120541.0,0,0,9
太原直送,BWLS022,BWLS022,11,140106120547,太原***源烟酒店,112.555486,37.864734,1.0,2.0,111.0,55.0,2.301279526514325,2.307333115202266,0.1127894096535666,太原直送,0.1127894096535666,山西省,太原市,迎泽区,庙前街道,山西省太原市迎泽区庙前街道水西门街山西天瑞商务酒店,112.54920276747777,37.864220651618304,176_88,112.54702136621977,37.862021458165216,1.0,8899495788.0,112.5497563,37.8642517,140106120547.0,0,0,9
太原直送,CWLS028,CWLS028,29,140106120557,太原***鑫烟酒店,112.562877,37.864703,1.0,3.0,111.0,33.33,2.298967305191616,2.301990145582078,0.1148895062919149,太原直送,0.1148895062919149,山西省,太原市,迎泽区,柳巷街道,山西省太原市迎泽区柳巷街道开化寺街后街公寓,112.55660849547768,37.86420204076505,178_88,112.55860722265408,37.862021458165216,1.0,1990224573.0,112.5564391,37.8641538,140106120557.0,0,0,9
太原直送,CWLS028,CWLS028,98,140106120569,太原***萍食品店,112.561973,37.860567,1.0,3.0,111.0,43.67,2.303177376499689,2.3054953511792213,0.1185614599100337,太原直送,0.1185614599100337,山西省,太原市,迎泽区,柳巷街道,山西省太原市迎泽区柳巷街道三星手机(体验店)海印通讯广场,112.55570332692002,37.86006393501947,177_88,112.55281429443691,37.862021458165216,1.0,2012475117.0,112.555865,37.8595423,140106120569.0,0,0,9
太原直送,BWLS022,BWLS022,2,140106120587,（唐***慧敏唐久便利,112.556133,37.864114,1.0,2.0,111.0,62.0,2.301661510605108,2.3072892230013085,0.1135524321227847,太原直送,0.1135524321227847,山西省,太原市,迎泽区,庙前街道,山西省太原市迎泽区庙前街道水西门南一巷宝成公寓,112.54985123987136,37.863601716301616,176_88,112.54702136621977,37.862021458165216,1.0,2012475142.0,112.5497017,37.8631495,140106120587.0,0,0,9
太原直送,CWLS028,CWLS028,37,140106120608,太原***则烟酒店,112.562877,37.864703,1.0,3.0,111.0,54.67,2.298967305191616,2.301990145582078,0.1148895062919149,太原直送,0.1148895062919149,山西省,太原市,迎泽区,柳巷街道,山西省太原市迎泽区柳巷街道开化寺街后街公寓,112.55660849547768,37.86420204076505,178_88,112.55860722265408,37.862021458165216,1.0,1990224573.0,112.5564391,37.8641538,140106120608.0,0,0,9
太原直送,BWLS025,BWLS025,32,140106120679,太原***客都超市,112.553889,37.864934,1.0,2.0,111.0,54.0,2.301598740576864,2.308356325045595,0.1122065474782998,太原直送,0.1122065474782998,山西省,太原市,迎泽区,庙前街道,山西省太原市迎泽区庙前街道水西门街H酒店(太原柳巷水西门街精品店),112.54760219900356,37.86441772567912,176_89,112.54702136621977,37.86651806337164,1.0,8899495790.0,112.5470221,37.8643193,140106120679.0,0,0,9
太原直送,CWLS028,CWLS028,45,140106120680,太原***德池澡堂,112.562043,37.866557,1.0,3.0,111.0,13.67,2.2974713519911387,2.3013187228823786,0.1128685762114495,太原直送,0.1128685762114495,山西省,太原市,迎泽区,柳巷街道,山西省太原市迎泽区柳巷街道柴市巷晋福小区,112.55577276100954,37.86605507327465,178_89,112.55860722265408,37.86651806337164,1.0,6363848303.0,112.5557302,37.8659531,140106120680.0,0,0,9
太原直送,BWLS025,BWLS025,23,140106120709,太原***萱烟酒店,112.559341,37.864785,1.0,2.0,111.0,42.0,2.300007134058501,2.304498706905471,0.1137652990502832,太原直送,0.1137652990502832,山西省,太原市,迎泽区,庙前街道,山西省太原市迎泽区庙前街道水西门街常青大厦(水西门街),112.5530657930944,37.86427839818229,177_89,112.55281429443691,37.86651806337164,1.0,8899495789.0,112.5536518,37.8642065,140106120709.0,0,0,9
太原直送,CWLS025,CWLS025,33,140106120710,太原***源烟酒店,112.566602,37.8582,1.0,3.0,111.0,32.0,2.3039704499949663,2.3037797001981315,0.1222359993209883,太原直送,0.1222359993209883,山西省,太原市,迎泽区,迎泽街道,山西省太原市迎泽区迎泽街道青年路东方明珠·湖滨广场,112.56034057996948,37.8577033313429,178_87,112.55860722265408,37.85752485295879,1.0,1913060597.0,112.5602719,37.8575595,140106120710.0,0,0,9
太原直送,BWLS022,BWLS022,17,140106120712,太原***九鑫烟行,112.557,37.86176,1.0,2.0,111.0,64.33,2.3036182550939306,2.308278819706362,0.1160496933989939,太原直送,0.1160496933989939,山西省,太原市,迎泽区,庙前街道,山西省太原市迎泽区庙前街道南海东街南二巷南海街一社区,112.5507203569662,37.861248857135486,177_88,112.55281429443691,37.862021458165216,1.0,2012475124.0,112.5506828,37.8612112,140106120712.0,0,0,9
太原直送,BWLS022,BWLS022,16,140106120735,太原***贸易商行,112.558152,37.861743,1.0,2.0,111.0,33.67,2.303269123286508,2.3074547725604457,0.1163663090460496,太原直送,0.1163663090460496,山西省,太原市,迎泽区,庙前街道,山西省太原市迎泽区庙前街道旧城街全顺馨城,112.55187474976717,37.86123386059188,177_88,112.55281429443691,37.862021458165216,1.0,2012475133.0,112.5514928,37.8612003,140106120735.0,0,0,9
太原直送,CWLS028,CWLS028,49,140106120798,太原***烟酒商行,112.565271,37.864683,1.0,3.0,111.0,45.67,2.298232410919314,2.3002688130175155,0.1156722788052497,太原直送,0.1156722788052497,山西省,太原市,迎泽区,柳巷街道,山西省太原市迎泽区柳巷街道开化寺街王府井城市奥莱,112.5590066524634,37.864185574427296,178_88,112.55860722265408,37.862021458165216,1.0,11655729566.0,112.5590151,37.8640619,140106120798.0,0,0,9
太原直送,BWLS022,BWLS022,18,140106120813,太原***烟酒商行,112.555078,37.860809,1.0,2.0,111.0,68.33,2.305130444500048,2.310327904083747,0.1164959577882365,太原直送,0.1164959577882365,山西省,太原市,迎泽区,庙前街道,山西省太原市迎泽区庙前街道新海巷新建路一社区,112.548794329882,37.860294232168094,176_88,112.54702136621977,37.862021458165216,1.0,2012475080.0,112.5485503,37.8602182,140106120813.0,0,0,9
太原直送,CWLS028,CWLS028,39,140106120824,太原***多副食店,112.560866,37.863037,1.0,3.0,111.0,32.33,2.3011829160657777,2.3045955892737413,0.1158761716877126,太原直送,0.1158761716877126,山西省,太原市,迎泽区,柳巷街道,山西省太原市迎泽区柳巷街道云路街凯旋大地,112.5545939628775,37.86253259966819,177_88,112.55281429443691,37.862021458165216,1.0,1990224572.0,112.5537443,37.8625695,140106120824.0,0,0,9
太原直送,CWLS028,CWLS028,48,140106120830,（金***成金虎便利店,112.565397,37.865222,1.0,3.0,111.0,47.0,2.297681131113057,2.299806038488022,0.1152049072609295,太原直送,0.1152049072609295,山西省,太原市,迎泽区,柳巷街道,山西省太原市迎泽区柳巷街道西校尉营太原市迎泽区水务局,112.5591328000644,37.86472484695017,178_89,112.55860722265408,37.86651806337164,1.0,2001349108.0,112.5590865,37.8649187,140106120830.0,0,0,9
太原直送,BWLS021,BWLS021,11,140106120838,太原***丰烟酒店,112.559031,37.858676,1.0,2.0,111.0,66.67,2.3059003217426763,2.3089301653679284,0.119556605559874,太原直送,0.119556605559874,山西省,太原市,迎泽区,迎泽街道,山西省太原市迎泽区迎泽街道大南门地铁站B口海外海大酒店,112.55275588455297,37.85816783531548,177_87,112.55281429443691,37.85752485295879,1.0,4053738881.0,112.5531242,37.8589584,140106120838.0,0,0,9
太原直送,BWLS022,BWLS022,14,140106120860,太原***敏烟酒店,112.557898,37.86274,1.0,2.0,111.0,34.33,2.302404031659516,2.3069528777356947,0.1153376488142479,太原直送,0.1153376488142479,山西省,太原市,迎泽区,庙前街道,山西省太原市迎泽区庙前街道南海东街南海街一社区,112.55162011262804,37.862230593208885,177_88,112.55281429443691,37.862021458165216,1.0,2012475125.0,112.5515383,37.8621837,140106120860.0,0,0,9
太原直送,CWLS028,CWLS028,41,140106120873,（金***硕金虎便利店,112.563828,37.866196,1.0,3.0,111.0,34.33,2.297250617144325,2.3002724233848872,0.1137726778888466,太原直送,0.1137726778888466,山西省,太原市,迎泽区,柳巷街道,山西省太原市迎泽区柳巷街道西夹道东米市小区,112.5575610095202,37.86569673254921,178_89,112.55860722265408,37.86651806337164,1.0,7543087918.0,112.5572188,37.8658569,140106120873.0,0,0,9
太原直送,CWLS028,CWLS028,34,140106120874,太原***诺烟酒店,112.564078,37.862977,1.0,3.0,111.0,56.33,2.300227077256721,2.3023090657867824,0.1169041888941499,太原直送,0.1169041888941499,山西省,太原市,迎泽区,柳巷街道,山西省太原市迎泽区柳巷街道小铁匠巷怡华苑,112.55781181844776,37.86247754840706,178_88,112.55860722265408,37.862021458165216,1.0,2001349110.0,112.5578608,37.8624679,140106120874.0,0,0,9
太原直送,BWLS025,BWLS025,33,140106120925,太原***诚烟酒店,112.554473,37.864904,1.0,2.0,111.0,29.67,2.30144099514217,2.307952445068568,0.1123755129954881,太原直送,0.1123755129954881,山西省,太原市,迎泽区,庙前街道,山西省太原市迎泽区庙前街道水西门街国家税务总局山西省税务局,112.54818751348613,37.86438881438466,176_89,112.54702136621977,37.86651806337164,1.0,2001346007.0,112.5481012,37.8652498,140106120925.0,0,0,9
太原直送,BWLS025,BWLS025,28,140106120928,太原***跃烟酒店,112.556335,37.867127,1.0,2.0,111.0,53.33,2.29874075153332,2.3050722988186223,0.1106937018081839,太原直送,0.1106937018081839,山西省,太原市,迎泽区,庙前街道,山西省太原市迎泽区庙前街道都司街中奥·名邸,112.55005332267416,37.86661559982989,177_89,112.55281429443691,37.86651806337164,1.0,2001346002.0,112.5499426,37.8665093,140106120928.0,0,0,9
太原直送,CWLS028,CWLS028,32,140106120966,太原***鸣烟酒店,112.563519,37.86301,1.0,3.0,111.0,62.0,2.300371722357277,2.302691293590608,0.1166981300835578,太原直送,0.1166981300835578,山西省,太原市,迎泽区,柳巷街道,山西省太原市迎泽区柳巷街道云路街怡华苑,112.55725183621072,37.86250972168285,178_88,112.55860722265408,37.862021458165216,1.0,2001349110.0,112.5578608,37.8624679,140106120966.0,0,0,9
太原直送,CWLS028,CWLS028,46,140106120990,太原***华便利店,112.564238,37.864612,1.0,3.0,111.0,87.0,2.2986248178878577,2.3010662799382766,0.1154045085167804,太原直送,0.1154045085167804,山西省,太原市,迎泽区,柳巷街道,山西省太原市迎泽区柳巷街道开化寺街椰子水晶酒店(太原柳巷开化寺店),112.557971905756,37.86411306530528,178_88,112.55860722265408,37.862021458165216,1.0,2001349122.0,112.5579248,37.8641068,140106120990.0,0,0,9
太原直送,BWLS022,BWLS022,20,140106120999,太原***村便利店,112.559342,37.859947,1.0,2.0,111.0,46.33,2.304596185689155,2.3078288968760217,0.1184154821676629,太原直送,0.1184154821676629,山西省,太原市,迎泽区,庙前街道,山西省太原市迎泽区庙前街道解放路锦江之星风尚(太原大南门地铁站店),112.55306735679122,37.85943957221599,177_87,112.55281429443691,37.85752485295879,1.0,4053738883.0,112.5531507,37.8591282,140106120999.0,0,0,9
太原直送,BWLS022,BWLS022,36,140106202824,大同***原分公司,112.558965,37.8647,1.0,2.0,111.0,11.0,2.3002068851164235,2.304830079396309,0.1137415870866934,太原直送,0.1137415870866934,山西省,太原市,迎泽区,庙前街道,山西省太原市迎泽区庙前街道水西门街太原柳巷五洲假日酒店Holiday Inn,112.55268905293212,37.86419275222847,177_88,112.55281429443691,37.862021458165216,1.0,1108626595.0,112.5528446,37.8650612,140106202824.0,0,0,9
太原直送,CWLS027,CWLS027,117,140106208105,山***泽宾馆,112.563315,37.860384,1.0,3.0,111.0,25.0,2.302928450052449,2.3046497373201795,0.1191353472526062,太原直送,0.1191353472526062,山西省,太原市,迎泽区,柳巷街道,山西省太原市迎泽区柳巷街道迎泽宾馆大堂,112.55704777961276,37.859882966476654,178_88,112.55860722265408,37.862021458165216,1.0,2012475103.0,112.5565595,37.8593211,140106208105.0,0,0,9
太原直送,BWLS022,BWLS022,26,140106208984,太原***有限公司,112.555966,37.862848,1.0,2.0,111.0,60.0,2.302914929442684,2.308280896602708,0.1147355217620053,太原直送,0.1147355217620053,山西省,太原市,迎泽区,庙前街道,山西省太原市迎泽区庙前街道南海街新建路一社区,112.54968402753327,37.86233519807199,176_88,112.54702136621977,37.862021458165216,1.0,1513044627.0,112.5496798,37.8622489,140106208984.0,0,0,9
太原直送,BWLS022,BWLS022,32,140106209692,太原***有限公司,112.557568,37.864829,1.0,2.0,111.0,87.0,2.3005276539700605,2.305755566778053,0.1132362160309138,太原直送,0.1132362160309138,山西省,太原市,迎泽区,庙前街道,山西省太原市迎泽区庙前街道水西门街山西税务大厦,112.5512891877178,37.86431937960205,177_89,112.55281429443691,37.86651806337164,1.0,8899495791.0,112.5514421,37.8642848,140106209692.0,0,0,9
太原直送,CWLS025,CWLS025,104,140106212784,山西***际大酒店,112.566606,37.858693,3.0,3.0,111.0,7.0,2.303500985922297,2.303436167562716,0.1217705812953134,太原直送,0.1217705812953134,山西省,太原市,迎泽区,迎泽街道,山西省太原市迎泽区迎泽街道青年路国网山西省电力公司电力科学研究院,112.56034452921575,37.85819642002343,178_87,112.55860722265408,37.85752485295879,1.0,1913060597.0,112.5602719,37.8575595,140106212784.0,0,0,9
太原直送,CWLS027,CWLS027,118,140106218888,山西***有限公司,112.563305,37.860439,1.0,3.0,111.0,87.0,2.3028793900063453,2.30461903863632,0.1190798982196395,太原直送,0.1190798982196395,山西省,太原市,迎泽区,柳巷街道,山西省太原市迎泽区柳巷街道迎泽宾馆大堂,112.55703775546918,37.85993796072871,178_88,112.55860722265408,37.862021458165216,1.0,2012475103.0,112.5565595,37.8593211,140106218888.0,0,0,9
太原直送,BWLS022,BWLS022,28,140106219274,太原***有限公司,112.55595,37.862087,1.0,2.0,111.0,33.67,2.303641565505578,2.3088158783185806,0.1154685601581609,太原直送,0.1154685601581609,山西省,太原市,迎泽区,庙前街道,山西省太原市迎泽区庙前街道南海街信达行,112.54966808144752,37.86157403895837,176_88,112.54702136621977,37.862021458165216,1.0,2012475081.0,112.5496053,37.8612327,140106219274.0,0,0,9
太原直送,BWLS022,BWLS022,29,140106219755,（石***海街加油站,112.555809,37.860339,1.0,2.0,111.0,50.33,2.305343820366061,2.310120834348929,0.1171282676043605,太原直送,0.1171282676043605,山西省,太原市,迎泽区,庙前街道,山西省太原市迎泽区庙前街道南海街粮食局宿舍,112.54952697987844,37.85982548617143,176_88,112.54702136621977,37.862021458165216,1.0,1798355115.0,112.5495204,37.860179,140106219755.0,0,0,9
太原直送,BWLS021,BWLS021,33,140106219782,太原***货便利店,112.555604,37.85468,1.0,2.0,111.0,42.67,2.310775544830346,2.314167421953947,0.1225772241894851,太原直送,0.1225772241894851,山西省,太原市,迎泽区,迎泽街道,山西省太原市迎泽区迎泽街道文源巷山西医科大学第一医院(解放路院区),112.5493221926182,37.854165162304696,176_86,112.54702136621977,37.85302824775237,1.0,1107143147.0,112.550996,37.8541606,140106219782.0,0,0,9
太原直送,CWLS028,CWLS028,153,140106219944,太原***娜便利店,112.565694,37.86454,1.0,3.0,111.0,34.33,2.298235196559746,2.300060934743473,0.1159467688639901,太原直送,0.1159467688639901,山西省,太原市,迎泽区,柳巷街道,山西省太原市迎泽区柳巷街道前所街王府井城市奥莱,112.55943037101298,37.864043149780734,178_88,112.55860722265408,37.862021458165216,1.0,2001349114.0,112.5590406,37.8640611,140106219944.0,0,0,9
太原直送,BWLS021,BWLS021,40,140106220088,山西***有限公司,112.558646,37.857667,1.0,2.0,111.0,28.67,2.3069792847559345,2.309904615736331,0.1204288951414881,太原直送,0.1204288951414881,山西省,太原市,迎泽区,迎泽街道,山西省太原市迎泽区迎泽街道解放南路南宫宿舍东区,112.55237022753984,37.857158013946176,177_87,112.55281429443691,37.85752485295879,1.0,2012475091.0,112.5524797,37.8572201,140106220088.0,0,0,9
太原直送,BWLS022,BWLS022,23,140106220243,太原***有限公司,112.555994,37.862984,1.0,2.0,111.0,82.0,2.302777082231368,2.308167048402911,0.114610850629424,太原直送,0.114610850629424,山西省,太原市,迎泽区,庙前街道,山西省太原市迎泽区庙前街道南海街新建路一社区,112.54971207209348,37.86247127189555,176_88,112.54702136621977,37.862021458165216,1.0,1513044627.0,112.5496798,37.8622489,140106220243.0,0,0,9
太原直送,BWLS022,BWLS022,1,140106220484,山西***有限公司,112.555741,37.864778,1.0,2.0,111.0,79.33,2.301156667475075,2.307117616660668,0.1128108413628728,太原直送,0.1128108413628728,山西省,太原市,迎泽区,庙前街道,山西省太原市迎泽区庙前街道水西门街山西天瑞商务酒店,112.54945831677092,37.86426512285517,176_88,112.54702136621977,37.862021458165216,1.0,8899495788.0,112.5497563,37.8642517,140106220484.0,0,0,9
太原直送,BWLS025,BWLS025,27,140106220770,太原***有限公司,112.554553,37.86618,1.0,2.0,111.0,60.33,2.3002060540953715,2.307018037245916,0.1111574188662168,太原直送,0.1111574188662168,山西省,太原市,迎泽区,庙前街道,山西省太原市迎泽区庙前街道西海街都市广场,112.5482675434357,37.86566518385391,176_89,112.54702136621977,37.86651806337164,1.0,2001346007.0,112.5481012,37.8652498,140106220770.0,0,0,9
太原直送,CWLS025,CWLS025,35,140106220847,太原***有限公司,112.565438,37.857504,1.0,3.0,111.0,34.67,2.304996047689887,2.3051020542555154,0.1225278815045781,太原直送,0.1225278815045781,山西省,太原市,迎泽区,迎泽街道,山西省太原市迎泽区迎泽街道太原市·湖滨国际大酒店-宴会厅东方明珠·湖滨广场,112.55917476319487,37.85700558951594,178_87,112.55860722265408,37.85752485295879,1.0,1913060627.0,112.5601401,37.8569409,140106220847.0,0,0,9
太原直送,BWLS025,BWLS025,26,140106220904,山西***有限公司,112.554593,37.866413,1.0,2.0,111.0,82.67,2.2999724606942564,2.3068289859165976,0.1109413849742249,太原直送,0.1109413849742249,山西省,太原市,迎泽区,庙前街道,山西省太原市迎泽区庙前街道西海街都市广场,112.54830760537504,37.865898298568645,176_89,112.54702136621977,37.86651806337164,1.0,2001346007.0,112.5481012,37.8652498,140106220904.0,0,0,9
太原直送,CWLS028,CWLS028,42,140106220985,（金***解放路分公司,112.56017,37.863246,1.0,3.0,111.0,73.0,2.3012046325196747,2.304956397921012,0.1154760708458698,太原直送,0.1154760708458698,山西省,太原市,迎泽区,柳巷街道,山西省太原市迎泽区柳巷街道解放路七号楼小区,112.5538965995864,37.862740505238754,177_88,112.55281429443691,37.862021458165216,1.0,1990224572.0,112.5537443,37.8625695,140106220985.0,0,0,9
太原直送,BWLS021,BWLS021,7,140106220994,山西***有限公司,112.558386,37.858914,1.0,2.0,111.0,22.33,2.305878506503325,2.309233512624698,0.1191572301205422,太原直送,0.1191572301205422,山西省,太原市,迎泽区,迎泽街道,山西省太原市迎泽区迎泽街道滨河1号海外海大酒店,112.55210955564644,37.85840478113147,177_87,112.55281429443691,37.85752485295879,1.0,2012475089.0,112.5515176,37.8588842,140106220994.0,0,0,9
太原直送,BWLS025,BWLS025,31,140106221004,山西***有限公司,112.555523,37.865778,1.0,2.0,111.0,64.33,2.3002780568959507,2.306589001423968,0.111788193137735,太原直送,0.111788193137735,山西省,太原市,迎泽区,庙前街道,山西省太原市迎泽区庙前街道水西巷都市广场,112.54923972678604,37.86526489939443,176_89,112.54702136621977,37.86651806337164,1.0,1108626597.0,112.5498246,37.8651679,140106221004.0,0,0,9
太原直送,CWLS029,CWLS029,40,140106221053,山西***有限公司,112.560455,37.867983,1.0,3.0,111.0,20.33,2.296620942182662,2.301490699298385,0.111028103847627,太原直送,0.111028103847627,山西省,太原市,迎泽区,庙前街道,山西省太原市迎泽区庙前街道解放路汾酒宾馆,112.55418160102434,37.86747878966269,177_89,112.55281429443691,37.86651806337164,1.0,6366933627.0,112.5541169,37.8675579,140106221053.0,0,0,9
太原直送,BWLS022,BWLS022,47,140106121081,太原***昇烟酒店,112.559905,37.862557,1.0,2.0,111.0,41.67,2.3019420764389324,2.3056229703143103,0.1160619814581808,太原直送,0.1160619814581808,山西省,太原市,迎泽区,柳巷街道,山西省太原市迎泽区柳巷街道解放路凯旋大地,112.55363116310608,37.86205095165069,177_88,112.55281429443691,37.862021458165216,1.0,2001345998.0,112.5535305,37.8621165,140106121081.0,0,0,9
太原直送,BWLS025,BWLS025,41,140107121163,太原***龙烟酒店,112.560257,37.868084,1.0,2.0,111.0,21.33,2.2965878697165043,2.3015650709832225,0.1108726890491906,太原直送,0.1108726890491906,山西省,太原市,迎泽区,庙前街道,山西省太原市迎泽区庙前街道羊市街宽银幕电影院,112.55398320666718,37.86757948442371,177_89,112.55281429443691,37.86651806337164,1.0,6366933627.0,112.5541169,37.8675579,140107121163.0,0,0,9
太原直送,BWLS022,BWLS022,13,140106221142,山西***有限公司,112.55587,37.86115,1.0,2.0,111.0,35.67,2.304555438066524,2.3095185208620848,0.1163568037460598,太原直送,0.1163568037460598,山西省,太原市,迎泽区,庙前街道,山西省太原市迎泽区庙前街道南海街如家酒店(太原迎泽大街大南门地铁站店),112.54958801757748,37.860636734525706,176_88,112.54702136621977,37.862021458165216,1.0,1798355115.0,112.5495204,37.860179,140106221142.0,0,0,9
太原直送,BWLS025,BWLS025,42,140106121152,太原***达便利店,112.559311,37.867375,1.0,2.0,111.0,33.33,2.297560170763759,2.3027395049959525,0.111273945503872,太原直送,0.111273945503872,山西省,太原市,迎泽区,庙前街道,山西省太原市迎泽区庙前街道兴隆街太原市热嘉建筑节能科技有限公司,112.55303543275868,37.86686879663344,177_89,112.55281429443691,37.86651806337164,1.0,6363837950.0,112.5530198,37.8669383,140106121152.0,0,0,9
太原直送,CWLS028,CWLS028,58,140106121167,太原***活便利店,112.562043,37.866557,1.0,3.0,111.0,31.67,2.2974713519911387,2.3013187228823786,0.1128685762114495,太原直送,0.1128685762114495,山西省,太原市,迎泽区,柳巷街道,山西省太原市迎泽区柳巷街道柴市巷晋福小区,112.55577276100954,37.86605507327465,178_89,112.55860722265408,37.86651806337164,1.0,6363848303.0,112.5557302,37.8659531,140106121167.0,0,0,9
太原直送,CWLS028,CWLS028,59,140106221170,太原***有限公司,112.561961,37.865993,1.0,3.0,111.0,37.33,2.2980323725831164,2.30176634782095,0.1133802131061621,太原直送,0.1133802131061621,山西省,太原市,迎泽区,柳巷街道,山西省太原市迎泽区柳巷街道柴市巷晋福小区,112.55569067509312,37.86549084732524,177_89,112.55281429443691,37.86651806337164,1.0,6363848303.0,112.5557302,37.8659531,140106221170.0,0,0,9
太原直送,CWLS028,CWLS028,57,140106121176,太原***奇烟酒行,112.562724,37.861161,1.0,3.0,111.0,25.33,2.3023770063933884,2.304541847673844,0.1182164763685638,太原直送,0.1182164763685638,山西省,太原市,迎泽区,柳巷街道,山西省太原市迎泽区柳巷街道后铁匠巷迎泽公寓,112.55645563048007,37.86065919951376,178_88,112.55860722265408,37.862021458165216,1.0,2012475131.0,112.5562451,37.8606187,140106121176.0,0,0,9
太原直送,CWLS028,CWLS028,60,140106121186,太原***四便利店,112.562925,37.866447,1.0,3.0,111.0,42.67,2.2972972227946435,2.3007545406889816,0.1132476465097618,太原直送,0.1132476465097618,山西省,太原市,迎泽区,柳巷街道,山西省太原市迎泽区柳巷街道姑姑庵东米市小区,112.55665637943385,37.86594641559811,178_89,112.55860722265408,37.86651806337164,1.0,7543087918.0,112.5572188,37.8658569,140106121186.0,0,0,9
太原直送,BWLS022,BWLS022,19,140106121197,（金***利迎泽大街店,112.559342,37.859947,1.0,2.0,111.0,31.33,2.304596185689155,2.3078288968760217,0.1184154821676629,太原直送,0.1184154821676629,山西省,太原市,迎泽区,庙前街道,山西省太原市迎泽区庙前街道解放路锦江之星风尚(太原大南门地铁站店),112.55306735679122,37.85943957221599,177_87,112.55281429443691,37.85752485295879,1.0,4053738883.0,112.5531507,37.8591282,140106121197.0,0,0,9
太原直送,BWLS021,BWLS021,48,140106121225,太原***发烟酒店,112.557737,37.856561,1.0,2.0,111.0,83.33,2.308315973719368,2.311325563198959,0.1212657043850403,太原直送,0.1212657043850403,山西省,太原市,迎泽区,迎泽街道,山西省太原市迎泽区迎泽街道解放南路省歌剧院综合楼,112.55145949804448,37.85605026714647,177_87,112.55281429443691,37.85752485295879,1.0,2012475106.0,112.5516431,37.8572489,140106121225.0,0,0,9
太原直送,CWLS028,CWLS028,86,140106121255,太原***峰便利店,112.566897,37.861594,1.0,3.0,111.0,38.67,2.300654844640764,2.301222269423363,0.1191250377418625,太原直送,0.1191250377418625,山西省,太原市,迎泽区,柳巷街道,山西省太原市迎泽区柳巷街道柳巷南路金座·雅秀,112.56063565569194,37.861098309624765,178_88,112.55860722265408,37.862021458165216,1.0,1913060760.0,112.5604589,37.8608105,140106121255.0,0,0,9
太原直送,CWLS029,CWLS029,1,140106121262,太原***宁便利店,112.561524,37.868003,1.0,3.0,111.0,36.67,2.29626358764428,2.300700718881091,0.1113330362515982,太原直送,0.1113330362515982,山西省,太原市,迎泽区,柳巷街道,山西省太原市迎泽区柳巷街道钟楼街食品街,112.5552526290937,37.867500508663895,177_89,112.55281429443691,37.86651806337164,1.0,7543087946.0,112.555118,37.8675037,140106121262.0,0,0,9
太原直送,BWLS025,BWLS025,52,140106121288,太原***体工商户),112.557779,37.866281,1.0,2.0,111.0,38.67,2.2990837961074835,2.304604216377511,0.1118950510076262,太原直送,0.1118950510076262,山西省,太原市,迎泽区,庙前街道,山西省太原市迎泽区庙前街道庙前街颐园小区,112.55150045593268,37.8657719973481,177_89,112.55281429443691,37.86651806337164,1.0,7843319399.0,112.5515308,37.865828,140106121288.0,0,0,9
太原直送,CWLS027,CWLS027,121,140106121291,太原***佳便利店,112.561363,37.859896,1.0,3.0,111.0,46.67,2.304006469462488,2.306399818169,0.1190272368367838,太原直送,0.1190272368367838,山西省,太原市,迎泽区,柳巷街道,山西省太原市迎泽区柳巷街道迎泽大街,112.55509226804796,37.85939185904325,177_87,112.55281429443691,37.85752485295879,1.0,2012475123.0,112.5553074,37.8592442,140106121291.0,0,0,9
太原直送,BWLS022,BWLS022,24,140106121325,太原***烟酒商行,112.557897,37.863661,1.0,2.0,111.0,41.0,2.301530887363452,2.306319967180833,0.1144496585403353,太原直送,0.1144496585403353,山西省,太原市,迎泽区,庙前街道,山西省太原市迎泽区庙前街道韶九巷梧桐居,112.55161900359832,37.86315174948654,177_88,112.55281429443691,37.862021458165216,1.0,2012475074.0,112.5515842,37.8630702,140106121325.0,0,0,9
