station_name,line_code,line_name,deliver_no,customer_code,customer_name,longitude,latitude,order_cycle_type,order_weekday,city_village_code,avg_order_qty,distance_to_平城直送,distance_to_灵丘中转站,distance_to_太原直送,nearest_station,distance_to_station,province,city,district,township,full_address,lon_84,lat_84,grid_id,LonGridCenter,LatGridCenter,group,customer_osmid_mapping,OSM_X,OSM_Y,BB_RETAIL_CUSTOMER_CODE,kmeans_cluster,dbscan_label,kmeans_label
太原直送,BWLS054,BWLS054,87,140106102014,太原***亮小卖部,112.597482,37.86502,1.0,2.0,112.0,26.0,2.287987248340775,2.276804701972699,0.129578993860885,太原直送,0.129578993860885,山西省,太原市,杏花岭区,[],山西省太原市杏花岭区五龙口街黑土巷小区,112.59124209519956,37.864545773273385,184_89,112.593364791957,37.86651806337164,1.0,7840655059.0,112.5919018,37.8645932,140106102014.0,0,0,89
太原直送,BWLS054,BWLS054,82,140106103228,太原***烟酒商店,112.596449,37.864595,1.0,2.0,112.0,29.33,2.2887043164454384,2.277842160048181,0.1293813643458759,太原直送,0.1293813643458759,山西省,太原市,迎泽区,文庙街道,山西省太原市迎泽区文庙街道黑土巷东横马路黑土巷小区东1区,112.59020928236556,37.86412067664462,183_88,112.58757186373984,37.862021458165216,1.0,7840655049.0,112.5901107,37.8645024,140106103228.0,0,0,89
太原直送,BWLS054,BWLS054,83,140106103229,太原***副食商店,112.596444,37.86442,1.0,2.0,112.0,98.0,2.288872649857562,2.2779675657728244,0.1295266317403482,太原直送,0.1295266317403482,山西省,太原市,迎泽区,文庙街道,山西省太原市迎泽区文庙街道重庆火锅村(黑土巷小区东1区店)黑土巷小区东1区,112.59020430313042,37.86394564626963,183_88,112.58757186373984,37.862021458165216,1.0,7840655049.0,112.5901107,37.8645024,140106103229.0,0,0,89
太原直送,BWLS054,BWLS054,81,140106106452,太原***副食商店,112.596455,37.86499,1.0,2.0,112.0,18.67,2.2883259647604826,2.2775629209420267,0.1290509141889382,太原直送,0.1290509141889382,山西省,太原市,杏花岭区,[],山西省太原市杏花岭区五龙口街黑土巷小区,112.59021523604486,37.86451574502823,183_89,112.58757186373984,37.86651806337164,1.0,7840655049.0,112.5901107,37.8645024,140106106452.0,0,0,89
太原直送,BWLS054,BWLS054,88,140106109283,太原***酒副食店,112.598291,37.86422,1.0,2.0,112.0,94.67,2.288506053862428,2.2767812110771586,0.1306899106013903,太原直送,0.1306899106013903,山西省,太原市,迎泽区,文庙街道,山西省太原市迎泽区文庙街道五龙口街88号黑土巷小区,112.59205103764812,37.863745620965375,184_88,112.593364791957,37.862021458165216,1.0,7840655057.0,112.5919769,37.8636723,140106109283.0,0,0,89
太原直送,BWLS054,BWLS054,78,140106109926,太原***烟酒商店,112.591892,37.864815,1.0,2.0,112.0,45.0,2.2898755986832544,2.2809632535268927,0.1268146331658921,太原直送,0.1268146331658921,山西省,太原市,杏花岭区,[],山西省太原市杏花岭区五龙口街黑土巷小区,112.58565214163887,37.86434004780381,183_89,112.58757186373984,37.86651806337164,1.0,7840655040.0,112.5859756,37.8642954,140106109926.0,0,0,89
太原直送,BWLS054,BWLS054,85,140106110360,（金***燕金虎便利店,112.598291,37.86422,1.0,2.0,112.0,44.67,2.288506053862428,2.2767812110771586,0.1306899106013903,太原直送,0.1306899106013903,山西省,太原市,迎泽区,文庙街道,山西省太原市迎泽区文庙街道五龙口街88号黑土巷小区,112.59205103764812,37.863745620965375,184_88,112.593364791957,37.862021458165216,1.0,7840655057.0,112.5919769,37.8636723,140106110360.0,0,0,89
太原直送,BWLS054,BWLS054,75,140106117470,太原***品经销部,112.590431,37.865113,1.0,2.0,112.0,20.0,2.2900362547741464,2.281806908702181,0.1258188218987876,太原直送,0.1258188218987876,山西省,太原市,杏花岭区,大东关街道,山西省太原市杏花岭区大东关街道红沟路辅路龙翔苑,112.58419081849937,37.86463768943962,182_89,112.5817789355227,37.86651806337164,1.0,1107164150.0,112.584201,37.8642719,140106117470.0,0,0,89
太原直送,BWLS054,BWLS054,84,140106117856,太原***楷便利店,112.596465,37.863822,1.0,2.0,112.0,65.0,2.289436374059128,2.278368806437187,0.1300438396272547,太原直送,0.1300438396272547,山西省,太原市,迎泽区,文庙街道,山西省太原市迎泽区文庙街道黑土巷五马路黑土巷小区东1区,112.59022537010594,37.8633475443302,183_88,112.58757186373984,37.862021458165216,1.0,7840655030.0,112.5901241,37.8632658,140106117856.0,0,0,89
太原直送,BWLS054,BWLS054,86,140106118974,太原***副食商店,112.598276,37.864561,1.0,2.0,112.0,59.67,2.2881854277206184,2.276554460533723,0.130395583564011,太原直送,0.130395583564011,山西省,太原市,迎泽区,文庙街道,山西省太原市迎泽区文庙街道五龙口街88号黑土巷小区,112.59203600131812,37.8640866802155,184_88,112.593364791957,37.862021458165216,1.0,7840655057.0,112.5919769,37.8636723,140106118974.0,0,0,89
太原直送,BWLS054,BWLS054,79,140106119107,太原***芳副食店,112.594715,37.864137,1.0,2.0,112.0,68.67,2.2896652887660256,2.2794060936833995,0.1288529538660208,太原直送,0.1288529538660208,山西省,太原市,迎泽区,文庙街道,山西省太原市迎泽区文庙街道黑土巷中横马路黑土巷小区,112.58847543105465,37.8636624527535,183_88,112.58757186373984,37.862021458165216,1.0,7840655039.0,112.5884108,37.8644154,140106119107.0,0,0,89
太原直送,BWLS054,BWLS054,76,140106119644,（金***芳金虎便利店,112.590686,37.864229,1.0,2.0,112.0,29.67,2.290800647400157,2.282237673986645,0.1267116184294081,太原直送,0.1267116184294081,山西省,太原市,迎泽区,文庙街道,山西省太原市迎泽区文庙街道双塔北路西排房小区,112.58444597998717,37.86375361547386,182_88,112.5817789355227,37.862021458165216,1.0,9124388570.0,112.5844312,37.8636364,140106119644.0,0,0,89
太原直送,BWLS054,BWLS054,80,140106119914,太原***军便利店,112.592155,37.864826,1.0,2.0,112.0,55.67,2.289785192555185,2.280766521273489,0.1269393506088642,太原直送,0.1269393506088642,山西省,太原市,杏花岭区,[],山西省太原市杏花岭区五龙口街黑土巷小区,112.58591517930182,37.864351113320936,183_89,112.58757186373984,37.86651806337164,1.0,7840655040.0,112.5859756,37.8642954,140106119914.0,0,0,89
太原直送,BWLS054,BWLS054,89,140106119923,（唐***鹏唐久便利店,112.600328,37.864826,1.0,2.0,112.0,72.67,2.287315070358692,2.274897765400673,0.1313035830204192,太原直送,0.1313035830204192,山西省,太原市,迎泽区,文庙街道,山西省太原市迎泽区文庙街道黑土东巷五龙花园,112.59408742706692,37.864351562465934,184_89,112.593364791957,37.86651806337164,1.0,7840655062.0,112.5939754,37.8646871,140106119923.0,0,0,89
太原直送,BWLS054,BWLS054,8,140106120468,太原***烟酒商行,112.594818,37.86449,1.0,2.0,112.0,70.33,2.289297671811592,2.279086506469856,0.1286063172398593,太原直送,0.1286063172398593,山西省,太原市,迎泽区,文庙街道,山西省太原市迎泽区文庙街道黑土巷中横马路黑土巷小区中区,112.58857838931182,37.864015525860005,183_88,112.58757186373984,37.862021458165216,1.0,7840655039.0,112.5884108,37.8644154,140106120468.0,0,0,89
太原直送,BWLS054,BWLS054,7,140106120471,太原***浩烟酒店,112.590431,37.865113,1.0,2.0,112.0,46.0,2.2900362547741464,2.281806908702181,0.1258188218987876,太原直送,0.1258188218987876,山西省,太原市,杏花岭区,大东关街道,山西省太原市杏花岭区大东关街道红沟路辅路龙翔苑,112.58419081849937,37.86463768943962,182_89,112.5817789355227,37.86651806337164,1.0,1107164150.0,112.584201,37.8642719,140106120471.0,0,0,89
太原直送,BWLS054,BWLS054,32,140106120785,太原***杰烟酒店,112.599587,37.865216,1.0,2.0,112.0,73.33,2.287166006081109,2.275157567238367,0.1305679247173681,太原直送,0.1305679247173681,山西省,太原市,杏花岭区,大东关街道,山西省太原市杏花岭区大东关街道五龙口街黑土巷小区,112.5933466053923,37.86474170991676,184_89,112.593364791957,37.86651806337164,1.0,7840655062.0,112.5939754,37.8646871,140106120785.0,0,0,89
太原直送,BWLS054,BWLS054,29,140106120826,太原***福果蔬店,112.591467,37.864765,1.0,2.0,112.0,62.0,2.2900524466526986,2.281303589105364,0.1266417702024069,太原直送,0.1266417702024069,山西省,太原市,杏花岭区,[],山西省太原市杏花岭区五龙口街西排房小区,112.58522707610858,37.86428992983552,183_89,112.58757186373984,37.86651806337164,1.0,7840655040.0,112.5859756,37.8642954,140106120826.0,0,0,89
太原直送,BWLS054,BWLS054,28,140106120883,太原***惠零食铺,112.591234,37.864765,1.0,2.0,112.0,23.67,2.29012331647905,2.281471137347128,0.1265238600620451,太原直送,0.1265238600620451,山西省,太原市,杏花岭区,[],山西省太原市杏花岭区五龙口街西排房小区,112.58499403260652,37.86428986645746,183_89,112.58757186373984,37.86651806337164,1.0,12441665494.0,112.5843915,37.8642193,140106120883.0,0,0,89
太原直送,BWLS054,BWLS054,77,140106219740,太原***有限公司,112.591306,37.863111,1.0,2.0,112.0,64.67,2.2916770942375315,2.282569045960269,0.127989829256075,太原直送,0.127989829256075,山西省,太原市,迎泽区,文庙街道,山西省太原市迎泽区文庙街道双塔北路34号西排房小区,112.5850662377041,37.86263560189675,183_88,112.58757186373984,37.862021458165216,1.0,9124388556.0,112.5846995,37.8617956,140106219740.0,0,0,89
太原直送,BWLS056,BWLS056,57,140107101338,（唐***青唐久便利店,112.595075,37.875634,1.0,2.0,111.0,65.0,2.2786010100017537,2.2711620837381945,0.119411301831105,太原直送,0.119411301831105,山西省,太原市,杏花岭区,大东关街道,山西省太原市杏花岭区大东关街道大东关街杏花岭区消防救援大队大东关消防救援站,112.58883409501205,37.87516150911153,183_91,112.58757186373984,37.87551127378448,1.0,7843312043.0,112.5880535,37.8748918,140107101338.0,0,0,89
太原直送,BWLS054,BWLS054,57,140107102123,太原***紫盛商店,112.590988,37.865311,1.0,2.0,111.0,37.33,2.2896780642013868,2.2812686993907603,0.1259284100153712,太原直送,0.1259284100153712,山西省,太原市,杏花岭区,大东关街道,山西省太原市杏花岭区大东关街道航锐小饭桌龙翔苑,112.58474792012916,37.8648358911348,183_89,112.58757186373984,37.86651806337164,1.0,1893531687.0,112.5843871,37.8642844,140107102123.0,0,0,89
太原直送,BWLS054,BWLS054,54,140107103412,太原***国荣烟店,112.592155,37.864858,1.0,2.0,111.0,82.67,2.2897547055518843,2.280744278888359,0.126911844478759,太原直送,0.126911844478759,山西省,太原市,杏花岭区,[],山西省太原市杏花岭区五龙口街黑土巷小区,112.5859151756002,37.86438311883993,183_89,112.58757186373984,37.86651806337164,1.0,7840655040.0,112.5859756,37.8642954,140107103412.0,0,0,89
太原直送,BWLS055,BWLS055,67,140107103765,太原***石琴话吧,112.592002,37.869543,1.0,2.0,111.0,23.67,2.2853382494250174,2.2776005200017,0.1228275811086369,太原直送,0.1228275811086369,山西省,太原市,杏花岭区,大东关街道,山西省太原市杏花岭区大东关街道红沟路山西大学(大东关校区),112.58576161143564,37.86906889649111,183_90,112.58757186373984,37.87101466857806,1.0,7843312046.0,112.5858924,37.8695839,140107103765.0,0,0,89
太原直送,BWLS055,BWLS055,63,140107104891,太原***成林商店,112.595252,37.870957,1.0,2.0,111.0,23.33,2.283003301205017,2.2742795759923613,0.123387770370489,太原直送,0.123387770370489,山西省,太原市,杏花岭区,大东关街道,山西省太原市杏花岭区大东关街道红沟南街24号晋泉小区,112.58901163066604,37.87048369853687,183_90,112.58757186373984,37.87101466857806,1.0,7843312041.0,112.5888633,37.8717397,140107104891.0,0,0,89
太原直送,BWLS054,BWLS054,58,140107105177,太原***鑫鑫商店,112.590532,37.865288,1.0,2.0,111.0,22.67,2.289838807831242,2.2816126926227,0.1257182570114588,太原直送,0.1257182570114588,山西省,太原市,杏花岭区,大东关街道,山西省太原市杏花岭区大东关街道红沟路龙翔苑,112.58429182216273,37.86481275106355,182_89,112.5817789355227,37.86651806337164,1.0,1893531687.0,112.5843871,37.8642844,140107105177.0,0,0,89
太原直送,BWLS055,BWLS055,56,140107105183,(唐***龙利琪唐久便利,112.598164,37.874761,1.0,2.0,111.0,48.0,2.2784956894339303,2.269542782218481,0.1219006471065652,太原直送,0.1219006471065652,山西省,太原市,杏花岭区,杨家峪街道,山西省太原市杏花岭区杨家峪街道红沟北街东一巷,112.5919228439644,37.87428847054836,184_91,112.593364791957,37.87551127378448,1.0,7843312061.0,112.5941672,37.8740595,140107105183.0,0,0,89
太原直送,BWLS055,BWLS055,59,140107108169,太原***鹏程商店,112.594912,37.873376,1.0,2.0,111.0,15.67,2.280801723240756,2.272845438743474,0.1211860167263481,太原直送,0.1211860167263481,山西省,太原市,杏花岭区,大东关街道,山西省太原市杏花岭区大东关街道红沟北街府东美奥花苑,112.58867135986904,37.87290308969266,183_90,112.58757186373984,37.87101466857806,1.0,7843312041.0,112.5888633,37.8717397,140107108169.0,0,0,89
太原直送,BWLS055,BWLS055,78,140107108307,太原***酒销售部,112.59492,37.87337,1.0,2.0,111.0,77.33,2.280805008886553,2.27284383938382,0.1211954597251879,太原直送,0.1211954597251879,山西省,太原市,杏花岭区,大东关街道,山西省太原市杏花岭区大东关街道红沟北街府东美奥花苑,112.58867936042448,37.87289708953413,183_90,112.58757186373984,37.87101466857806,1.0,7843312041.0,112.5888633,37.8717397,140107108307.0,0,0,89
太原直送,BWLS055,BWLS055,70,140107108832,太原***源便利店,112.594413,37.869545,1.0,2.0,111.0,42.33,2.284603325838422,2.275863824316599,0.1241130001409988,太原直送,0.1241130001409988,山西省,太原市,杏花岭区,大东关街道,山西省太原市杏花岭区大东关街道红沟南街山西省城乡建设学校(东校区),112.58817280460804,37.86907135271094,183_90,112.58757186373984,37.87101466857806,1.0,7843312044.0,112.5878853,37.8690886,140107108832.0,0,0,89
太原直送,BWLS055,BWLS055,58,140107109466,（唐***嘉唐久便利店,112.595227,37.871983,1.0,2.0,111.0,55.33,2.282033272123788,2.2735852737289206,0.1225188555121162,太原直送,0.1225188555121162,山西省,太原市,杏花岭区,大东关街道,山西省太原市杏花岭区大东关街道府东街晋泉小区,112.58898651284132,37.871509876832,183_90,112.58757186373984,37.87101466857806,1.0,7843312041.0,112.5888633,37.8717397,140107109466.0,0,0,89
太原直送,BWLS054,BWLS054,70,140107109905,太原***酒经销部,112.589847,37.869448,1.0,2.0,111.0,48.0,2.2860858513286404,2.2792184957923576,0.1217875524879317,太原直送,0.1217875524879317,山西省,太原市,杏花岭区,大东关街道,山西省太原市杏花岭区大东关街道白龙庙街白龙庙小区,112.58360616721576,37.8689732525326,182_90,112.5817789355227,37.87101466857806,1.0,7840655019.0,112.5820582,37.8696753,140107109905.0,0,0,89
太原直送,BWLS054,BWLS054,68,140107109979,（金***超金虎便利店,112.589788,37.869509,1.0,2.0,111.0,31.67,2.286045781746506,2.2792186981788287,0.1217049110800353,太原直送,0.1217049110800353,山西省,太原市,杏花岭区,大东关街道,山西省太原市杏花岭区大东关街道白龙庙街太铁白龙苑,112.58354714393415,37.86903424310938,182_90,112.5817789355227,37.87101466857806,1.0,7840655019.0,112.5820582,37.8696753,140107109979.0,0,0,89
太原直送,BWLS054,BWLS054,69,140107110342,太原***联盛超市,112.589788,37.869509,1.0,2.0,111.0,59.33,2.286045781746506,2.2792186981788287,0.1217049110800353,太原直送,0.1217049110800353,山西省,太原市,杏花岭区,大东关街道,山西省太原市杏花岭区大东关街道白龙庙街太铁白龙苑,112.58354714393415,37.86903424310938,182_90,112.5817789355227,37.87101466857806,1.0,7840655019.0,112.5820582,37.8696753,140107110342.0,0,0,89
太原直送,BWLS054,BWLS054,66,140107110908,太原***江便利店,112.591325,37.868691,1.0,2.0,111.0,23.0,2.2863559727260334,2.278679230281657,0.1231993527905065,太原直送,0.1231993527905065,山西省,太原市,杏花岭区,大东关街道,山西省太原市杏花岭区大东关街道白龙庙街白龙庙小区,112.58508459578437,37.86821657282373,183_89,112.58757186373984,37.86651806337164,1.0,7546957562.0,112.5852847,37.8681062,140107110908.0,0,0,89
太原直送,BWLS054,BWLS054,46,140107111073,（金***鑫金虎便利店,112.599061,37.865192,1.0,2.0,111.0,69.33,2.287347246430455,2.275551686349921,0.1302974513373166,太原直送,0.1302974513373166,山西省,太原市,杏花岭区,大东关街道,山西省太原市杏花岭区大东关街道五龙口街黑土巷小区,112.59282074818285,37.86471774818789,184_89,112.593364791957,37.86651806337164,1.0,7840655059.0,112.5919018,37.8645932,140107111073.0,0,0,89
太原直送,BWLS054,BWLS054,62,140107114514,太原***江便利店,112.590925,37.866267,1.0,2.0,111.0,24.33,2.2887866267915835,2.280649986582991,0.1250725885236223,太原直送,0.1250725885236223,山西省,太原市,杏花岭区,大东关街道,山西省太原市杏花岭区大东关街道小沟街景和苑小区,112.5846847963472,37.86579203828502,183_89,112.58757186373984,37.86651806337164,1.0,7840655026.0,112.5842169,37.8657799,140107114514.0,0,0,89
太原直送,BWLS054,BWLS054,60,140107115247,太原***呈便利店,112.597217,37.86587,1.0,2.0,111.0,33.67,2.287256896001188,2.2764032976539963,0.1287211680532751,太原直送,0.1287211680532751,山西省,太原市,杏花岭区,大东关街道,山西省太原市杏花岭区大东关街道小沟街新煤机小区,112.59097703801748,37.8653959186488,184_89,112.593364791957,37.86651806337164,1.0,7840655029.0,112.5901643,37.8653239,140107115247.0,0,0,89
太原直送,BWLS054,BWLS054,53,140107115837,太原***龙烟酒店,112.592155,37.864858,1.0,2.0,111.0,86.67,2.2897547055518843,2.280744278888359,0.126911844478759,太原直送,0.126911844478759,山西省,太原市,杏花岭区,[],山西省太原市杏花岭区五龙口街黑土巷小区,112.5859151756002,37.86438311883993,183_89,112.58757186373984,37.86651806337164,1.0,7840655040.0,112.5859756,37.8642954,140107115837.0,0,0,89
太原直送,BWLS054,BWLS054,74,140107115939,（金***子金虎便利店,112.58993,37.866175,1.0,2.0,111.0,56.67,2.289177440636049,2.2814298771516106,0.1246488491443038,太原直送,0.1246488491443038,山西省,太原市,杏花岭区,大东关街道,山西省太原市杏花岭区大东关街道小沟街龙翔苑,112.5836895683666,37.86569971054045,182_89,112.5817789355227,37.86651806337164,1.0,7840655008.0,112.5836527,37.8658235,140107115939.0,0,0,89
太原直送,BWLS054,BWLS054,44,140107116055,太原***首佳商店,112.599061,37.865192,1.0,2.0,111.0,96.33,2.287347246430455,2.275551686349921,0.1302974513373166,太原直送,0.1302974513373166,山西省,太原市,杏花岭区,大东关街道,山西省太原市杏花岭区大东关街道五龙口街黑土巷小区,112.59282074818285,37.86471774818789,184_89,112.593364791957,37.86651806337164,1.0,7840655059.0,112.5919018,37.8645932,140107116055.0,0,0,89
太原直送,BWLS054,BWLS054,67,140107116707,太原***平粮油店,112.590389,37.869096,1.0,2.0,111.0,63.33,2.2862556235926457,2.279072226773428,0.1223682909294727,太原直送,0.1223682909294727,山西省,太原市,杏花岭区,大东关街道,山西省太原市杏花岭区大东关街道白龙庙街太铁白龙苑,112.5841483475928,37.86862136831244,182_89,112.5817789355227,37.86651806337164,1.0,7546957562.0,112.5852847,37.8681062,140107116707.0,0,0,89
太原直送,BWLS056,BWLS056,62,140107116804,太原***源便利店,112.597557,37.876253,1.0,2.0,111.0,77.67,2.277257678243727,2.268944565038338,0.1203343915761377,太原直送,0.1203343915761377,山西省,太原市,杏花岭区,大东关街道,山西省太原市杏花岭区大东关街道大东关街建材小区,112.59131578304094,37.87578074682014,184_91,112.593364791957,37.87551127378448,1.0,7843312062.0,112.5933467,37.8762558,140107116804.0,0,0,89
太原直送,BWLS056,BWLS056,59,140107116817,太原***宇便利店,112.596844,37.876066,1.0,2.0,111.0,67.33,2.2776521100277765,2.269587881987603,0.1200718481993175,太原直送,0.1200718481993175,山西省,太原市,杏花岭区,大东关街道,山西省太原市杏花岭区大东关街道大东关街,112.59060290942762,37.875593704668844,184_91,112.593364791957,37.87551127378448,1.0,7843312043.0,112.5880535,37.8748918,140107116817.0,0,0,89
太原直送,BWLS054,BWLS054,72,140107116894,太原***豪熟肉店,112.590423,37.866553,1.0,2.0,111.0,64.0,2.288667149633598,2.280812626294624,0.124571300868214,太原直送,0.124571300868214,山西省,太原市,杏花岭区,大东关街道,山西省太原市杏花岭区大东关街道红沟路恒台花园,112.5841826499968,37.866077936104745,182_89,112.5817789355227,37.86651806337164,1.0,7840655007.0,112.5840997,37.8657954,140107116894.0,0,0,89
太原直送,BWLS054,BWLS054,73,140107116895,太原***青便利店,112.590255,37.866555,1.0,2.0,111.0,58.0,2.2887164494869183,2.280932146813009,0.1244845210779232,太原直送,0.1244845210779232,山西省,太原市,杏花岭区,大东关街道,山西省太原市杏花岭区大东关街道红沟路3号红沟路便民市场,112.5840146086194,37.86607988313887,182_89,112.5817789355227,37.86651806337164,1.0,7840655007.0,112.5840997,37.8657954,140107116895.0,0,0,89
太原直送,BWLS056,BWLS056,58,140107117467,太原***食店二部,112.596039,37.875868,1.0,2.0,111.0,88.0,2.2780851319169355,2.270305172202624,0.1197694374245821,太原直送,0.1197694374245821,山西省,太原市,杏花岭区,大东关街道,山西省太原市杏花岭区大东关街道大东关街珠辉苑小区,112.58979801605332,37.8753956325491,183_91,112.58757186373984,37.87551127378448,1.0,7843312043.0,112.5880535,37.8748918,140107117467.0,0,0,89
太原直送,BWLS055,BWLS055,41,140107118184,（唐***萍唐久便利店,112.600336,37.871318,1.0,2.0,111.0,55.67,2.2811217594179376,2.270372702082412,0.1259649573254362,太原直送,0.1259649573254362,山西省,太原市,杏花岭区,大东关街道,山西省太原市杏花岭区大东关街道红沟东巷府东公馆,112.59409467328872,37.870844692940935,184_90,112.593364791957,37.87101466857806,1.0,10289844699.0,112.593859,37.8717877,140107118184.0,0,0,89
太原直送,BWLS054,BWLS054,56,140107118597,太原***酒汇商行,112.590255,37.866555,1.0,2.0,111.0,84.67,2.2887164494869183,2.280932146813009,0.1244845210779232,太原直送,0.1244845210779232,山西省,太原市,杏花岭区,大东关街道,山西省太原市杏花岭区大东关街道红沟路3号红沟路便民市场,112.5840146086194,37.86607988313887,182_89,112.5817789355227,37.86651806337164,1.0,7840655007.0,112.5840997,37.8657954,140107118597.0,0,0,89
太原直送,BWLS055,BWLS055,73,140107118915,太原***日便利店,112.597447,37.869387,1.0,2.0,111.0,25.33,2.283834784499084,2.273791705179033,0.1259108448546006,太原直送,0.1259108448546006,山西省,太原市,杏花岭区,大东关街道,山西省太原市杏花岭区大东关街道红沟南街21号建材二小区,112.59120659562412,37.86891353225312,184_90,112.593364791957,37.87101466857806,1.0,10289844698.0,112.5939219,37.8680156,140107118915.0,0,0,89
太原直送,BWLS054,BWLS054,65,140107119062,太原***福源超市,112.591325,37.868691,1.0,2.0,111.0,47.0,2.2863559727260334,2.278679230281657,0.1231993527905065,太原直送,0.1231993527905065,山西省,太原市,杏花岭区,大东关街道,山西省太原市杏花岭区大东关街道白龙庙街白龙庙小区,112.58508459578437,37.86821657282373,183_89,112.58757186373984,37.86651806337164,1.0,7546957562.0,112.5852847,37.8681062,140107119062.0,0,0,89
太原直送,BWLS056,BWLS056,61,140107119064,太原***酒经销部,112.596061,37.875875,1.0,2.0,111.0,52.0,2.278071781085922,2.270284466508321,0.1197763350917048,太原直送,0.1197763350917048,山西省,太原市,杏花岭区,大东关街道,山西省太原市杏花岭区大东关街道大东关街珠辉苑小区,112.58982001344344,37.875402635183406,183_91,112.58757186373984,37.87551127378448,1.0,7843312043.0,112.5880535,37.8748918,140107119064.0,0,0,89
太原直送,BWLS054,BWLS054,64,140107119066,太原***佳便利店,112.594393,37.867117,1.0,2.0,111.0,53.67,2.2869229440626104,2.2775651243573702,0.1261515131736401,太原直送,0.1261515131736401,山西省,太原市,杏花岭区,大东关街道,山西省太原市杏花岭区大东关街道小沟坡东街瑞生佳园,112.58815308527436,37.86664292644608,183_89,112.58757186373984,37.86651806337164,1.0,7546957561.0,112.5878477,37.8668383,140107119066.0,0,0,89
太原直送,BWLS055,BWLS055,61,140107119169,太原***晨便利店,112.592127,37.87053,1.0,2.0,111.0,35.67,2.284360066251592,2.276825653722738,0.122056118752809,太原直送,0.122056118752809,山西省,太原市,杏花岭区,大东关街道,山西省太原市杏花岭区大东关街道红沟路白龙庙小区,112.58588651544956,37.87005609961505,183_90,112.58757186373984,37.87101466857806,1.0,7843312046.0,112.5858924,37.8695839,140107119169.0,0,0,89
太原直送,BWLS055,BWLS055,72,140107119204,太原***邻便利店,112.597466,37.869329,1.0,2.0,111.0,36.33,2.283884326459858,2.273818370267071,0.1259695952402767,太原直送,0.1259695952402767,山西省,太原市,杏花岭区,大东关街道,山西省太原市杏花岭区大东关街道红沟南街建材二小区,112.59122559926968,37.868855522121336,184_90,112.593364791957,37.87101466857806,1.0,10289844698.0,112.5939219,37.8680156,140107119204.0,0,0,89
太原直送,BWLS055,BWLS055,62,140107119244,太原***烟酒商行,112.592127,37.87053,1.0,2.0,111.0,69.0,2.284360066251592,2.276825653722738,0.122056118752809,太原直送,0.122056118752809,山西省,太原市,杏花岭区,大东关街道,山西省太原市杏花岭区大东关街道红沟路白龙庙小区,112.58588651544956,37.87005609961505,183_90,112.58757186373984,37.87101466857806,1.0,7843312046.0,112.5858924,37.8695839,140107119244.0,0,0,89
太原直送,BWLS054,BWLS054,50,140107119261,太原***哥便利店,112.602555,37.87231,1.0,2.0,111.0,62.0,2.2795077711727605,2.2680883939939407,0.1264659453489325,太原直送,0.1264659453489325,山西省,太原市,杏花岭区,大东关街道,山西省太原市杏花岭区大东关街道府东公馆(北门),112.5963127060642,37.8718364852669,185_90,112.59915772017418,37.87101466857806,1.0,4179021714.0,112.5979675,37.8719181,140107119261.0,0,0,89
太原直送,BWLS054,BWLS054,51,140107119290,太原***姚便利店,112.602555,37.87231,1.0,2.0,111.0,33.0,2.2795077711727605,2.2680883939939407,0.1264659453489325,太原直送,0.1264659453489325,山西省,太原市,杏花岭区,大东关街道,山西省太原市杏花岭区大东关街道府东公馆(北门),112.5963127060642,37.8718364852669,185_90,112.59915772017418,37.87101466857806,1.0,4179021714.0,112.5979675,37.8719181,140107119290.0,0,0,89
太原直送,BWLS056,BWLS056,56,140107119467,（金***念金虎便利店,112.593424,37.87516,1.0,2.0,111.0,49.33,2.2795550199427064,2.2726806873894523,0.1188755241839097,太原直送,0.1188755241839097,山西省,太原市,杏花岭区,大东关街道,山西省太原市杏花岭区大东关街道大东关街宇星小区,112.5871831157782,37.87468718900615,183_91,112.58757186373984,37.87551127378448,1.0,7843312043.0,112.5880535,37.8748918,140107119467.0,0,0,89
太原直送,BWLS054,BWLS054,43,140107119534,太原***类经销部,112.599061,37.865192,1.0,2.0,111.0,35.0,2.287347246430455,2.275551686349921,0.1302974513373166,太原直送,0.1302974513373166,山西省,太原市,杏花岭区,大东关街道,山西省太原市杏花岭区大东关街道五龙口街黑土巷小区,112.59282074818285,37.86471774818789,184_89,112.593364791957,37.86651806337164,1.0,7840655059.0,112.5919018,37.8645932,140107119534.0,0,0,89
太原直送,BWLS055,BWLS055,65,140107119573,（唐***金千唐久便利店,112.592085,37.870167,1.0,2.0,111.0,63.67,2.284718612017679,2.277107754275365,0.1223415769066218,太原直送,0.1223415769066218,山西省,太原市,杏花岭区,大东关街道,山西省太原市杏花岭区大东关街道红沟路白龙庙小区,112.5858445514308,37.86969302587878,183_90,112.58757186373984,37.87101466857806,1.0,7843312046.0,112.5858924,37.8695839,140107119573.0,0,0,89
太原直送,BWLS054,BWLS054,48,140107119586,太原***鲜便利店,112.597474,37.865382,1.0,2.0,111.0,94.67,2.28764454063869,2.27655843492518,0.1292705050736675,太原直送,0.1292705050736675,山西省,太原市,杏花岭区,大东关街道,山西省太原市杏花岭区大东关街道五龙口街71号中国石油黑土巷加油站,112.59123405462203,37.864907835779206,184_89,112.593364791957,37.86651806337164,1.0,7840655059.0,112.5919018,37.8645932,140107119586.0,0,0,89
太原直送,BWLS055,BWLS055,79,140107119788,太原***源便利店,112.600221,37.870397,1.0,2.0,111.0,28.0,2.282034594752674,2.271095882305498,0.1266501768652573,太原直送,0.1266501768652573,山西省,太原市,杏花岭区,大东关街道,山西省太原市杏花岭区大东关街道红沟东巷府东公馆,112.59397981660968,37.8699235450308,184_90,112.593364791957,37.87101466857806,1.0,10289844699.0,112.593859,37.8717877,140107119788.0,0,0,89
太原直送,BWLS054,BWLS054,59,140107119836,太原***家便利店,112.59339,37.866103,1.0,2.0,111.0,53.0,2.288193449399982,2.278991023534754,0.1264843034095496,太原直送,0.1264843034095496,山西省,太原市,杏花岭区,大东关街道,山西省太原市杏花岭区大东关街道小沟街龙翔苑,112.58715016137609,37.86562859146239,183_89,112.58757186373984,37.86651806337164,1.0,7546957561.0,112.5878477,37.8668383,140107119836.0,0,0,89
太原直送,BWLS055,BWLS055,71,140107119889,太原***红便利店,112.594509,37.869436,1.0,2.0,111.0,33.33,2.284678045057769,2.275870458547671,0.1242566042711608,太原直送,0.1242566042711608,山西省,太原市,杏花岭区,大东关街道,山西省太原市杏花岭区大东关街道红沟南街16号幸福小城,112.58826881804193,37.86896234642178,183_90,112.58757186373984,37.87101466857806,1.0,7843312044.0,112.5878853,37.8690886,140107119889.0,0,0,89
太原直送,BWLS054,BWLS054,71,140107119934,太原***铖铖酒行,112.589961,37.86943,1.0,2.0,111.0,12.33,2.286068184299188,2.279148851451783,0.1218615829250534,太原直送,0.1218615829250534,山西省,太原市,杏花岭区,大东关街道,山西省太原市杏花岭区大东关街道白龙庙街白龙庙小区,112.5837202000774,37.868955287783,182_90,112.5817789355227,37.87101466857806,1.0,7546957562.0,112.5852847,37.8681062,140107119934.0,0,0,89
太原直送,BWLS054,BWLS054,52,140107119962,（金***琴金虎便利店,112.596574,37.865045,1.0,2.0,111.0,34.0,2.288237580025505,2.277439193407361,0.1290683205321884,太原直送,0.1290683205321884,山西省,太原市,杏花岭区,[],山西省太原市杏花岭区五龙口街黑土巷小区,112.59033421681872,37.86457075957031,183_89,112.58757186373984,37.86651806337164,1.0,7840655049.0,112.5901107,37.8645024,140107119962.0,0,0,89
太原直送,BWLS055,BWLS055,57,140107120015,（金***奥金虎便利店,112.594669,37.874367,1.0,2.0,111.0,51.0,2.2799314695674524,2.272333130011752,0.1202285538131406,太原直送,0.1202285538131406,山西省,太原市,杏花岭区,大东关街道,山西省太原市杏花岭区大东关街道红沟北街府东美奥花苑,112.58842824767063,37.87389423675094,183_91,112.58757186373984,37.87551127378448,1.0,7843312043.0,112.5880535,37.8748918,140107120015.0,0,0,89
太原直送,BWLS055,BWLS055,74,140107120062,太原***鲜便利店,112.597447,37.869387,1.0,2.0,111.0,45.67,2.283834784499084,2.273791705179033,0.1259108448546006,太原直送,0.1259108448546006,山西省,太原市,杏花岭区,大东关街道,山西省太原市杏花岭区大东关街道红沟南街21号建材二小区,112.59120659562412,37.86891353225312,184_90,112.593364791957,37.87101466857806,1.0,10289844698.0,112.5939219,37.8680156,140107120062.0,0,0,89
太原直送,BWLS055,BWLS055,36,140107120188,太原***昌益超市,112.598344,37.872489,1.0,2.0,111.0,68.67,2.280606758918554,2.2709909746469705,0.1238594312799753,太原直送,0.1238594312799753,山西省,太原市,杏花岭区,大东关街道,山西省太原市杏花岭区大东关街道府东街半山中庭小区,112.5921030697782,37.87201606148832,184_90,112.593364791957,37.87101466857806,1.0,10289844697.0,112.5938565,37.8719341,140107120188.0,0,0,89
太原直送,BWLS055,BWLS055,75,140107120254,太原***盛和商行,112.591838,37.871951,1.0,2.0,111.0,59.33,2.2830947197707303,2.276048262238742,0.1206997311057423,太原直送,0.1206997311057423,山西省,太原市,杏花岭区,大东关街道,山西省太原市杏花岭区大东关街道府东街,112.585597307562,37.871477279359375,183_90,112.58757186373984,37.87101466857806,1.0,4202836738.0,112.5858801,37.8714245,140107120254.0,0,0,89
太原直送,BWLS055,BWLS055,60,140107120270,太原***圆副食店,112.593766,37.872167,1.0,2.0,111.0,47.67,2.282301880464765,2.2745095499909413,0.1215607416273875,太原直送,0.1215607416273875,山西省,太原市,杏花岭区,大东关街道,山西省太原市杏花岭区大东关街道府东街府东绿苑,112.58752548196816,37.871693716862815,183_90,112.58757186373984,37.87101466857806,1.0,7843312041.0,112.5888633,37.8717397,140107120270.0,0,0,89
太原直送,BWLS054,BWLS054,63,140107120291,太原***星便利店,112.590925,37.866267,1.0,2.0,111.0,79.0,2.2887866267915835,2.280649986582991,0.1250725885236223,太原直送,0.1250725885236223,山西省,太原市,杏花岭区,大东关街道,山西省太原市杏花岭区大东关街道小沟街景和苑小区,112.5846847963472,37.86579203828502,183_89,112.58757186373984,37.86651806337164,1.0,7840655026.0,112.5842169,37.8657799,140107120291.0,0,0,89
太原直送,BWLS055,BWLS055,14,140107120344,太原***海烟酒店,112.592129,37.871152,1.0,2.0,111.0,33.0,2.2837670190299595,2.276392728470636,0.1215306404862543,太原直送,0.1215306404862543,山西省,太原市,杏花岭区,大东关街道,山西省太原市杏花岭区大东关街道红沟路东晟龙城苑,112.58588844376456,37.87067820946239,183_90,112.58757186373984,37.87101466857806,1.0,4202836738.0,112.5858801,37.8714245,140107120344.0,0,0,89
太原直送,BWLS054,BWLS054,6,140107120357,太原***百货商店,112.590833,37.86757,1.0,2.0,111.0,25.67,2.287573579279361,2.279811491623371,0.123905394269176,太原直送,0.123905394269176,山西省,太原市,杏花岭区,大东关街道,山西省太原市杏花岭区大东关街道红沟路恒台花园,112.58459262593396,37.86709523758584,182_89,112.5817789355227,37.86651806337164,1.0,7546957562.0,112.5852847,37.8681062,140107120357.0,0,0,89
太原直送,BWLS055,BWLS055,30,140107120549,太原***子烟酒店,112.598285,37.872486,1.0,2.0,111.0,78.0,2.280627458430022,2.2710354979792746,0.1238280538206097,太原直送,0.1238280538206097,山西省,太原市,杏花岭区,大东关街道,山西省太原市杏花岭区大东关街道府东街半山中庭小区,112.5920440824941,37.872013063117386,184_90,112.593364791957,37.87101466857806,1.0,10289844697.0,112.5938565,37.8719341,140107120549.0,0,0,89
太原直送,BWLS054,BWLS054,18,140107120620,太原***宇烟酒店,112.600585,37.865247,1.0,2.0,111.0,61.33,2.2868362895887446,2.2744200664743133,0.1310974358254183,太原直送,0.1310974358254183,山西省,太原市,杏花岭区,大东关街道,山西省太原市杏花岭区大东关街道五龙口街五龙花园,112.59434429372098,37.8647726017622,184_89,112.593364791957,37.86651806337164,1.0,7840655062.0,112.5939754,37.8646871,140107120620.0,0,0,89
太原直送,BWLS054,BWLS054,25,140107120650,太原***祥烟酒店,112.593243,37.866099,1.0,2.0,111.0,60.0,2.288241882768516,2.279099491933819,0.1264109601102694,太原直送,0.1264109601102694,山西省,太原市,杏花岭区,大东关街道,山西省太原市杏花岭区大东关街道小沟街龙翔苑,112.58700315096928,37.8656245636929,183_89,112.58757186373984,37.86651806337164,1.0,7546957561.0,112.5878477,37.8668383,140107120650.0,0,0,89
太原直送,BWLS055,BWLS055,21,140107120693,太原***类经营部,112.592085,37.870167,1.0,2.0,111.0,64.33,2.284718612017679,2.277107754275365,0.1223415769066218,太原直送,0.1223415769066218,山西省,太原市,杏花岭区,大东关街道,山西省太原市杏花岭区大东关街道红沟路白龙庙小区,112.5858445514308,37.86969302587878,183_90,112.58757186373984,37.87101466857806,1.0,7843312046.0,112.5858924,37.8695839,140107120693.0,0,0,89
太原直送,BWLS056,BWLS056,17,140107120700,太原***轩烟酒店,112.596061,37.875875,1.0,2.0,111.0,60.67,2.278071781085922,2.270284466508321,0.1197763350917048,太原直送,0.1197763350917048,山西省,太原市,杏花岭区,大东关街道,山西省太原市杏花岭区大东关街道大东关街珠辉苑小区,112.58982001344344,37.875402635183406,183_91,112.58757186373984,37.87551127378448,1.0,7843312043.0,112.5880535,37.8748918,140107120700.0,0,0,89
太原直送,BWLS054,BWLS054,27,140107120710,太原***生烟酒店,112.590846,37.867555,1.0,2.0,111.0,59.67,2.2875839045606576,2.279812546597633,0.1239249383820661,太原直送,0.1239249383820661,山西省,太原市,杏花岭区,大东关街道,山西省太原市杏花岭区大东关街道红沟路恒台花园,112.58460563047863,37.86708023880925,182_89,112.5817789355227,37.86651806337164,1.0,7546957562.0,112.5852847,37.8681062,140107120710.0,0,0,89
太原直送,BWLS054,BWLS054,26,140107120751,太原***通烟酒行,112.594393,37.867117,1.0,2.0,111.0,57.33,2.2869229440626104,2.2775651243573702,0.1261515131736401,太原直送,0.1261515131736401,山西省,太原市,杏花岭区,大东关街道,山西省太原市杏花岭区大东关街道小沟坡东街瑞生佳园,112.58815308527436,37.86664292644608,183_89,112.58757186373984,37.86651806337164,1.0,7546957561.0,112.5878477,37.8668383,140107120751.0,0,0,89
太原直送,BWLS054,BWLS054,22,140107120755,太原***烟酒商行,112.593656,37.864943,1.0,2.0,111.0,103.33,2.2892180684340704,2.279606278732364,0.1276128824570614,太原直送,0.1276128824570614,山西省,太原市,杏花岭区,大东关街道,山西省太原市杏花岭区大东关街道五龙口街黑土巷北区,112.58741631209064,37.86446843749828,183_89,112.58757186373984,37.86651806337164,1.0,7840655039.0,112.5884108,37.8644154,140107120755.0,0,0,89
太原直送,BWLS055,BWLS055,25,140107120769,太原***酒便利店,112.600336,37.871318,1.0,2.0,111.0,34.0,2.2811217594179376,2.270372702082412,0.1259649573254362,太原直送,0.1259649573254362,山西省,太原市,杏花岭区,大东关街道,山西省太原市杏花岭区大东关街道红沟东巷府东公馆,112.59409467328872,37.870844692940935,184_90,112.593364791957,37.87101466857806,1.0,10289844699.0,112.593859,37.8717877,140107120769.0,0,0,89
太原直送,BWLS056,BWLS056,15,140107120780,太原***利便利店,112.592297,37.874559,1.0,2.0,111.0,54.33,2.2804709729886943,2.2739097016647327,0.1187547871540358,太原直送,0.1187547871540358,山西省,太原市,杏花岭区,大东关街道,山西省太原市杏花岭区大东关街道红沟路大东关塑料三厂宿舍,112.58605607256524,37.87408585151736,183_91,112.58757186373984,37.87551127378448,1.0,5765923763.0,112.5859665,37.8743744,140107120780.0,0,0,89
太原直送,BWLS056,BWLS056,16,140107120794,太原***益烟酒店,112.595075,37.875634,1.0,2.0,111.0,47.67,2.2786010100017537,2.2711620837381945,0.119411301831105,太原直送,0.119411301831105,山西省,太原市,杏花岭区,大东关街道,山西省太原市杏花岭区大东关街道大东关街杏花岭区消防救援大队大东关消防救援站,112.58883409501205,37.87516150911153,183_91,112.58757186373984,37.87551127378448,1.0,7843312043.0,112.5880535,37.8748918,140107120794.0,0,0,89
太原直送,BWLS055,BWLS055,66,140107120817,（金***一凡金虎便利店,112.59161,37.868721,1.0,2.0,111.0,67.67,2.28624058309378,2.278453228796234,0.1233221219935817,太原直送,0.1233221219935817,山西省,太原市,杏花岭区,大东关街道,山西省太原市杏花岭区大东关街道红沟路白龙庙小区,112.58536964360891,37.86824665409225,183_89,112.58757186373984,37.86651806337164,1.0,7546957562.0,112.5852847,37.8681062,140107120817.0,0,0,89
太原直送,BWLS054,BWLS054,3,140107120836,（金***明远金虎便利店,112.602555,37.87231,1.0,2.0,111.0,57.0,2.2795077711727605,2.2680883939939407,0.1264659453489325,太原直送,0.1264659453489325,山西省,太原市,杏花岭区,大东关街道,山西省太原市杏花岭区大东关街道府东公馆(北门),112.5963127060642,37.8718364852669,185_90,112.59915772017418,37.87101466857806,1.0,4179021714.0,112.5979675,37.8719181,140107120836.0,0,0,89
太原直送,BWLS054,BWLS054,23,140107120865,太原***烟酒商行,112.592026,37.866206,1.0,2.0,111.0,62.33,2.2885097006868897,2.2799003125709216,0.1256885931896787,太原直送,0.1256885931896787,山西省,太原市,杏花岭区,大东关街道,山西省太原市杏花岭区大东关街道小沟街白龙花园,112.58578600106304,37.86573132104065,183_89,112.58757186373984,37.86651806337164,1.0,7840655040.0,112.5859756,37.8642954,140107120865.0,0,0,89
太原直送,BWLS055,BWLS055,10,140107120899,太原***丰便利店,112.590713,37.873001,1.0,2.0,111.0,32.0,2.2824381243573715,2.2761313571639503,0.1192115085216123,太原直送,0.1192115085216123,山西省,太原市,杏花岭区,大东关街道,山西省太原市杏花岭区大东关街道大东关南巷酒厂门店,112.58447197114847,37.87252715514885,182_90,112.5817789355227,37.87101466857806,1.0,7843312021.0,112.5847206,37.8715946,140107120899.0,0,0,89
太原直送,BWLS055,BWLS055,17,140107120909,太原***桂玲商店,112.599748,37.874566,1.0,2.0,111.0,32.67,2.2782025724263377,2.268538248393659,0.1229858331434971,太原直送,0.1229858331434971,山西省,太原市,杏花岭区,杨家峪街道,山西省太原市杏花岭区杨家峪街道红沟北街东一巷东昌盛新区,112.59350647748732,37.87409333353889,184_91,112.593364791957,37.87551127378448,1.0,7843312061.0,112.5941672,37.8740595,140107120909.0,0,0,89
太原直送,BWLS054,BWLS054,41,140107120952,（唐***源唐久便利店,112.590389,37.869096,1.0,2.0,111.0,46.67,2.2862556235926457,2.279072226773428,0.1223682909294727,太原直送,0.1223682909294727,山西省,太原市,杏花岭区,大东关街道,山西省太原市杏花岭区大东关街道白龙庙街太铁白龙苑,112.5841483475928,37.86862136831244,182_89,112.5817789355227,37.86651806337164,1.0,7546957562.0,112.5852847,37.8681062,140107120952.0,0,0,89
太原直送,BWLS056,BWLS056,13,140107120971,太原***全烟酒店,112.592959,37.875051,1.0,2.0,111.0,59.33,2.2798005411228432,2.2730914720452886,0.1187082609593745,太原直送,0.1187082609593745,山西省,太原市,杏花岭区,大东关街道,山西省太原市杏花岭区大东关街道大东关街宇星小区,112.5867180906828,37.87457808134967,183_91,112.58757186373984,37.87551127378448,1.0,5765923775.0,112.5860416,37.8744595,140107120971.0,0,0,89
太原直送,BWLS054,BWLS054,4,140107121014,（唐***田唐久便利店,112.600585,37.865247,1.0,2.0,111.0,58.67,2.2868362895887446,2.2744200664743133,0.1310974358254183,太原直送,0.1310974358254183,山西省,太原市,杏花岭区,大东关街道,山西省太原市杏花岭区大东关街道五龙口街五龙花园,112.59434429372098,37.8647726017622,184_89,112.593364791957,37.86651806337164,1.0,7840655062.0,112.5939754,37.8646871,140107121014.0,0,0,89
太原直送,BWLS055,BWLS055,42,140107219166,山西***有限公司,112.600201,37.871588,1.0,2.0,111.0,64.0,2.280905017835023,2.2702819761047284,0.1256667119367689,太原直送,0.1256667119367689,山西省,太原市,杏花岭区,大东关街道,山西省太原市杏花岭区大东关街道红沟东巷府东公馆,112.59395968509467,37.87111475693081,184_90,112.593364791957,37.87101466857806,1.0,10289844699.0,112.593859,37.8717877,140107219166.0,0,0,89
太原直送,BWLS054,BWLS054,55,140107219550,太原***有限公司,112.58993,37.866175,1.0,2.0,111.0,15.5,2.289177440636049,2.2814298771516106,0.1246488491443038,太原直送,0.1246488491443038,山西省,太原市,杏花岭区,大东关街道,山西省太原市杏花岭区大东关街道小沟街龙翔苑,112.5836895683666,37.86569971054045,182_89,112.5817789355227,37.86651806337164,1.0,7840655008.0,112.5836527,37.8658235,140107219550.0,0,0,89
太原直送,BWLS054,BWLS054,103,140107219585,太原***责任公司,112.601511,37.865232,1.0,2.0,111.0,62.33,2.28657245284137,2.2737664550806422,0.1316297574448885,太原直送,0.1316297574448885,山西省,太原市,杏花岭区,杨家峪街道,山西省太原市杏花岭区杨家峪街道五龙口街五龙花园,112.59526996010491,37.8647574553253,184_89,112.593364791957,37.86651806337164,1.0,7840655062.0,112.5939754,37.8646871,140107219585.0,0,0,89
太原直送,BWLS054,BWLS054,47,140107219612,（天***土巷加油站,112.597926,37.865061,1.0,2.0,111.0,68.67,2.287814214317458,2.276457451453024,0.1297856333073903,太原直送,0.1297856333073903,山西省,太原市,杏花岭区,[],山西省太原市杏花岭区五龙口街黑土巷小区,112.59168601263868,37.864586775974985,184_89,112.593364791957,37.86651806337164,1.0,7840655059.0,112.5919018,37.8645932,140107219612.0,0,0,89
太原直送,BWLS055,BWLS055,18,140107220366,山西***街分公司,112.595469,37.872285,1.0,2.0,111.0,46.67,2.281672068833734,2.27320144368092,0.1224022709756615,太原直送,0.1224022709756615,山西省,太原市,杏花岭区,大东关街道,山西省太原市杏花岭区大东关街道府东街山西省人防宿舍,112.58922846774688,37.871811952888585,183_90,112.58757186373984,37.87101466857806,1.0,7843312041.0,112.5888633,37.8717397,140107220366.0,0,0,89
太原直送,BWLS055,BWLS055,9,140107220437,山西***有限公司,112.590669,37.872956,1.0,2.0,111.0,36.33,2.282494414023609,2.276194263152855,0.1192262200398885,太原直送,0.1192262200398885,山西省,太原市,杏花岭区,大东关街道,山西省太原市杏花岭区大东关街道大东关南巷酒厂门店,112.58442796647086,37.87248213391529,182_90,112.5817789355227,37.87101466857806,1.0,7843312021.0,112.5847206,37.8715946,140107220437.0,0,0,89
太原直送,BWLS055,BWLS055,19,140107220565,太原***有限公司,112.592353,37.871209,1.0,2.0,111.0,73.33,2.283644492633647,2.276191840929271,0.1216021313793469,太原直送,0.1216021313793469,山西省,太原市,杏花岭区,大东关街道,山西省太原市杏花岭区大东关街道红沟路40号东晟龙城苑,112.586112467536,37.87073527150325,183_90,112.58757186373984,37.87101466857806,1.0,2295533069.0,112.5859723,37.8714236,140107220565.0,0,0,89
太原直送,BWLS055,BWLS055,28,140107220630,太原***有限公司,112.599848,37.872546,1.0,2.0,111.0,25.67,2.280098116864712,2.269869766322511,0.1246819138207257,太原直送,0.1246819138207257,山西省,太原市,杏花岭区,大东关街道,山西省太原市杏花岭区大东关街道府东街半山中庭小区,112.59360668200424,37.87207296523584,184_90,112.593364791957,37.87101466857806,1.0,10289844697.0,112.5938565,37.8719341,140107220630.0,0,0,89
太原直送,BWLS054,BWLS054,61,140107220770,发发***岭区）店,112.597217,37.86587,1.0,2.0,111.0,58.33,2.287256896001188,2.2764032976539963,0.1287211680532751,太原直送,0.1287211680532751,山西省,太原市,杏花岭区,大东关街道,山西省太原市杏花岭区大东关街道小沟街新煤机小区,112.59097703801748,37.8653959186488,184_89,112.593364791957,37.86651806337164,1.0,7840655029.0,112.5901643,37.8653239,140107220770.0,0,0,89
太原直送,BWLS055,BWLS055,26,140107220970,山西***有限公司,112.600128,37.871167,1.0,2.0,111.0,17.0,2.2813284369167453,2.2706271812880248,0.1259676283852299,太原直送,0.1259676283852299,山西省,太原市,杏花岭区,大东关街道,山西省太原市杏花岭区大东关街道红沟东巷府东公馆,112.59388675667348,37.87069369133289,184_90,112.593364791957,37.87101466857806,1.0,10289844699.0,112.593859,37.8717877,140107220970.0,0,0,89
太原直送,BWLS055,BWLS055,22,140107121053,太原***聚汇商行,112.600153,37.870855,1.0,2.0,111.0,87.0,2.28161838605232,2.2708261897937008,0.12623674324063,太原直送,0.12623674324063,山西省,太原市,杏花岭区,大东关街道,山西省太原市杏花岭区大东关街道红沟东巷府东公馆,112.59391178498528,37.87038163354084,184_90,112.593364791957,37.87101466857806,1.0,10289844699.0,112.593859,37.8717877,140107121053.0,0,0,89
太原直送,BWLS055,BWLS055,23,140107121077,太原***子烟酒店,112.600136,37.870979,1.0,2.0,111.0,56.33,2.2815052786327263,2.2707521697807485,0.1261256831299671,太原直送,0.1261256831299671,山西省,太原市,杏花岭区,大东关街道,山西省太原市杏花岭区大东关街道红沟东巷坤昇小区,112.59389477593945,37.87050565732624,184_90,112.593364791957,37.87101466857806,1.0,10289844699.0,112.593859,37.8717877,140107121077.0,0,0,89
太原直送,BWLS055,BWLS055,20,140107121126,太原***斌儿商店,112.594272,37.869555,1.0,2.0,111.0,17.67,2.284636602658068,2.2759583299217025,0.1240283878190815,太原直送,0.1240283878190815,山西省,太原市,杏花岭区,大东关街道,山西省太原市杏花岭区大东关街道红沟南街山西省城乡建设学校(东校区),112.5880318012899,37.86908133492643,183_90,112.58757186373984,37.87101466857806,1.0,7843312044.0,112.5878853,37.8690886,140107121126.0,0,0,89
太原直送,BWLS055,BWLS055,24,140107221129,山西***有限公司,112.601959,37.872317,1.0,2.0,111.0,50.33,2.279680359068787,2.2685117101943746,0.1261065241452567,太原直送,0.1261065241452567,山西省,太原市,杏花岭区,大东关街道,山西省太原市杏花岭区大东关街道府东街府东公馆,112.59571696092355,37.87184361006909,184_90,112.593364791957,37.87101466857806,1.0,10289844699.0,112.593859,37.8717877,140107221129.0,0,0,89
太原直送,BWLS055,BWLS055,5,140107121152,太原***阳便利店,112.590669,37.872956,1.0,2.0,111.0,31.0,2.282494414023609,2.276194263152855,0.1192262200398885,太原直送,0.1192262200398885,山西省,太原市,杏花岭区,大东关街道,山西省太原市杏花岭区大东关街道大东关南巷酒厂门店,112.58442796647086,37.87248213391529,182_90,112.5817789355227,37.87101466857806,1.0,7843312021.0,112.5847206,37.8715946,140107121152.0,0,0,89
太原直送,BWLS054,BWLS054,21,140107121160,太原***铭烟酒店,112.595132,37.865819,1.0,2.0,111.0,56.0,2.2879359808851687,2.277936444824562,0.1276437593343291,太原直送,0.1276437593343291,山西省,太原市,杏花岭区,大东关街道,山西省太原市杏花岭区大东关街道小沟街40号黑土巷小区,112.58889222907332,37.8653447899997,183_89,112.58757186373984,37.86651806337164,1.0,7840655039.0,112.5884108,37.8644154,140107121160.0,0,0,89
太原直送,BWLS055,BWLS055,31,140107121172,太原***烟酒商行,112.592441,37.871934,1.0,2.0,111.0,35.33,2.2829271410294703,2.275625590564934,0.1210375891407219,太原直送,0.1210375891407219,山西省,太原市,杏花岭区,大东关街道,山西省太原市杏花岭区大东关街道府东街东晟龙城苑,112.58620039478892,37.87146041909684,183_90,112.58757186373984,37.87101466857806,1.0,2295533069.0,112.5859723,37.8714236,140107121172.0,0,0,89
太原直送,BWLS055,BWLS055,27,140107121210,太原***隆烟酒店,112.599848,37.872546,1.0,2.0,111.0,29.67,2.280098116864712,2.269869766322511,0.1246819138207257,太原直送,0.1246819138207257,山西省,太原市,杏花岭区,大东关街道,山西省太原市杏花岭区大东关街道府东街半山中庭小区,112.59360668200424,37.87207296523584,184_90,112.593364791957,37.87101466857806,1.0,10289844697.0,112.5938565,37.8719341,140107121210.0,0,0,89
太原直送,BWLS054,BWLS054,42,140107121223,太原***姝烟酒店,112.59074,37.866275,1.0,2.0,111.0,35.33,2.28883535013705,2.280777544071319,0.1249716769232087,太原直送,0.1249716769232087,山西省,太原市,杏花岭区,大东关街道,山西省太原市杏花岭区大东关街道小沟街恒台花园,112.5844997553689,37.86579998505738,182_89,112.5817789355227,37.86651806337164,1.0,7840655026.0,112.5842169,37.8657799,140107121223.0,0,0,89
太原直送,BWLS054,BWLS054,49,140107121243,太原***乔便利店,112.590797,37.867498,1.0,2.0,111.0,21.67,2.287653125092397,2.27988738506138,0.123948763773583,太原直送,0.123948763773583,山西省,太原市,杏花岭区,大东关街道,山西省太原市杏花岭区大东关街道红沟路恒台花园,112.5845566264333,37.8670232144021,182_89,112.5817789355227,37.86651806337164,1.0,7840655026.0,112.5842169,37.8657799,140107121243.0,0,0,89
太原直送,BWLS055,BWLS055,37,140107121250,太原***生活超市,112.591838,37.871951,1.0,2.0,111.0,32.33,2.2830947197707303,2.276048262238742,0.1206997311057423,太原直送,0.1206997311057423,山西省,太原市,杏花岭区,大东关街道,山西省太原市杏花岭区大东关街道府东街,112.585597307562,37.871477279359375,183_90,112.58757186373984,37.87101466857806,1.0,4202836738.0,112.5858801,37.8714245,140107121250.0,0,0,89
太原直送,BWLS055,BWLS055,1,140107221348,山西***有限公司,112.590891,37.872156,1.0,2.0,111.0,34.0,2.2831884051853915,2.2765886335888625,0.1200220770233551,太原直送,0.1200220770233551,山西省,太原市,杏花岭区,大东关街道,山西省太原市杏花岭区大东关街道大东关南巷府东新居,112.58465010778066,37.87168205854783,182_90,112.5817789355227,37.87101466857806,1.0,7843312021.0,112.5847206,37.8715946,140107221348.0,0,0,89
