station_name,line_code,line_name,deliver_no,customer_code,customer_name,longitude,latitude,order_cycle_type,order_weekday,city_village_code,avg_order_qty,distance_to_平城直送,distance_to_灵丘中转站,distance_to_太原直送,nearest_station,distance_to_station,province,city,district,township,full_address,lon_84,lat_84,grid_id,LonGridCenter,LatGridCenter,group,customer_osmid_mapping,OSM_X,OSM_Y,BB_RETAIL_CUSTOMER_CODE,kmeans_cluster,dbscan_label,kmeans_label
太原直送,CWLS009,CWLS009,23,140105123180,（唐***香唐久便利店,112.558623,37.894921,1.0,3.0,111.0,64.33,2.271673504044984,2.284397603015949,0.0850061490952279,太原直送,0.0850061490952279,山西省,太原市,杏花岭区,巨轮街道,山西省太原市杏花岭区巨轮街道太原松鼠口腔门诊富力华庭,112.55234285238772,37.89441862887454,177_95,112.55281429443691,37.893497694610176,4.0,10212278544.0,112.5523354,37.8948617,140105123180.0,0,0,50
太原直送,CWLS052,CWLS052,233,140107105148,太原***银利商行,112.563326,37.888617,1.0,3.0,111.0,67.0,2.276143208964009,2.2852579313722923,0.0926223696792484,太原直送,0.0926223696792484,山西省,太原市,杏花岭区,巨轮街道,山西省太原市杏花岭区巨轮街道北大街太原供水大厦,112.55705552217836,37.88812100121048,178_94,112.55860722265408,37.88900108940375,4.0,11245582723.0,112.5574999,37.8880494,140107105148.0,0,0,50
太原直送,CWLS052,CWLS052,150,140107105745,太原***浩洁商店,112.567792,37.886881,1.0,3.0,111.0,15.33,2.276372231580984,2.283187438777639,0.0960206271849911,太原直送,0.0960206271849911,山西省,太原市,杏花岭区,巨轮街道,山西省太原市杏花岭区巨轮街道东头道巷计委信息中心宿舍,112.56152911730828,37.88639099980975,179_93,112.56440015087122,37.88450448419733,4.0,2004160297.0,112.5624134,37.8863389,140107105745.0,0,0,50
太原直送,CWLS052,CWLS052,140,140107106634,太原***远通商店,112.566488,37.884204,1.0,3.0,111.0,77.33,2.279324299055753,2.285970986481014,0.097925155838532,太原直送,0.097925155838532,山西省,太原市,杏花岭区,巨轮街道,山西省太原市杏花岭区巨轮街道永定路北京大学第一医院太原医院(府城院区),112.5602233813648,37.88371175049095,178_93,112.55860722265408,37.88450448419733,4.0,2004160188.0,112.5601573,37.8840795,140107106634.0,0,0,50
太原直送,CWLS053,CWLS053,52,140107106640,太原***儒小卖部,112.557906,37.893026,1.0,3.0,111.0,30.67,2.273698379807224,2.2862130756386176,0.0865142569638095,太原直送,0.0865142569638095,山西省,太原市,杏花岭区,巨轮街道,山西省太原市杏花岭区巨轮街道胜利街268号尧阳美郡,112.55162460925231,37.892522044116376,177_95,112.55281429443691,37.893497694610176,4.0,10212278539.0,112.5522708,37.8935016,140107106640.0,0,0,50
太原直送,CWLS052,CWLS052,192,140107107111,太原***明梅商店,112.564626,37.888358,1.0,3.0,111.0,23.0,2.275975275386357,2.284485983178928,0.093373149855837,太原直送,0.093373149855837,山西省,太原市,杏花岭区,巨轮街道,山西省太原市杏花岭区巨轮街道忠和里N酒店(太原北大街万达广场店),112.55835781595913,37.88786387937839,178_94,112.55860722265408,37.88900108940375,4.0,2015290485.0,112.558346,37.8879546,140107107111.0,0,0,50
太原直送,CWLS052,CWLS052,156,140107108380,太原***盛便利店,112.564415,37.886552,1.0,3.0,111.0,27.33,2.277754738606638,2.285874939436976,0.0949485637858686,太原直送,0.0949485637858686,山西省,太原市,杏花岭区,巨轮街道,山西省太原市杏花岭区巨轮街道永济路泛华盛世小区,112.55814666441304,37.886057238328384,178_93,112.55860722265408,37.88450448419733,4.0,11248383302.0,112.558062,37.8863112,140107108380.0,0,0,50
太原直送,CWLS052,CWLS052,200,140107110287,太原***荣便利店,112.56585,37.888534,1.0,3.0,111.0,45.0,2.2754196917724867,2.283472478985679,0.0937088017744306,太原直送,0.0937088017744306,山西省,太原市,杏花岭区,巨轮街道,山西省太原市杏花岭区巨轮街道北大街金座公寓,112.55958384357103,37.88804166067256,178_94,112.55860722265408,37.88900108940375,4.0,11245537424.0,112.5593588,37.8887789,140107110287.0,0,0,50
太原直送,CWLS030,CWLS030,67,140107112359,（唐***好唐久便利店,112.558428,37.886177,1.0,3.0,111.0,32.67,2.2800187716211835,2.2905019297752096,0.0931249643275071,太原直送,0.0931249643275071,山西省,太原市,杏花岭区,巨轮街道,山西省太原市杏花岭区巨轮街道西二道巷万达天玺小区,112.55214847363148,37.88567267017377,177_93,112.55281429443691,37.88450448419733,4.0,11252299866.0,112.5530083,37.8856604,140107112359.0,0,0,50
太原直送,CWLS052,CWLS052,158,140107113715,太原***老七商店,112.564842,37.886013,1.0,3.0,111.0,34.0,2.2781302683088613,2.2859322484561964,0.0956117790912809,太原直送,0.0956117790912809,山西省,太原市,杏花岭区,巨轮街道,山西省太原市杏花岭区巨轮街道东二道巷泛华盛世小区,112.55857445552364,37.88551876018757,178_93,112.55860722265408,37.88450448419733,4.0,1108625474.0,112.5579898,37.8854755,140107113715.0,0,0,50
太原直送,CWLS030,CWLS030,77,140107114111,（金***燕金虎便利店,112.558493,37.888441,1.0,3.0,111.0,31.67,2.2778530763681832,2.288909142169037,0.0910166578380001,太原直送,0.0910166578380001,山西省,太原市,杏花岭区,巨轮街道,山西省太原市杏花岭区巨轮街道北大街131号都市悦璟,112.55221334244628,37.88793719869286,177_94,112.55281429443691,37.88900108940375,4.0,7543026278.0,112.5530507,37.8878198,140107114111.0,0,0,50
太原直送,CWLS030,CWLS030,38,140107114211,（唐***继霞唐久便利店,112.558539,37.883305,1.0,3.0,111.0,56.0,2.282704523769119,2.292382871989975,0.0958726215350318,太原直送,0.0958726215350318,山西省,太原市,杏花岭区,巨轮街道,山西省太原市杏花岭区巨轮街道西三道巷鸿昇龙潭公馆,112.55226003276957,37.88280033341896,177_93,112.55281429443691,37.88450448419733,4.0,11252299849.0,112.552988,37.882731,140107114211.0,0,0,50
太原直送,CWLS030,CWLS030,49,140107114582,太原***雷茶叶店,112.560836,37.88198,1.0,3.0,111.0,75.33,2.283227609216832,2.2916131999639497,0.0978893570210755,太原直送,0.0978893570210755,山西省,太原市,杏花岭区,鼓楼街道,山西省太原市杏花岭区鼓楼街道城坊街56号山西省工会小区,112.55456170606296,37.88147889919861,177_92,112.55281429443691,37.88000787899091,4.0,11212364982.0,112.5544237,37.8815211,140107114582.0,0,0,50
太原直送,CWLS052,CWLS052,190,140107115699,太原***烟酒商行,112.562334,37.888464,1.0,3.0,111.0,90.67,2.2766042154599444,2.2860868418966445,0.092382526064188,太原直送,0.092382526064188,山西省,太原市,杏花岭区,巨轮街道,山西省太原市杏花岭区巨轮街道北大街太原万达广场云顶丽呈酒店,112.55606175177432,37.88796645591,178_94,112.55860722265408,37.88900108940375,4.0,1902072252.0,112.555873,37.8879211,140107115699.0,0,0,50
太原直送,CWLS052,CWLS052,196,140107115876,太原***烟酒商行,112.564619,37.888376,1.0,3.0,111.0,91.67,2.2759604330543626,2.284478786325234,0.0933538524379099,太原直送,0.0933538524379099,山西省,太原市,杏花岭区,巨轮街道,山西省太原市杏花岭区巨轮街道忠和里N酒店(太原北大街万达广场店),112.55835080192335,37.88788187252553,178_94,112.55860722265408,37.88900108940375,4.0,2015290485.0,112.558346,37.8879546,140107115876.0,0,0,50
太原直送,CWLS053,CWLS053,54,140107116053,太原***士优品店,112.559416,37.89311,1.0,3.0,111.0,51.33,2.273134453165936,2.285050443716505,0.086981958002793,太原直送,0.086981958002793,山西省,太原市,杏花岭区,巨轮街道,山西省太原市杏花岭区巨轮街道胜利街永兴堡小区,112.5531376508578,37.89260862467656,177_95,112.55281429443691,37.893497694610176,4.0,7842254229.0,112.5541323,37.892697,140107116053.0,0,0,50
太原直送,CWLS053,CWLS053,70,140107117847,太原***娜便利店,112.566041,37.893285,1.0,3.0,111.0,33.0,2.270854023824518,2.28008648895804,0.0894825148730175,太原直送,0.0894825148730175,山西省,太原市,杏花岭区,巨轮街道,山西省太原市杏花岭区巨轮街道北大街103号胜景天地小区,112.5597746042708,37.89279381237517,178_95,112.55860722265408,37.893497694610176,2.0,11054539531.0,112.557969,37.8928711,140107117847.0,0,0,50
太原直送,CWLS054,CWLS054,23,140107117922,太原***益航超市,112.557972,37.893252,1.0,3.0,111.0,64.67,2.273463154611924,2.286010827717354,0.0863263489439965,太原直送,0.0863263489439965,山西省,太原市,杏花岭区,巨轮街道,山西省太原市杏花岭区巨轮街道胜利街尧阳美郡,112.55169071878196,37.89274820043319,177_95,112.55281429443691,37.893497694610176,4.0,10212278539.0,112.5522708,37.8935016,140107117922.0,0,0,50
太原直送,CWLS053,CWLS053,74,140107118529,（唐***昇唐久便利店,112.566041,37.893285,1.0,3.0,111.0,68.0,2.270854023824518,2.28008648895804,0.0894825148730175,太原直送,0.0894825148730175,山西省,太原市,杏花岭区,巨轮街道,山西省太原市杏花岭区巨轮街道北大街103号胜景天地小区,112.5597746042708,37.89279381237517,178_95,112.55860722265408,37.893497694610176,2.0,11054539531.0,112.557969,37.8928711,140107118529.0,0,0,50
太原直送,CWLS030,CWLS030,75,140107118795,太原***淼便利店,112.561785,37.884972,1.0,3.0,111.0,22.0,2.280089164814614,2.2888742703578107,0.0954229369963016,太原直送,0.0954229369963016,山西省,太原市,杏花岭区,巨轮街道,山西省太原市杏花岭区巨轮街道解放路万达国际中心,112.55551214534876,37.88447295586008,177_93,112.55281429443691,37.88450448419733,4.0,2004160295.0,112.5557037,37.8841734,140107118795.0,0,0,50
太原直送,CWLS053,CWLS053,92,140107118799,（唐***芳唐久便利店,112.562027,37.899173,1.0,3.0,111.0,34.67,2.2665545334052752,2.279009655990294,0.0824439425064094,太原直送,0.0824439425064094,山西省,太原市,杏花岭区,巨轮街道,山西省太原市杏花岭区巨轮街道中国邮政储蓄银行(巨轮营业所)华苑小区,112.55575294343517,37.89867698652749,178_96,112.55860722265408,37.8979942998166,2.0,7842254250.0,112.5558401,37.8985582,140107118799.0,0,0,50
太原直送,CWLS030,CWLS030,66,140107118833,太原***卷便利店,112.558237,37.886165,1.0,3.0,111.0,61.0,2.280091257261428,2.290649671840934,0.0930725975784513,太原直送,0.0930725975784513,山西省,太原市,杏花岭区,巨轮街道,山西省太原市杏花岭区巨轮街道西二道巷万达天玺小区,112.55195708586768,37.88566034103576,177_93,112.55281429443691,37.88450448419733,4.0,11252299866.0,112.5530083,37.8856604,140107118833.0,0,0,50
太原直送,CWLS030,CWLS030,35,140107118839,太原***鑫便利店,112.559427,37.884028,1.0,3.0,111.0,71.33,2.2817357715925377,2.29124050625027,0.0954845599089169,太原直送,0.0954845599089169,山西省,太原市,杏花岭区,巨轮街道,山西省太原市杏花岭区巨轮街道前营坊街煜卫泽园,112.55314972829764,37.883524962411045,177_93,112.55281429443691,37.88450448419733,4.0,11252299854.0,112.5530131,37.8833884,140107118839.0,0,0,50
太原直送,CWLS030,CWLS030,78,140107118883,太原***波便利店,112.558493,37.888441,1.0,3.0,111.0,53.0,2.2778530763681832,2.288909142169037,0.0910166578380001,太原直送,0.0910166578380001,山西省,太原市,杏花岭区,巨轮街道,山西省太原市杏花岭区巨轮街道北大街131号都市悦璟,112.55221334244628,37.88793719869286,177_94,112.55281429443691,37.88900108940375,4.0,7543026278.0,112.5530507,37.8878198,140107118883.0,0,0,50
太原直送,CWLS030,CWLS030,70,140107118889,太原***食品超市,112.556574,37.888107,1.0,3.0,111.0,31.33,2.2787846350168786,2.2905402227649283,0.0906928655242513,太原直送,0.0906928655242513,山西省,太原市,杏花岭区,巨轮街道,山西省太原市杏花岭区巨轮街道绿柳巷杏花岭区第四中学校,112.55029039323271,37.887599791662126,177_94,112.55281429443691,37.88900108940375,4.0,2015290522.0,112.5502142,37.8877166,140107118889.0,0,0,50
太原直送,CWLS052,CWLS052,229,140107118909,太原***丽便利店,112.56881,37.88898,1.0,3.0,111.0,75.0,2.2740590084608647,2.28100848288756,0.094564119294795,太原直送,0.094564119294795,山西省,太原市,杏花岭区,巨轮街道,山西省太原市杏花岭区巨轮街道营西街营西街回迁楼,112.5625484064727,37.88849170935445,179_94,112.56440015087122,37.88900108940375,4.0,7217344914.0,112.5625091,37.888695,140107118909.0,0,0,50
太原直送,CWLS030,CWLS030,53,140107118927,太原***峰便利店,112.561673,37.881082,1.0,3.0,111.0,69.33,2.283812581843134,2.291617693733839,0.0990209559689249,太原直送,0.0990209559689249,山西省,太原市,杏花岭区,鼓楼街道,山西省太原市杏花岭区鼓楼街道解放路282号第一家小区,112.55540038875624,37.880582070318496,177_92,112.55281429443691,37.88000787899091,4.0,8638967229.0,112.5554744,37.8799134,140107118927.0,0,0,50
太原直送,CWLS052,CWLS052,15,140107118968,太原***德鑫商店,112.563682,37.888426,1.0,3.0,111.0,29.33,2.276210979118145,2.2851285454339294,0.0929371648480804,太原直送,0.0929371648480804,山西省,太原市,杏花岭区,巨轮街道,山西省太原市杏花岭区巨轮街道北大街威尼斯大厦,112.5574121732835,37.88793050032663,178_94,112.55860722265408,37.88900108940375,4.0,11245582723.0,112.5574999,37.8880494,140107118968.0,0,0,50
太原直送,CWLS053,CWLS053,66,140107118993,太原***鑫源商行,112.563374,37.89112,1.0,3.0,111.0,55.0,2.2737552657808178,2.283513286646917,0.0903409535592762,太原直送,0.0903409535592762,山西省,太原市,杏花岭区,巨轮街道,山西省太原市杏花岭区巨轮街道上关东巷上北关小区,112.55710331666074,37.89062453834538,178_94,112.55860722265408,37.88900108940375,4.0,11054539544.0,112.557837,37.8906034,140107118993.0,0,0,50
太原直送,CWLS053,CWLS053,87,140107119084,太原***族便利店,112.560197,37.895399,1.0,3.0,111.0,43.0,2.270715890956859,2.282919387031656,0.0851576957884621,太原直送,0.0851576957884621,山西省,太原市,杏花岭区,巨轮街道,山西省太原市杏花岭区巨轮街道华苑一巷富力华庭,112.55391991684706,37.89489934520128,177_95,112.55281429443691,37.893497694610176,4.0,10212278596.0,112.5523357,37.8948866,140107119084.0,0,0,50
太原直送,CWLS053,CWLS053,88,140107119104,（唐***妮唐久便利店,112.560215,37.895393,1.0,3.0,111.0,63.67,2.270715805989821,2.2829102926871654,0.0851701860042581,太原直送,0.0851701860042581,山西省,太原市,杏花岭区,巨轮街道,山西省太原市杏花岭区巨轮街道华苑一巷富力华庭,112.55393795248216,37.89489337352977,177_95,112.55281429443691,37.893497694610176,4.0,10212278596.0,112.5523357,37.8948866,140107119104.0,0,0,50
太原直送,CWLS053,CWLS053,71,140107119145,太原***景便利店,112.563366,37.890019,1.0,3.0,111.0,43.67,2.2748014479837537,2.2842709545988584,0.091348229895272,太原直送,0.091348229895272,山西省,太原市,杏花岭区,巨轮街道,山西省太原市杏花岭区巨轮街道北沙河北沿岸上北关小区,112.55709543034992,37.889523321482464,178_94,112.55860722265408,37.88900108940375,4.0,11054539528.0,112.5577556,37.8893342,140107119145.0,0,0,50
太原直送,CWLS030,CWLS030,37,140107119227,太原***鑫晶商行,112.558694,37.883287,1.0,3.0,111.0,65.67,2.28267205968553,2.2922820349215267,0.0959402581662117,太原直送,0.0959402581662117,山西省,太原市,杏花岭区,巨轮街道,山西省太原市杏花岭区巨轮街道西三道巷鸿昇龙潭公馆,112.55241534840356,37.88278259369486,177_93,112.55281429443691,37.88450448419733,4.0,11252299849.0,112.552988,37.882731,140107119227.0,0,0,50
太原直送,CWLS052,CWLS052,191,140107119231,（金***金虎便利店,112.56454,37.888446,1.0,3.0,111.0,46.0,2.27591916982348,2.284488589679757,0.0932581150249078,太原直送,0.0932581150249078,山西省,太原市,杏花岭区,巨轮街道,山西省太原市杏花岭区巨轮街道北大街N酒店(太原北大街万达广场店),112.5582716587957,37.887951770419335,178_94,112.55860722265408,37.88900108940375,4.0,2015290485.0,112.558346,37.8879546,140107119231.0,0,0,50
太原直送,CWLS030,CWLS030,71,140107119289,（唐***玉川唐久便利店,112.558723,37.88849,1.0,3.0,111.0,49.33,2.277733014748877,2.2887075641108017,0.0910497672100275,太原直送,0.0910497672100275,山西省,太原市,杏花岭区,巨轮街道,山西省太原市杏花岭区巨轮街道北大街中国石化城北街加油站,112.55244380213684,37.88798659892395,177_94,112.55281429443691,37.88900108940375,4.0,7543026278.0,112.5530507,37.8878198,140107119289.0,0,0,50
太原直送,CWLS030,CWLS030,61,140107119291,太原***瑞便利店,112.556534,37.883855,1.0,3.0,111.0,70.0,2.282824936490096,2.293471194606116,0.0947147497753132,太原直送,0.0947147497753132,山西省,太原市,杏花岭区,巨轮街道,山西省太原市杏花岭区巨轮街道绿柳巷万达天玺小区,112.55025080262376,37.88334693889935,177_93,112.55281429443691,37.88450448419733,4.0,11252299860.0,112.5501968,37.8827371,140107119291.0,0,0,50
太原直送,CWLS053,CWLS053,51,140107119308,（金***蕊金虎便利店,112.556399,37.891851,1.0,3.0,111.0,43.33,2.275295258225619,2.2881167879557607,0.0870991142320014,太原直送,0.0870991142320014,山西省,太原市,杏花岭区,巨轮街道,山西省太原市杏花岭区巨轮街道胜利街280号棕榈佳园,112.55011458476996,37.891344174827815,177_95,112.55281429443691,37.893497694610176,4.0,11245582547.0,112.5488887,37.8907963,140107119308.0,0,0,50
太原直送,CWLS053,CWLS053,57,140107119375,太原***鲜便利店,112.561712,37.891412,1.0,3.0,111.0,34.33,2.274008697603856,2.2845287068717224,0.0894205430647751,太原直送,0.0894205430647751,山西省,太原市,杏花岭区,巨轮街道,山西省太原市杏花岭区巨轮街道解放路景泽睿苑,112.55543826140745,37.89091403153529,177_94,112.55281429443691,37.88900108940375,4.0,7842254222.0,112.5559147,37.8906455,140107119375.0,0,0,50
太原直送,CWLS030,CWLS030,69,140107119439,太原***惠达商行,112.55935,37.886331,1.0,3.0,111.0,66.67,2.2795780260401286,2.289723220459629,0.0932926245369893,太原直送,0.0932926245369893,山西省,太原市,杏花岭区,巨轮街道,山西省太原市杏花岭区巨轮街道平民路平民小区,112.55307230794516,37.88582825621802,177_93,112.55281429443691,37.88450448419733,4.0,11252299866.0,112.5530083,37.8856604,140107119439.0,0,0,50
太原直送,CWLS030,CWLS030,52,140107119449,（唐***鹏唐久便利店,112.561077,37.881967,1.0,3.0,111.0,54.0,2.2831632000687088,2.291446365791918,0.097984403003738,太原直送,0.097984403003738,山西省,太原市,杏花岭区,鼓楼街道,山西省太原市杏花岭区鼓楼街道城坊街山西省工会小区,112.5548031658178,37.88146628391249,177_92,112.55281429443691,37.88000787899091,4.0,11212364982.0,112.5544237,37.8815211,140107119449.0,0,0,50
太原直送,CWLS053,CWLS053,73,140107119546,太原***烟酒超市,112.564249,37.892356,1.0,3.0,111.0,78.67,2.272304917842012,2.282030117042713,0.0895666483965995,太原直送,0.0895666483965995,山西省,太原市,杏花岭区,巨轮街道,山西省太原市杏花岭区巨轮街道兵工南马路胜景天地小区,112.55797970455458,37.89186207136649,178_95,112.55860722265408,37.893497694610176,2.0,7842254230.0,112.5579073,37.8928683,140107119546.0,0,0,50
太原直送,CWLS030,CWLS030,73,140107119603,太原***市美双店,112.562081,37.884861,1.0,3.0,111.0,77.0,2.280100142477953,2.288734213097049,0.0956337161674689,太原直送,0.0956337161674689,山西省,太原市,杏花岭区,巨轮街道,山西省太原市杏花岭区巨轮街道解放路万达国际中心,112.55580870587272,37.88436239911352,178_93,112.55860722265408,37.88450448419733,4.0,2004160295.0,112.5557037,37.8841734,140107119603.0,0,0,50
太原直送,CWLS030,CWLS030,65,140107119606,太原***虎便利店,112.556608,37.88618,1.0,3.0,111.0,87.33,2.280598882127672,2.2918299172654573,0.0925295271467384,太原直送,0.0925295271467384,山西省,太原市,杏花岭区,巨轮街道,山西省太原市杏花岭区巨轮街道西二道巷万达天玺小区,112.55032468962791,37.88567249691103,177_93,112.55281429443691,37.88450448419733,4.0,1108625495.0,112.5502224,37.8856659,140107119606.0,0,0,50
太原直送,CWLS053,CWLS053,67,140107119607,太原***烟酒商行,112.562564,37.891156,1.0,3.0,111.0,75.67,2.273979383432047,2.284080627233856,0.0899873925058337,太原直送,0.0899873925058337,山西省,太原市,杏花岭区,巨轮街道,山西省太原市杏花岭区巨轮街道上关东巷上关广场,112.55629185831953,37.89065931103932,178_94,112.55860722265408,37.88900108940375,4.0,7842254222.0,112.5559147,37.8906455,140107119607.0,0,0,50
太原直送,CWLS053,CWLS053,64,140107119633,(金***盛景金虎便利店,112.564239,37.892613,1.0,3.0,111.0,59.33,2.2720644855716587,2.281861997217404,0.089328471474666,太原直送,0.089328471474666,山西省,太原市,杏花岭区,巨轮街道,山西省太原市杏花岭区巨轮街道兵工南马路胜景天地小区,112.55796965743664,37.8921191047024,178_95,112.55860722265408,37.893497694610176,2.0,7842254230.0,112.5579073,37.8928683,140107119633.0,0,0,50
太原直送,CWLS053,CWLS053,59,140107119645,太原***乐便利店,112.561942,37.891528,1.0,3.0,111.0,55.0,2.273825329072132,2.28428141419506,0.0894023793083813,太原直送,0.0894023793083813,山西省,太原市,杏花岭区,巨轮街道,山西省太原市杏花岭区巨轮街道解放路景泽睿苑,112.5556686747776,37.89103041438863,177_94,112.55281429443691,37.88900108940375,4.0,7842254222.0,112.5559147,37.8906455,140107119645.0,0,0,50
太原直送,CWLS053,CWLS053,75,140107119656,太原***烟酒商行,112.566041,37.893285,1.0,3.0,111.0,83.33,2.270854023824518,2.28008648895804,0.0894825148730175,太原直送,0.0894825148730175,山西省,太原市,杏花岭区,巨轮街道,山西省太原市杏花岭区巨轮街道北大街103号胜景天地小区,112.5597746042708,37.89279381237517,178_95,112.55860722265408,37.893497694610176,2.0,11054539531.0,112.557969,37.8928711,140107119656.0,0,0,50
太原直送,CWLS053,CWLS053,90,140107119676,（金***凯金虎便利店,112.562027,37.899173,1.0,3.0,111.0,61.0,2.2665545334052752,2.279009655990294,0.0824439425064094,太原直送,0.0824439425064094,山西省,太原市,杏花岭区,巨轮街道,山西省太原市杏花岭区巨轮街道中国邮政储蓄银行(巨轮营业所)华苑小区,112.55575294343517,37.89867698652749,178_96,112.55860722265408,37.8979942998166,2.0,7842254250.0,112.5558401,37.8985582,140107119676.0,0,0,50
太原直送,CWLS053,CWLS053,68,140107119686,太原***品经销部,112.564288,37.892413,1.0,3.0,111.0,80.67,2.272238465420608,2.281962707390281,0.089530837843731,太原直送,0.089530837843731,山西省,太原市,杏花岭区,巨轮街道,山西省太原市杏花岭区巨轮街道兵工南马路胜景天地小区,112.55801876523712,37.891919139325424,178_95,112.55860722265408,37.893497694610176,2.0,11054539531.0,112.557969,37.8928711,140107119686.0,0,0,50
太原直送,CWLS053,CWLS053,86,140107119757,太原***叁和超市,112.55938,37.895399,1.0,3.0,111.0,63.67,2.2709778524549726,2.2835177071045423,0.0848453623069664,太原直送,0.0848453623069664,山西省,太原市,杏花岭区,巨轮街道,山西省太原市杏花岭区巨轮街道华苑一巷富力华庭,112.5531013133457,37.89489799436689,177_95,112.55281429443691,37.893497694610176,4.0,10212278596.0,112.5523357,37.8948866,140107119757.0,0,0,50
太原直送,CWLS030,CWLS030,68,140107119766,太原***煊便利店,112.559348,37.887066,1.0,3.0,111.0,55.0,2.2788822270600138,2.289222763696229,0.0926020310468414,太原直送,0.0926020310468414,山西省,太原市,杏花岭区,巨轮街道,山西省太原市杏花岭区巨轮街道平民路平民小区,112.55307021854786,37.88656338822463,177_93,112.55281429443691,37.88450448419733,4.0,11252299866.0,112.5530083,37.8856604,140107119766.0,0,0,50
太原直送,CWLS030,CWLS030,36,140107119770,太原***贸易商行,112.55932,37.883346,1.0,3.0,111.0,96.0,2.282416243573898,2.2917848090117414,0.0960913374763777,太原直送,0.0960913374763777,山西省,太原市,杏花岭区,巨轮街道,山西省太原市杏花岭区巨轮街道前营坊街鸿昇龙潭公馆,112.55304259527904,37.88284265914174,177_93,112.55281429443691,37.88450448419733,4.0,7543026283.0,112.553026,37.8827311,140107119770.0,0,0,50
太原直送,CWLS052,CWLS052,166,140107119781,太原***原酱酒坊,112.565518,37.885998,1.0,3.0,111.0,31.33,2.277930025282163,2.285449582792191,0.095893032332904,太原直送,0.095893032332904,山西省,太原市,杏花岭区,巨轮街道,山西省太原市杏花岭区巨轮街道东二道巷泛华盛世小区,112.5592515904741,37.885504724896535,178_93,112.55860722265408,37.88450448419733,4.0,1108625487.0,112.5601159,37.8854276,140107119781.0,0,0,50
太原直送,CWLS052,CWLS052,146,140107119784,太原***蕾茶叶店,112.567756,37.886882,1.0,3.0,111.0,80.0,2.276382671586215,2.283212992566612,0.0960045420279683,太原直送,0.0960045420279683,山西省,太原市,杏花岭区,巨轮街道,山西省太原市杏花岭区巨轮街道东头道巷计委信息中心宿舍,112.56149306194398,37.88639195243741,178_93,112.55860722265408,37.88450448419733,4.0,2004160297.0,112.5624134,37.8863389,140107119784.0,0,0,50
太原直送,CWLS052,CWLS052,148,140107119802,太原***商店二部,112.567792,37.886881,1.0,3.0,111.0,124.0,2.276372231580984,2.283187438777639,0.0960206271849911,太原直送,0.0960206271849911,山西省,太原市,杏花岭区,巨轮街道,山西省太原市杏花岭区巨轮街道东头道巷计委信息中心宿舍,112.56152911730828,37.88639099980975,179_93,112.56440015087122,37.88450448419733,4.0,2004160297.0,112.5624134,37.8863389,140107119802.0,0,0,50
太原直送,CWLS053,CWLS053,93,140107119808,太原***品经销部,112.561985,37.894839,1.0,3.0,111.0,42.0,2.270674114415364,2.2819920728795218,0.0863769510922944,太原直送,0.0863769510922944,山西省,太原市,杏花岭区,巨轮街道,山西省太原市杏花岭区巨轮街道胜利街75号矿机宿舍,112.5557113695495,37.894342101684494,178_95,112.55860722265408,37.893497694610176,2.0,7842254262.0,112.5557672,37.8947347,140107119808.0,0,0,50
太原直送,CWLS052,CWLS052,143,140107119817,(唐***卫俊唐久便利店,112.569092,37.887253,1.0,3.0,111.0,68.0,2.2756083618902867,2.2819853260071583,0.0962409086667375,太原直送,0.0962409086667375,山西省,太原市,杏花岭区,坝陵桥街道,山西省太原市杏花岭区坝陵桥街道北肖墙26号,112.56283102128371,37.88676474841643,179_94,112.56440015087122,37.88900108940375,4.0,2004160351.0,112.5624976,37.8863254,140107119817.0,0,0,50
太原直送,CWLS053,CWLS053,56,140107119856,太原***源烟酒店,112.56111,37.893196,1.0,3.0,111.0,64.33,2.2725106441576863,2.283752242305847,0.0875423754418348,太原直送,0.0875423754418348,山西省,太原市,杏花岭区,巨轮街道,山西省太原市杏花岭区巨轮街道胜利街,112.55483492366038,37.89269740914808,177_95,112.55281429443691,37.893497694610176,4.0,7842254229.0,112.5541323,37.892697,140107119856.0,0,0,50
太原直送,CWLS030,CWLS030,60,140107119870,（唐***川唐久便利店,112.560692,37.886084,1.0,3.0,111.0,50.33,2.27938356476351,2.288911913697204,0.0939930693296079,太原直送,0.0939930693296079,山西省,太原市,杏花岭区,巨轮街道,山西省太原市杏花岭区巨轮街道西二道巷万达国际中心,112.5544169540038,37.885583417075,177_93,112.55281429443691,37.88450448419733,4.0,11212364952.0,112.5541675,37.8854482,140107119870.0,0,0,50
太原直送,CWLS053,CWLS053,65,140107119871,太原***祥醇酒库,112.564233,37.892256,1.0,3.0,111.0,72.0,2.272404806724581,2.282110073070529,0.0896511548670696,太原直送,0.0896511548670696,山西省,太原市,杏花岭区,巨轮街道,山西省太原市杏花岭区巨轮街道兵工南马路中移在线公司,112.5579636885335,37.89176202915333,178_95,112.55860722265408,37.893497694610176,2.0,7842254230.0,112.5579073,37.8928683,140107119871.0,0,0,50
太原直送,CWLS053,CWLS053,91,140107119882,太原***鲜便利店,112.561794,37.898996,1.0,3.0,111.0,56.33,2.2667968369119453,2.279300833283089,0.0825067985683643,太原直送,0.0825067985683643,山西省,太原市,杏花岭区,巨轮街道,山西省太原市杏花岭区巨轮街道华苑三巷华苑小区,112.55551953257682,37.89849958776975,177_96,112.55281429443691,37.8979942998166,2.0,7842254250.0,112.5558401,37.8985582,140107119882.0,0,0,50
太原直送,CWLS030,CWLS030,80,140107119890,太原***来便利店,112.556304,37.888238,1.0,3.0,111.0,43.67,2.278747235729754,2.290648382747776,0.0904819603346399,太原直送,0.0904819603346399,山西省,太原市,杏花岭区,巨轮街道,山西省太原市杏花岭区巨轮街道北大街杏花岭区第四中学校,112.550019801941,37.8877303336107,177_94,112.55281429443691,37.88900108940375,4.0,11212376140.0,112.5501559,37.8877137,140107119890.0,0,0,50
太原直送,CWLS052,CWLS052,168,140107119892,太原***烟酒商行,112.565977,37.885959,1.0,3.0,111.0,46.0,2.277821495359984,2.2851416354101515,0.0961126220222924,太原直送,0.0961126220222924,山西省,太原市,杏花岭区,巨轮街道,山西省太原市杏花岭区巨轮街道东二道巷泛华盛世小区,112.55971135030993,37.88546636364731,178_93,112.55860722265408,37.88450448419733,4.0,1108625487.0,112.5601159,37.8854276,140107119892.0,0,0,50
太原直送,CWLS052,CWLS052,161,140107119894,太原***烟酒商行,112.564842,37.886013,1.0,3.0,111.0,56.67,2.2781302683088613,2.2859322484561964,0.0956117790912809,太原直送,0.0956117790912809,山西省,太原市,杏花岭区,巨轮街道,山西省太原市杏花岭区巨轮街道东二道巷泛华盛世小区,112.55857445552364,37.88551876018757,178_93,112.55860722265408,37.88450448419733,4.0,1108625474.0,112.5579898,37.8854755,140107119894.0,0,0,50
太原直送,CWLS053,CWLS053,89,140107119908,太原***烟酒商贸,112.561329,37.895377,1.0,3.0,111.0,87.67,2.270374207302396,2.282105592826279,0.0856216424275968,太原直送,0.0856216424275968,山西省,太原市,杏花岭区,巨轮街道,山西省太原市杏花岭区巨轮街道华苑一巷富力华庭,112.5550540836443,37.89487916806824,177_95,112.55281429443691,37.893497694610176,4.0,10212278595.0,112.5557713,37.8949201,140107119908.0,0,0,50
太原直送,CWLS053,CWLS053,69,140107119976,（金***东金虎便利店,112.566204,37.893297,1.0,3.0,111.0,29.0,2.2707908361909976,2.2799592095438914,0.0895424102702186,太原直送,0.0895424102702186,山西省,太原市,杏花岭区,巨轮街道,山西省太原市杏花岭区巨轮街道胜利街176号胜景天地小区,112.5599378678006,37.89280604141374,178_95,112.55860722265408,37.893497694610176,2.0,11054539531.0,112.557969,37.8928711,140107119976.0,0,0,50
太原直送,CWLS052,CWLS052,172,140107119981,太原***祥雨商店,112.56804,37.885955,1.0,3.0,111.0,24.33,2.2771722843028344,2.2836408570569926,0.0969649738462241,太原直送,0.0969649738462241,山西省,太原市,杏花岭区,巨轮街道,山西省太原市杏花岭区巨轮街道东二道巷北肖墙23号院,112.56177760341022,37.88546515552915,179_93,112.56440015087122,37.88450448419733,4.0,11252299873.0,112.5623651,37.8854047,140107119981.0,0,0,50
太原直送,CWLS052,CWLS052,163,140107119982,太原***鹏果蔬店,112.565336,37.886006,1.0,3.0,111.0,58.67,2.277980161892984,2.285576810514357,0.0958132862289961,太原直送,0.0958132862289961,山西省,太原市,杏花岭区,巨轮街道,山西省太原市杏花岭区巨轮街道东二道巷泛华盛世小区,112.55906928688624,37.88551246778832,178_93,112.55860722265408,37.88450448419733,4.0,1108625487.0,112.5601159,37.8854276,140107119982.0,0,0,50
太原直送,CWLS052,CWLS052,154,140107119986,（唐***美唐久便利店,112.564418,37.886536,1.0,3.0,111.0,35.0,2.2777689571266864,2.285883695415185,0.0949644632165108,太原直送,0.0949644632165108,山西省,太原市,杏花岭区,巨轮街道,山西省太原市杏花岭区巨轮街道永济路泛华盛世小区,112.55814967142356,37.88604123977298,178_93,112.55860722265408,37.88450448419733,4.0,11248383302.0,112.558062,37.8863112,140107119986.0,0,0,50
太原直送,CWLS030,CWLS030,74,140107119988,（金***峰金虎便利店,112.561848,37.884895,1.0,3.0,111.0,58.67,2.2801420942206647,2.28888095788051,0.0955175079710495,太原直送,0.0955175079710495,山西省,太原市,杏花岭区,巨轮街道,山西省太原市杏花岭区巨轮街道解放路万达国际中心,112.55557527123725,37.88439604072015,177_93,112.55281429443691,37.88450448419733,4.0,2004160295.0,112.5557037,37.8841734,140107119988.0,0,0,50
太原直送,CWLS052,CWLS052,170,140107120004,太原***浩君商店,112.566107,37.885975,1.0,3.0,111.0,51.67,2.277765121139576,2.285035912979264,0.0961503802384553,太原直送,0.0961503802384553,山西省,太原市,杏花岭区,巨轮街道,山西省太原市杏花岭区巨轮街道声生不息文化传媒工作室泛华盛世小区,112.55984156029156,37.88548254790835,178_93,112.55860722265408,37.88450448419733,4.0,1108625487.0,112.5601159,37.8854276,140107120004.0,0,0,50
太原直送,CWLS052,CWLS052,152,140107120025,（金***木金虎便利店,112.567396,37.886877,1.0,3.0,111.0,33.33,2.2765013292227616,2.283478814878735,0.0958579102891366,太原直送,0.0958579102891366,山西省,太原市,杏花岭区,巨轮街道,山西省太原市杏花岭区巨轮街道东头道巷计委信息中心宿舍,112.5611325061191,37.88638647290103,178_93,112.55860722265408,37.88450448419733,4.0,2004160297.0,112.5624134,37.8863389,140107120025.0,0,0,50
太原直送,CWLS053,CWLS053,55,140107120079,太原***娘便利店,112.56111,37.893196,1.0,3.0,111.0,46.67,2.2725106441576863,2.283752242305847,0.0875423754418348,太原直送,0.0875423754418348,山西省,太原市,杏花岭区,巨轮街道,山西省太原市杏花岭区巨轮街道胜利街,112.55483492366038,37.89269740914808,177_95,112.55281429443691,37.893497694610176,4.0,7842254229.0,112.5541323,37.892697,140107120079.0,0,0,50
太原直送,CWLS052,CWLS052,220,140107120105,太原***托福商店,112.568696,37.886655,1.0,3.0,111.0,34.33,2.276300839740873,2.2826834376943275,0.0966095406934551,太原直送,0.0966095406934551,山西省,太原市,杏花岭区,巨轮街道,山西省太原市杏花岭区巨轮街道北肖墙计委信息中心宿舍,112.56243450743403,37.88616613415932,179_93,112.56440015087122,37.88450448419733,4.0,2004160351.0,112.5624976,37.8863254,140107120105.0,0,0,50
太原直送,CWLS052,CWLS052,232,140107120124,太原***酒经销部,112.567019,37.888646,1.0,3.0,111.0,63.67,2.2749427747328035,2.282543093466141,0.0940942787049225,太原直送,0.0940942787049225,山西省,太原市,杏花岭区,巨轮街道,山西省太原市杏花岭区巨轮街道北大街阳光商务酒店,112.56075471050306,37.88815529241326,178_94,112.55860722265408,37.88900108940375,4.0,7217344910.0,112.5600967,37.8887631,140107120124.0,0,0,50
太原直送,CWLS052,CWLS052,230,140107120176,太原***银星商店,112.568778,37.888665,1.0,3.0,111.0,75.0,2.2743679647359154,2.281247414110973,0.0948332352553614,太原直送,0.0948332352553614,山西省,太原市,杏花岭区,巨轮街道,山西省太原市杏花岭区巨轮街道营西街营西街回迁楼,112.56251639571325,37.88817661015401,179_94,112.56440015087122,37.88900108940375,4.0,2004160249.0,112.5625035,37.8881247,140107120176.0,0,0,50
太原直送,CWLS052,CWLS052,188,140107120185,太原***源便利店,112.56215,37.886045,1.0,3.0,111.0,97.67,2.278955791255499,2.287874275291362,0.0945572252818333,太原直送,0.0945572252818333,山西省,太原市,杏花岭区,巨轮街道,山西省太原市杏花岭区巨轮街道东二道巷永济路小区,112.55587769534056,37.885546723962186,178_93,112.55860722265408,37.88450448419733,4.0,2004160332.0,112.5557916,37.8855466,140107120185.0,0,0,50
太原直送,CWLS030,CWLS030,79,140107120207,太原***斌烟酒店,112.55837,37.888413,1.0,3.0,111.0,72.67,2.277918991671346,2.289018170354269,0.091000883671531,太原直送,0.091000883671531,山西省,太原市,杏花岭区,巨轮街道,山西省太原市杏花岭区巨轮街道北大街都市悦璟,112.55209009570756,37.88790898346038,177_94,112.55281429443691,37.88900108940375,4.0,7217344827.0,112.5522924,37.8887989,140107120207.0,0,0,50
太原直送,CWLS053,CWLS053,60,140107120225,（唐***盛通唐久便利店,112.561973,37.890331,1.0,3.0,111.0,61.0,2.274949821956517,2.285075663308548,0.0905188872224952,太原直送,0.0905188872224952,山西省,太原市,杏花岭区,巨轮街道,山西省太原市杏花岭区巨轮街道解放北路景泽睿苑,112.55569987116716,37.88983324003607,177_94,112.55281429443691,37.88900108940375,4.0,9366958536.0,112.5556656,37.889496,140107120225.0,0,0,50
太原直送,CWLS052,CWLS052,217,140107120236,（金***杰金虎便利店,112.568874,37.886018,1.0,3.0,111.0,51.33,2.276848998239893,2.282990122222392,0.0972614270201666,太原直送,0.0972614270201666,山西省,太原市,杏花岭区,坝陵桥街道,山西省太原市杏花岭区坝陵桥街道亲圪垯酒楼如家酒店(太原北大街北肖墙万达广场店),112.56261284456612,37.88552924438989,179_93,112.56440015087122,37.88450448419733,4.0,1108625497.0,112.5623685,37.885442,140107120236.0,0,0,50
太原直送,CWLS052,CWLS052,165,140107120242,太原***连家超市,112.565685,37.886711,1.0,3.0,111.0,21.0,2.277200868878281,2.284839886284593,0.0953067022197293,太原直送,0.0953067022197293,山西省,太原市,杏花岭区,巨轮街道,山西省太原市杏花岭区巨轮街道东头道巷泛华盛世小区,112.55941878384432,37.88621809210558,178_93,112.55860722265408,37.88450448419733,4.0,1108625487.0,112.5601159,37.8854276,140107120242.0,0,0,50
太原直送,CWLS053,CWLS053,63,140107120263,太原***百货商行,112.565949,37.897281,1.0,3.0,111.0,68.67,2.2670949495387247,2.27742717250519,0.0858565581653496,太原直送,0.0858565581653496,山西省,太原市,杏花岭区,巨轮街道,山西省太原市杏花岭区巨轮街道斯美尔口腔门诊中车·国际广场,112.55968199010394,37.89679043601629,178_96,112.55860722265408,37.8979942998166,2.0,11054537457.0,112.5609029,37.8967548,140107120263.0,0,0,50
太原直送,CWLS030,CWLS030,39,140107120325,太原***宇便利店,112.559345,37.885143,1.0,3.0,111.0,68.67,2.2807053462760174,2.290538400899888,0.0944074716534628,太原直送,0.0944074716534628,山西省,太原市,杏花岭区,巨轮街道,山西省太原市杏花岭区巨轮街道前营坊街万达天玺小区,112.5530674360908,37.88464002965869,177_93,112.55281429443691,37.88450448419733,4.0,11252299857.0,112.553045,37.8847051,140107120325.0,0,0,50
太原直送,CWLS052,CWLS052,44,140107120354,太原***禄寿商店,112.567319,37.88595,1.0,3.0,111.0,15.67,2.2774050556062693,2.2841696472061783,0.0966687577503679,太原直送,0.0966687577503679,山西省,太原市,杏花岭区,巨轮街道,山西省太原市杏花岭区巨轮街道东二道巷华龙公寓,112.56105549375752,37.88545919924495,178_93,112.55860722265408,37.88450448419733,4.0,1108625487.0,112.5601159,37.8854276,140107120354.0,0,0,50
太原直送,CWLS053,CWLS053,27,140107120380,太原***连锁超市,112.559935,37.895407,1.0,3.0,111.0,60.67,2.2707922916990904,2.283105797018836,0.0850494177522672,太原直送,0.0850494177522672,山西省,太原市,杏花岭区,巨轮街道,山西省太原市杏花岭区巨轮街道华苑一巷富力华庭,112.55365740547168,37.89490691644497,177_95,112.55281429443691,37.893497694610176,4.0,10212278596.0,112.5523357,37.8948866,140107120380.0,0,0,50
太原直送,CWLS053,CWLS053,9,140107120381,太原***记烟酒店,112.56188,37.891323,1.0,3.0,111.0,61.0,2.274039394891169,2.2844666175306623,0.0895674325243271,太原直送,0.0895674325243271,山西省,太原市,杏花岭区,巨轮街道,山西省太原市杏花岭区巨轮街道解放路景泽睿苑,112.55560658380772,37.89082527901054,177_94,112.55281429443691,37.88900108940375,4.0,7842254222.0,112.5559147,37.8906455,140107120381.0,0,0,50
太原直送,CWLS030,CWLS030,12,140107120387,太原***烟酒商行,112.557846,37.883349,1.0,3.0,111.0,64.0,2.282884356240803,2.292858713013951,0.095607314809062,太原直送,0.095607314809062,山西省,太原市,杏花岭区,巨轮街道,山西省太原市杏花岭区巨轮街道西三道巷万达天玺小区,112.55156561077742,37.88284315140268,177_93,112.55281429443691,37.88450448419733,4.0,11278852095.0,112.5520819,37.8817359,140107120387.0,0,0,50
太原直送,CWLS053,CWLS053,14,140107120406,（唐***玉梅唐久便利店,112.564211,37.891741,1.0,3.0,111.0,64.0,2.27290000415064,2.282477742507248,0.0901116392482082,太原直送,0.0901116392482082,山西省,太原市,杏花岭区,巨轮街道,山西省太原市杏花岭区巨轮街道兵工南马路中移在线公司,112.55794171032376,37.89124690063426,178_94,112.55860722265408,37.88900108940375,4.0,11054539543.0,112.5578998,37.8906025,140107120406.0,0,0,50
太原直送,CWLS053,CWLS053,5,140107120417,太原***悦便利店,112.557906,37.893026,1.0,3.0,111.0,57.0,2.273698379807224,2.2862130756386176,0.0865142569638095,太原直送,0.0865142569638095,山西省,太原市,杏花岭区,巨轮街道,山西省太原市杏花岭区巨轮街道胜利街268号尧阳美郡,112.55162460925231,37.892522044116376,177_95,112.55281429443691,37.893497694610176,4.0,10212278539.0,112.5522708,37.8935016,140107120417.0,0,0,50
太原直送,CWLS053,CWLS053,21,140107120418,（金***丽荣金虎便利店,112.564533,37.898798,1.0,3.0,111.0,55.67,2.2661085885228456,2.277429553810612,0.0838664928621654,太原直送,0.0838664928621654,山西省,太原市,杏花岭区,巨轮街道,山西省太原市杏花岭区巨轮街道津菜馆私房菜(中车国际店)中车·国际广场,112.55826344455367,37.89830570061413,178_96,112.55860722265408,37.8979942998166,2.0,11054539535.0,112.5582134,37.8986046,140107120418.0,0,0,50
太原直送,CWLS030,CWLS030,16,140107120443,（唐***艳军唐久便利店,112.56179,37.884753,1.0,3.0,111.0,73.33,2.280295171546214,2.289020383232088,0.0956289658471701,太原直送,0.0956289658471701,山西省,太原市,杏花岭区,巨轮街道,山西省太原市杏花岭区巨轮街道解放路万达国际中心,112.55551718007614,37.88425392359239,177_93,112.55281429443691,37.88450448419733,4.0,2004160295.0,112.5557037,37.8841734,140107120443.0,0,0,50
太原直送,CWLS053,CWLS053,24,140107120464,太原***烟酒茶行,112.564488,37.898717,1.0,3.0,111.0,80.33,2.266199715529284,2.2775176747819126,0.083919122379824,太原直送,0.083919122379824,山西省,太原市,杏花岭区,巨轮街道,山西省太原市杏花岭区巨轮街道兵工北路中车·国际广场,112.55821837688669,37.89822461957303,178_96,112.55860722265408,37.8979942998166,2.0,11054539535.0,112.5582134,37.8986046,140107120464.0,0,0,50
太原直送,CWLS052,CWLS052,49,140107120470,太原***云便利店,112.566501,37.884547,1.0,3.0,111.0,43.67,2.2789948200178083,2.2857265669202413,0.0976161466152003,太原直送,0.0976161466152003,山西省,太原市,杏花岭区,巨轮街道,山西省太原市杏花岭区巨轮街道东三道巷北京大学第一医院太原医院(府城院区),112.56023636242224,37.88405483113794,178_93,112.55860722265408,37.88450448419733,4.0,2004160188.0,112.5601573,37.8840795,140107120470.0,0,0,50
太原直送,CWLS052,CWLS052,53,140107120490,太原***辉烟酒店,112.566838,37.888649,1.0,3.0,111.0,60.33,2.2749972916557475,2.2826730636663624,0.0940152831246063,太原直送,0.0940152831246063,山西省,太原市,杏花岭区,巨轮街道,山西省太原市杏花岭区巨轮街道北大街阳光商务酒店,112.5605734239664,37.88815804732967,178_94,112.55860722265408,37.88900108940375,4.0,7217344910.0,112.5600967,37.8887631,140107120490.0,0,0,50
太原直送,CWLS052,CWLS052,54,140107120528,太原***奇烟酒店,112.565192,37.88857,1.0,3.0,111.0,51.0,2.275594444300213,2.283927987337824,0.0934070839390631,太原直送,0.0934070839390631,山西省,太原市,杏花岭区,巨轮街道,山西省太原市杏花岭区巨轮街道北大街纪检委小区,112.55892474848716,37.8880767350873,178_94,112.55860722265408,37.88900108940375,4.0,2015290485.0,112.558346,37.8879546,140107120528.0,0,0,50
太原直送,CWLS052,CWLS052,47,140107120534,太原***烟酒商行,112.567396,37.886877,1.0,3.0,111.0,82.67,2.2765013292227616,2.283478814878735,0.0958579102891366,太原直送,0.0958579102891366,山西省,太原市,杏花岭区,巨轮街道,山西省太原市杏花岭区巨轮街道东头道巷计委信息中心宿舍,112.5611325061191,37.88638647290103,178_93,112.55860722265408,37.88450448419733,4.0,2004160297.0,112.5624134,37.8863389,140107120534.0,0,0,50
太原直送,CWLS053,CWLS053,20,140107120578,（唐***花平唐久便利店,112.565926,37.897269,1.0,3.0,111.0,55.67,2.2671136492661725,2.2774521790641344,0.0858569214740423,太原直送,0.0858569214740423,山西省,太原市,杏花岭区,巨轮街道,山西省太原市杏花岭区巨轮街道斯美尔口腔门诊中车·国际广场,112.55965895388196,37.89677840156543,178_96,112.55860722265408,37.8979942998166,2.0,11054537457.0,112.5609029,37.8967548,140107120578.0,0,0,50
太原直送,CWLS054,CWLS054,4,140107120635,太原***山东饭店,112.562343,37.893276,1.0,3.0,111.0,46.33,2.2720407926982733,2.282795788372231,0.0879526428767186,太原直送,0.0879526428767186,山西省,太原市,杏花岭区,巨轮街道,山西省太原市杏花岭区巨轮街道胜利街,112.55607020920192,37.89277936566316,178_95,112.55860722265408,37.893497694610176,2.0,1958797152.0,112.5559967,37.8928339,140107120635.0,0,0,50
太原直送,CWLS053,CWLS053,10,140107120653,太原***飞便利店,112.56207,37.891166,1.0,3.0,111.0,33.33,2.2741275288360576,2.2844348658863045,0.0897856974022053,太原直送,0.0897856974022053,山西省,太原市,杏花岭区,巨轮街道,山西省太原市杏花岭区巨轮街道解放北路景泽睿苑,112.55579695317564,37.89066854700392,178_94,112.55860722265408,37.88900108940375,4.0,7842254222.0,112.5559147,37.8906455,140107120653.0,0,0,50
太原直送,CWLS053,CWLS053,18,140107120679,太原***忆休闲馆,112.569898,37.891162,1.0,3.0,111.0,38.0,2.271644954892819,2.2787219933789653,0.0931014499672216,太原直送,0.0931014499672216,山西省,太原市,杏花岭区,巨轮街道,山西省太原市杏花岭区巨轮街道营通巷北机胜利小区,112.56363772798768,37.89067547801522,179_94,112.56440015087122,37.88900108940375,4.0,11245582608.0,112.5625637,37.8906706,140107120679.0,0,0,50
太原直送,CWLS053,CWLS053,6,140107120690,太原***园超市铺,112.556338,37.891866,1.0,3.0,111.0,24.0,2.2753006670174383,2.288151240387095,0.0870646079299705,太原直送,0.0870646079299705,山西省,太原市,杏花岭区,巨轮街道,山西省太原市杏花岭区巨轮街道胜利街294号棕榈佳园,112.55005345265704,37.891359068502894,177_95,112.55281429443691,37.893497694610176,4.0,11245582547.0,112.5488887,37.8907963,140107120690.0,0,0,50
太原直送,CWLS052,CWLS052,46,140107120692,太原***烟酒商行,112.565473,37.886001,1.0,3.0,111.0,63.0,2.277941451223011,2.285480340082802,0.0958723514053945,太原直送,0.0958723514053945,山西省,太原市,杏花岭区,巨轮街道,山西省太原市杏花岭区巨轮街道东二道巷泛华盛世小区,112.5592065154598,37.88550766164365,178_93,112.55860722265408,37.88450448419733,4.0,1108625487.0,112.5601159,37.8854276,140107120692.0,0,0,50
太原直送,CWLS053,CWLS053,8,140107120717,太原***族便利店,112.565789,37.897307,1.0,3.0,111.0,20.0,2.2671212610189184,2.277526487325453,0.085761404559392,太原直送,0.085761404559392,山西省,太原市,杏花岭区,巨轮街道,山西省太原市杏花岭区巨轮街道梅森凯瑟(中车国际店)中车·国际广场,112.5595217248149,37.89681621660088,178_96,112.55860722265408,37.8979942998166,2.0,11054537457.0,112.5609029,37.8967548,140107120717.0,0,0,50
太原直送,CWLS053,CWLS053,17,140107120720,太原***晟烟酒行,112.564003,37.895274,1.0,3.0,111.0,44.33,2.269617490340827,2.280219132648876,0.0868126468954818,太原直送,0.0868126468954818,山西省,太原市,杏花岭区,巨轮街道,山西省太原市杏花岭区巨轮街道北关一巷,112.55773293921796,37.89478025569375,178_95,112.55860722265408,37.893497694610176,2.0,11054539589.0,112.557974,37.8947262,140107120720.0,0,0,50
太原直送,CWLS053,CWLS053,7,140107120721,太原***桃便利店,112.557201,37.893064,1.0,3.0,111.0,54.0,2.273888843476957,2.286703453216872,0.0862316711249393,太原直送,0.0862316711249393,山西省,太原市,杏花岭区,巨轮街道,山西省太原市杏花岭区巨轮街道胜利街410号尧阳美郡,112.55091814028448,37.89255882277149,177_95,112.55281429443691,37.893497694610176,4.0,11054537453.0,112.5495732,37.8927828,140107120721.0,0,0,50
太原直送,CWLS030,CWLS030,8,140107120745,太原***烟酒商行,112.55938,37.884996,1.0,3.0,111.0,67.33,2.280833464865417,2.29061328466788,0.0945576246423302,太原直送,0.0945576246423302,山西省,太原市,杏花岭区,巨轮街道,山西省太原市杏花岭区巨轮街道前营坊街万达天玺小区,112.55310252263168,37.88449306117704,177_93,112.55281429443691,37.88450448419733,4.0,11252299857.0,112.553045,37.8847051,140107120745.0,0,0,50
太原直送,CWLS053,CWLS053,13,140107120747,太原***起烟酒店,112.561945,37.890183,1.0,3.0,111.0,78.0,2.275099019570797,2.2851971527369384,0.090644904456893,太原直送,0.090644904456893,山西省,太原市,杏花岭区,巨轮街道,山西省太原市杏花岭区巨轮街道解放路景泽睿苑,112.5556718365938,37.88968516870334,177_94,112.55281429443691,37.88900108940375,4.0,9366958536.0,112.5556656,37.889496,140107120747.0,0,0,50
太原直送,CWLS053,CWLS053,31,140107120785,太原***茶经销部,112.562018,37.896226,1.0,3.0,111.0,59.67,2.2693493911273355,2.281022826734755,0.0851220166231956,太原直送,0.0851220166231956,山西省,太原市,杏花岭区,巨轮街道,山西省太原市杏花岭区巨轮街道解放北路矿机宿舍,112.55574426931408,37.89572941451078,178_95,112.55860722265408,37.893497694610176,2.0,6852080355.0,112.5558358,37.8950894,140107120785.0,0,0,50
太原直送,CWLS030,CWLS030,9,140107120798,（金***泓江金虎便利店,112.559357,37.884003,1.0,3.0,111.0,51.67,2.281781812623632,2.2913086896612107,0.0954845730785873,太原直送,0.0954845730785873,山西省,太原市,杏花岭区,巨轮街道,山西省太原市杏花岭区巨轮街道前营坊街煜卫泽园,112.55307959239803,37.88349984098439,177_93,112.55281429443691,37.88450448419733,4.0,11252299854.0,112.5530131,37.8833884,140107120798.0,0,0,50
太原直送,CWLS052,CWLS052,38,140107120802,太原***烟酒商店,112.568773,37.88722,1.0,3.0,111.0,15.67,2.275740456453022,2.282240376800397,0.0961325601916399,太原直送,0.0961325601916399,山西省,太原市,杏花岭区,坝陵桥街道,山西省太原市杏花岭区坝陵桥街道北肖墙,112.56251155596932,37.88673133680569,179_93,112.56440015087122,37.88450448419733,4.0,2004160297.0,112.5624134,37.8863389,140107120802.0,0,0,50
太原直送,CWLS054,CWLS054,76,140107120809,太原***烟酒商店,112.561886,37.893252,1.0,3.0,111.0,83.33,2.272209516734319,2.28314640426868,0.0877935825103425,太原直送,0.0877935825103425,山西省,太原市,杏花岭区,巨轮街道,山西省太原市杏花岭区巨轮街道胜利街,112.55561237079006,37.89275464882723,177_95,112.55281429443691,37.893497694610176,4.0,1958797227.0,112.5557332,37.8927016,140107120809.0,0,0,50
太原直送,CWLS052,CWLS052,52,140107120834,（金***利平金虎便利店,112.566991,37.885966,1.0,3.0,111.0,33.67,2.2774936815308577,2.284397728169501,0.0965188257957961,太原直送,0.0965188257957961,山西省,太原市,杏花岭区,巨轮街道,山西省太原市杏花岭区巨轮街道东二道巷华龙公寓,112.5607269773742,37.88547476021554,178_93,112.55860722265408,37.88450448419733,4.0,1108625487.0,112.5601159,37.8854276,140107120834.0,0,0,50
太原直送,CWLS053,CWLS053,33,140107120843,太原***贵烟酒店,112.559207,37.895404,1.0,3.0,111.0,67.33,2.2710286210941946,2.283641014881716,0.0847754558643002,太原直送,0.0847754558643002,山西省,太原市,杏花岭区,巨轮街道,山西省太原市杏花岭区巨轮街道华苑一巷富力华庭,112.55292796878685,37.89490270582512,177_95,112.55281429443691,37.893497694610176,4.0,10212278596.0,112.5523357,37.8948866,140107120843.0,0,0,50
太原直送,CWLS030,CWLS030,17,140107120846,太原***烟酒商行,112.56144,37.887426,1.0,3.0,111.0,52.0,2.277873071066516,2.2874488190158453,0.0930118750375477,太原直送,0.0930118750375477,山西省,太原市,杏花岭区,巨轮街道,山西省太原市杏花岭区巨轮街道中国建设银行(解放路储蓄所)中国邮政储蓄银行(解放路支行),112.5551662161398,37.88692686227427,177_94,112.55281429443691,37.88900108940375,4.0,2004160293.0,112.5558119,37.8863478,140107120846.0,0,0,50
太原直送,CWLS054,CWLS054,77,140107120858,（金***秀珍金虎便利店,112.566319,37.893416,1.0,3.0,111.0,35.0,2.2706414579560987,2.27979393632188,0.0894853418443426,太原直送,0.0894853418443426,山西省,太原市,杏花岭区,巨轮街道,山西省太原市杏花岭区巨轮街道胜利街胜景天地小区,112.56005304002204,37.89292522303472,178_95,112.55860722265408,37.893497694610176,2.0,11054539562.0,112.5607986,37.8946324,140107120858.0,0,0,50
太原直送,CWLS030,CWLS030,10,140107120863,（金***昱金虎便利店,112.557919,37.883331,1.0,3.0,111.0,52.0,2.2828780669199147,2.2928177161486265,0.0956477204119361,太原直送,0.0956477204119361,山西省,太原市,杏花岭区,巨轮街道,山西省太原市杏花岭区巨轮街道西三道巷鸿昇龙潭公馆,112.55163876327806,37.88282527437335,177_93,112.55281429443691,37.88450448419733,4.0,11278852095.0,112.5520819,37.8817359,140107120863.0,0,0,50
太原直送,CWLS052,CWLS052,65,140107120893,太原***食门市部,112.568874,37.886018,1.0,3.0,111.0,27.67,2.276848998239893,2.282990122222392,0.0972614270201666,太原直送,0.0972614270201666,山西省,太原市,杏花岭区,坝陵桥街道,山西省太原市杏花岭区坝陵桥街道亲圪垯酒楼如家酒店(太原北大街北肖墙万达广场店),112.56261284456612,37.88552924438989,179_93,112.56440015087122,37.88450448419733,4.0,1108625497.0,112.5623685,37.885442,140107120893.0,0,0,50
太原直送,CWLS052,CWLS052,67,140107120927,太原***祥龙商行,112.568285,37.886881,1.0,3.0,111.0,112.33,2.2762163219694167,2.2828281443895366,0.0962295999575989,太原直送,0.0962295999575989,山西省,太原市,杏花岭区,巨轮街道,山西省太原市杏花岭区巨轮街道东头道巷计委信息中心宿舍,112.56202286671454,37.88639164548135,179_93,112.56440015087122,37.88450448419733,4.0,2004160297.0,112.5624134,37.8863389,140107120927.0,0,0,50
太原直送,CWLS053,CWLS053,32,140107120998,太原***品经销部,112.562012,37.896077,1.0,3.0,111.0,36.0,2.2694924826033263,2.281128725455013,0.0852556327581921,太原直送,0.0852556327581921,山西省,太原市,杏花岭区,巨轮街道,山西省太原市杏花岭区巨轮街道解放北路矿机宿舍,112.55573827555295,37.89558037702816,178_95,112.55860722265408,37.893497694610176,2.0,6852080355.0,112.5558358,37.8950894,140107120998.0,0,0,50
太原直送,CWLS052,CWLS052,66,140107121009,太原***烟酒商行,112.568696,37.886655,1.0,3.0,111.0,64.67,2.276300839740873,2.2826834376943275,0.0966095406934551,太原直送,0.0966095406934551,山西省,太原市,杏花岭区,巨轮街道,山西省太原市杏花岭区巨轮街道北肖墙计委信息中心宿舍,112.56243450743403,37.88616613415932,179_93,112.56440015087122,37.88450448419733,4.0,2004160351.0,112.5624976,37.8863254,140107121009.0,0,0,50
太原直送,CWLS030,CWLS030,28,140107121022,太原***烟酒商行,112.556587,37.88387,1.0,3.0,111.0,27.33,2.282793747390464,2.293422235178252,0.0947168610385659,太原直送,0.0947168610385659,山西省,太原市,杏花岭区,巨轮街道,山西省太原市杏花岭区巨轮街道绿柳巷万达天玺小区,112.55030391362708,37.883362036057534,177_93,112.55281429443691,37.88450448419733,4.0,11252299860.0,112.5501968,37.8827371,140107121022.0,0,0,50
太原直送,CWLS054,CWLS054,22,140107212191,太原***有限公司,112.567585,37.893969,2.0,3.0,111.0,11.0,2.2697150326364786,2.278491469570386,0.0895504658837657,太原直送,0.0895504658837657,山西省,太原市,杏花岭区,巨轮街道,山西省太原市杏花岭区巨轮街道胜利街118号芙蓉酒楼(胜利街店),112.56132097603464,37.89348004353417,178_95,112.55860722265408,37.893497694610176,2.0,2109894104.0,112.5624491,37.8931677,140107212191.0,0,0,50
太原直送,CWLS052,CWLS052,218,140107216164,山西***有限公司,112.568712,37.886007,1.0,3.0,111.0,20.67,2.276910600303181,2.283115666758033,0.0972022307202887,太原直送,0.0972022307202887,山西省,太原市,杏花岭区,巨轮街道,山西省太原市杏花岭区巨轮街道北肖墙北肖墙23号院,112.56245060634542,37.885518035453096,179_93,112.56440015087122,37.88450448419733,4.0,1108625497.0,112.5623685,37.885442,140107216164.0,0,0,50
太原直送,CWLS030,CWLS030,64,140107218877,太原***有限公司,112.556558,37.885645,1.0,3.0,111.0,21.33,2.2811216672542955,2.292231580619205,0.0930213794189273,太原直送,0.0930213794189273,山西省,太原市,杏花岭区,巨轮街道,山西省太原市杏花岭区巨轮街道绿柳巷万达天玺小区,112.55027464553476,37.8851373095689,177_93,112.55281429443691,37.88450448419733,4.0,11252299868.0,112.5502224,37.8856488,140107218877.0,0,0,50
太原直送,CWLS053,CWLS053,53,140107219039,太原***有限公司,112.558775,37.892621,1.0,3.0,111.0,45.67,2.273803133065835,2.2858528050723232,0.0872031192561356,太原直送,0.0872031192561356,山西省,太原市,杏花岭区,巨轮街道,山西省太原市杏花岭区巨轮街道胜利街258-2号院永兴堡小区,112.55249542670232,37.892118455502384,177_95,112.55281429443691,37.893497694610176,4.0,10212278555.0,112.5524745,37.8934807,140107219039.0,0,0,50
太原直送,CWLS030,CWLS030,48,140107219350,山西***有限公司,112.56031,37.882082,1.0,3.0,111.0,61.0,2.283298480726952,2.291927000447658,0.0976143719438912,太原直送,0.0976143719438912,山西省,太原市,杏花岭区,巨轮街道,山西省太原市杏花岭区巨轮街道城坊街万达国际中心,112.55403468350656,37.88158006472258,177_92,112.55281429443691,37.88000787899091,4.0,9426153963.0,112.5544239,37.8815496,140107219350.0,0,0,50
太原直送,CWLS030,CWLS030,76,140107219531,（石***北街加油站,112.559138,37.888745,1.0,3.0,111.0,38.0,2.277358599618644,2.288230188225821,0.0909549516464055,太原直送,0.0909549516464055,山西省,太原市,杏花岭区,巨轮街道,山西省太原市杏花岭区巨轮街道加油站(北沙河南沿岸)中国石化城北街加油站,112.55285960533584,37.88824234657872,177_94,112.55281429443691,37.88900108940375,4.0,7543026278.0,112.5530507,37.8878198,140107219531.0,0,0,50
太原直送,CWLS052,CWLS052,222,140107219647,太原***有限公司,112.570606,37.888758,1.0,3.0,111.0,17.0,2.273702380939508,2.2798513974689207,0.0955641156187774,太原直送,0.0955641156187774,山西省,太原市,杏花岭区,巨轮街道,山西省太原市杏花岭区巨轮街道北大街,112.5643469961584,37.88827189116029,179_94,112.56440015087122,37.88900108940375,4.0,2117665997.0,112.5652714,37.8875217,140107219647.0,0,0,50
太原直送,CWLS052,CWLS052,231,140107219942,山西***有限公司,112.56788,37.888599,1.0,3.0,111.0,21.67,2.2747146685553763,2.2819473292475414,0.0945034544606705,太原直送,0.0945034544606705,山西省,太原市,杏花岭区,巨轮街道,山西省太原市杏花岭区巨轮街道北大街营西街回迁楼,112.56161705270408,37.88810943305124,179_94,112.56440015087122,37.88900108940375,4.0,1958797087.0,112.5624896,37.8880196,140107219942.0,0,0,50
太原直送,CWLS030,CWLS030,63,140107220119,山西***有限公司,112.556556,37.884776,1.0,3.0,111.0,61.67,2.2819454517884483,2.292826239103388,0.0938460284615142,太原直送,0.0938460284615142,山西省,太原市,杏花岭区,巨轮街道,山西省太原市杏花岭区巨轮街道绿柳巷万达天玺小区,112.5502727423392,37.88426814661816,177_93,112.55281429443691,37.88450448419733,4.0,11252299868.0,112.5502224,37.8856488,140107220119.0,0,0,50
太原直送,CWLS053,CWLS053,16,140107220371,山西***有限公司,112.564422,37.898155,1.0,3.0,111.0,32.33,2.266753383322719,2.277948851585568,0.0843942153527055,太原直送,0.0843942153527055,山西省,太原市,杏花岭区,巨轮街道,山西省太原市杏花岭区巨轮街道兵工北路中车·国际广场,112.55815232892876,37.897662416519566,178_96,112.55860722265408,37.8979942998166,2.0,11054537461.0,112.5580512,37.8967846,140107220371.0,0,0,50
太原直送,CWLS052,CWLS052,45,140107220390,太原***有限公司,112.566515,37.888492,1.0,3.0,111.0,77.67,2.2752485876679507,2.2830160679123592,0.0940225434935657,太原直送,0.0940225434935657,山西省,太原市,杏花岭区,巨轮街道,山西省太原市杏花岭区巨轮街道北大街国家税务总局杏花岭区税务局,112.56024992702176,37.88800057646231,178_94,112.55860722265408,37.88900108940375,4.0,7217344910.0,112.5600967,37.8887631,140107220390.0,0,0,50
太原直送,CWLS053,CWLS053,22,140107220453,山西***有限公司,112.564424,37.897332,1.0,3.0,111.0,59.0,2.267532714541071,2.278508183072641,0.0851349310330379,太原直送,0.0851349310330379,山西省,太原市,杏花岭区,巨轮街道,山西省太原市杏花岭区巨轮街道兵工北路中车·国际广场,112.55815442796477,37.896839263612165,178_96,112.55860722265408,37.8979942998166,2.0,11054537461.0,112.5580512,37.8967846,140107220453.0,0,0,50
太原直送,CWLS053,CWLS053,15,140107220652,太原***有限公司,112.562553,37.891154,1.0,3.0,111.0,71.33,2.273984787715389,2.284090031635796,0.0899849216313448,太原直送,0.0899849216313448,山西省,太原市,杏花岭区,巨轮街道,山西省太原市杏花岭区巨轮街道上关东巷上关广场,112.55628083856364,37.89065729372177,178_94,112.55860722265408,37.88900108940375,4.0,7842254222.0,112.5559147,37.8906455,140107220652.0,0,0,50
太原直送,CWLS030,CWLS030,34,140107220931,山西***原分公司,112.559344,37.883577,1.0,3.0,111.0,66.33,2.282189668544004,2.291609374353317,0.0958815965501148,太原直送,0.0958815965501148,山西省,太原市,杏花岭区,巨轮街道,山西省太原市杏花岭区巨轮街道前营坊街鸿昇龙潭公馆,112.55306661609862,37.88307374143026,177_93,112.55281429443691,37.88450448419733,4.0,11252299854.0,112.5530131,37.8833884,140107220931.0,0,0,50
太原直送,CWLS054,CWLS054,79,140107121033,太原***惠便利店,112.55816,37.89327,1.0,3.0,111.0,24.33,2.2733857532856123,2.285860910979709,0.0863765281659294,太原直送,0.0863765281659294,山西省,太原市,杏花岭区,巨轮街道,山西省太原市杏花岭区巨轮街道胜利街石化厂宿舍,112.5518791023314,37.89276652758708,177_95,112.55281429443691,37.893497694610176,4.0,10212278539.0,112.5522708,37.8935016,140107121033.0,0,0,50
太原直送,CWLS053,CWLS053,96,140107121039,太原***烟酒商行,112.562298,37.890014,1.0,3.0,111.0,42.0,2.275146578914421,2.285054588672445,0.0909363902186549,太原直送,0.0909363902186549,山西省,太原市,杏花岭区,巨轮街道,山西省太原市杏花岭区巨轮街道北沙河北沿岸上北关小区,112.55602550583824,37.889516687436526,178_94,112.55860722265408,37.88900108940375,4.0,7217344870.0,112.555888,37.8894797,140107121039.0,0,0,50
太原直送,CWLS053,CWLS053,34,140107121043,太原***烟酒商行,112.564141,37.890791,1.0,3.0,111.0,35.0,2.273822862315354,2.2831776054308546,0.090950702075356,太原直送,0.090950702075356,山西省,太原市,杏花岭区,巨轮街道,山西省太原市杏花岭区巨轮街道兵工南马路中移在线公司,112.5578716995056,37.890296620471794,178_94,112.55860722265408,37.88900108940375,4.0,11054539541.0,112.5578988,37.8905694,140107121043.0,0,0,50
太原直送,CWLS030,CWLS030,30,140107221091,太原***有限公司,112.559356,37.886506,1.0,3.0,111.0,31.0,2.279410287433576,2.2895993218379984,0.093130365284368,太原直送,0.093130365284368,山西省,太原市,杏花岭区,巨轮街道,山西省太原市杏花岭区巨轮街道平民路平民小区,112.55307829951572,37.886003298445424,177_93,112.55281429443691,37.88450448419733,4.0,11252299866.0,112.5530083,37.8856604,140107221091.0,0,0,50
太原直送,CWLS053,CWLS053,37,140107121114,太原***兴便利店,112.564533,37.898798,1.0,3.0,111.0,29.67,2.2661085885228456,2.277429553810612,0.0838664928621654,太原直送,0.0838664928621654,山西省,太原市,杏花岭区,巨轮街道,山西省太原市杏花岭区巨轮街道津菜馆私房菜(中车国际店)中车·国际广场,112.55826344455367,37.89830570061413,178_96,112.55860722265408,37.8979942998166,2.0,11054539535.0,112.5582134,37.8986046,140107121114.0,0,0,50
太原直送,CWLS053,CWLS053,38,140107121113,太原***梦烟酒店,112.565949,37.897281,1.0,3.0,111.0,35.33,2.2670949495387247,2.27742717250519,0.0858565581653496,太原直送,0.0858565581653496,山西省,太原市,杏花岭区,巨轮街道,山西省太原市杏花岭区巨轮街道斯美尔口腔门诊中车·国际广场,112.55968199010394,37.89679043601629,178_96,112.55860722265408,37.8979942998166,2.0,11054537457.0,112.5609029,37.8967548,140107121113.0,0,0,50
太原直送,CWLS052,CWLS052,72,140107121125,太原***多便利店,112.566515,37.888492,1.0,3.0,111.0,37.67,2.2752485876679507,2.2830160679123592,0.0940225434935657,太原直送,0.0940225434935657,山西省,太原市,杏花岭区,巨轮街道,山西省太原市杏花岭区巨轮街道北大街国家税务总局杏花岭区税务局,112.56024992702176,37.88800057646231,178_94,112.55860722265408,37.88900108940375,4.0,7217344910.0,112.5600967,37.8887631,140107121125.0,0,0,50
太原直送,CWLS053,CWLS053,36,140107221132,中酩***有限公司,112.565939,37.897318,1.0,3.0,111.0,63.67,2.2670630604067905,2.277409259384444,0.0858190185273636,太原直送,0.0858190185273636,山西省,太原市,杏花岭区,巨轮街道,山西省太原市杏花岭区巨轮街道梅森凯瑟(中车国际店)中车·国际广场,112.55967196945622,37.89682742902559,178_96,112.55860722265408,37.8979942998166,2.0,11054537457.0,112.5609029,37.8967548,140107221132.0,0,0,50
太原直送,CWLS030,CWLS030,32,140107121134,太原***斌烟酒店,112.555198,37.888429,1.0,3.0,111.0,38.0,2.2789217046491483,2.291327343036776,0.0899518383414124,太原直送,0.0899518383414124,山西省,太原市,杏花岭区,巨轮街道,山西省太原市杏花岭区巨轮街道北大街149号北大街149号院,112.5489113819848,37.88791936390448,176_94,112.54702136621977,37.88900108940375,4.0,7843357443.0,112.5481915,37.8877337,140107121134.0,0,0,50
太原直送,CWLS052,CWLS052,82,140107121135,（唐***唐久便利店,112.568763,37.888792,1.0,3.0,111.0,61.0,2.2742522238232463,2.2811714227111413,0.0947124791197003,太原直送,0.0947124791197003,山西省,太原市,杏花岭区,巨轮街道,山西省太原市杏花岭区巨轮街道营西街营西街回迁楼,112.56250135878273,37.88830361449204,179_94,112.56440015087122,37.88900108940375,4.0,2004160249.0,112.5625035,37.8881247,140107121135.0,0,0,50
太原直送,CWLS053,CWLS053,98,140107121181,太原***烟酒商行,112.565347,37.894885,1.0,3.0,111.0,47.0,2.26955792768988,2.27950163223126,0.0877398101206037,太原直送,0.0877398101206037,山西省,太原市,杏花岭区,巨轮街道,山西省太原市杏花岭区巨轮街道北关一巷,112.55907927433738,37.89439313447409,178_95,112.55860722265408,37.893497694610176,2.0,11054539537.0,112.5580317,37.8946756,140107121181.0,0,0,50
太原直送,CWLS052,CWLS052,78,140107121188,太原***都便利店,112.56515,37.884426,1.0,3.0,111.0,20.33,2.279537591269335,2.286793933566597,0.0971928276057463,太原直送,0.0971928276057463,山西省,太原市,杏花岭区,巨轮街道,山西省太原市杏花岭区巨轮街道东三道巷北京大学第一医院太原医院府城院区南区,112.55888315912976,37.88393191230095,178_93,112.55860722265408,37.88450448419733,4.0,2004160188.0,112.5601573,37.8840795,140107121188.0,0,0,50
太原直送,CWLS052,CWLS052,79,140107121189,太原***王兵商店,112.568285,37.886881,1.0,3.0,111.0,119.33,2.2762163219694167,2.2828281443895366,0.0962295999575989,太原直送,0.0962295999575989,山西省,太原市,杏花岭区,巨轮街道,山西省太原市杏花岭区巨轮街道东头道巷计委信息中心宿舍,112.56202286671454,37.88639164548135,179_93,112.56440015087122,37.88450448419733,4.0,2004160297.0,112.5624134,37.8863389,140107121189.0,0,0,50
太原直送,CWLS030,CWLS030,21,140107121192,太原***烟酒商行,112.560257,37.882086,1.0,3.0,111.0,96.67,2.283311578885589,2.291962918496286,0.0975926930922548,太原直送,0.0975926930922548,山西省,太原市,杏花岭区,巨轮街道,山西省太原市杏花岭区巨轮街道城坊街万达国际中心,112.55398158040164,37.88158397887723,177_92,112.55281429443691,37.88000787899091,4.0,9426153963.0,112.5544239,37.8815496,140107121192.0,0,0,50
太原直送,CWLS053,CWLS053,2,140107121206,太原***地烟酒店,112.564629,37.89919,1.0,3.0,111.0,46.67,2.2657064526723256,2.27709225896054,0.0835582904624065,太原直送,0.0835582904624065,山西省,太原市,杏花岭区,巨轮街道,山西省太原市杏花岭区巨轮街道兵工北路中车·国际广场,112.55835956308228,37.89869791486424,178_96,112.55860722265408,37.8979942998166,2.0,11054539535.0,112.5582134,37.8986046,140107121206.0,0,0,50
太原直送,CWLS030,CWLS030,11,140107121211,太原***柒便利店,112.556826,37.882823,1.0,3.0,111.0,17.0,2.2837090676277016,2.293962876137272,0.0957864942932948,太原直送,0.0957864942932948,山西省,太原市,杏花岭区,巨轮街道,山西省太原市杏花岭区巨轮街道城坊街29号楼万达·儿童天地,112.55054354204152,37.88231526940563,177_93,112.55281429443691,37.88450448419733,4.0,11278852096.0,112.5503759,37.8822577,140107121211.0,0,0,50
太原直送,CWLS052,CWLS052,81,140107121220,太原***临烟酒店,112.563935,37.888609,1.0,3.0,111.0,25.0,2.2759569987756763,2.284818783681757,0.0928683354001747,太原直送,0.0928683354001747,山西省,太原市,杏花岭区,巨轮街道,山西省太原市杏花岭区巨轮街道北大街太原供水大厦,112.55766559486476,37.88811391080621,178_94,112.55860722265408,37.88900108940375,4.0,11245582723.0,112.5574999,37.8880494,140107121220.0,0,0,50
太原直送,CWLS053,CWLS053,19,140107121233,太原***食品商行,112.566522,37.893445,1.0,3.0,111.0,25.67,2.270549457066502,2.2796258307406445,0.0895479896200927,太原直送,0.0895479896200927,山西省,太原市,杏花岭区,巨轮街道,山西省太原市杏花岭区巨轮街道胜利街胜景天地小区,112.56025636328997,37.89295450834789,178_95,112.55860722265408,37.893497694610176,2.0,11054539562.0,112.5607986,37.8946324,140107121233.0,0,0,50
太原直送,CWLS030,CWLS030,82,140107121237,太原***龙烟酒店,112.561158,37.888366,1.0,3.0,111.0,57.67,2.277072164928024,2.28701274416322,0.092034021720234,太原直送,0.092034021720234,山西省,太原市,杏花岭区,巨轮街道,山西省太原市杏花岭区巨轮街道北大街天成公寓,112.55488357575268,37.887866586934486,177_94,112.55281429443691,37.88900108940375,4.0,2015290463.0,112.5556055,37.8879147,140107121237.0,0,0,50
太原直送,CWLS053,CWLS053,29,140107121246,（唐***连娇唐久便利店,112.561942,37.891528,1.0,3.0,,56.0,2.273825329072132,2.28428141419506,0.0894023793083813,太原直送,0.0894023793083813,山西省,太原市,杏花岭区,巨轮街道,山西省太原市杏花岭区巨轮街道解放路景泽睿苑,112.5556686747776,37.89103041438863,177_94,112.55281429443691,37.88900108940375,4.0,7842254222.0,112.5559147,37.8906455,140107121246.0,0,0,50
太原直送,CWLS030,CWLS030,53,140107121258,太原***工商户）,112.556506,37.887223,1.0,3.0,111.0,38.0,2.2796437073115183,2.291192878894311,0.0915082388039452,太原直送,0.0915082388039452,山西省,太原市,杏花岭区,巨轮街道,山西省太原市杏花岭区巨轮街道绿柳巷万达·龙樾府,112.55022235131344,37.88671550726048,177_93,112.55281429443691,37.88450448419733,4.0,11212365022.0,112.5502256,37.8866722,140107121258.0,0,0,50
太原直送,CWLS030,CWLS030,5,140107121269,太原***烟酒商行,112.559328,37.883738,1.0,3.0,111.0,38.0,2.282042201818801,2.2915109948470707,0.0957245174968205,太原直送,0.0957245174968205,山西省,太原市,杏花岭区,巨轮街道,山西省太原市杏花岭区巨轮街道前营坊街鸿昇龙潭公馆,112.5530505656155,37.883234744088405,177_93,112.55281429443691,37.88450448419733,4.0,11252299854.0,112.5530131,37.8833884,140107121269.0,0,0,50
太原直送,CWLS030,CWLS030,58,140107121281,太原***程便利店,112.561816,37.887283,1.0,3.0,111.0,25.0,2.2778887235782657,2.287271962167164,0.0932834022160419,太原直送,0.0932834022160419,山西省,太原市,杏花岭区,巨轮街道,山西省太原市杏花岭区巨轮街道解放路中国邮政储蓄银行(解放路支行),112.55554293446664,37.88678442948776,177_94,112.55281429443691,37.88900108940375,4.0,2004160293.0,112.5558119,37.8863478,140107121281.0,0,0,50
太原直送,CWLS053,CWLS053,58,140107121295,（金***亮金虎便利店,112.564339,37.896021,1.0,3.0,111.0,44.33,2.2688023387867005,2.279464013277022,0.0862800336114933,太原直送,0.0862800336114933,山西省,太原市,杏花岭区,巨轮街道,山西省太原市杏花岭区巨轮街道兵工北路中车·国际广场,112.55806943407109,37.89552789151308,178_95,112.55860722265408,37.893497694610176,2.0,11054539589.0,112.557974,37.8947262,140107121295.0,0,0,50
太原直送,CWLS054,CWLS054,7,140107121308,太原***便利超市,112.561854,37.893284,1.0,3.0,111.0,33.5,2.272189419315651,2.28314798996758,0.0877515641000164,太原直送,0.0877515641000164,山西省,太原市,杏花岭区,巨轮街道,山西省太原市杏花岭区巨轮街道胜利街,112.55558030775542,37.89278660461983,177_95,112.55281429443691,37.893497694610176,4.0,1958797111.0,112.5557336,37.8928082,140107121308.0,0,0,50
太原直送,CWLS030,CWLS030,22,140107121316,太原***烟酒商行,112.560336,37.882082,1.0,3.0,111.0,32.0,2.2832901956645806,2.291908037994758,0.0976231692273955,太原直送,0.0976231692273955,山西省,太原市,杏花岭区,巨轮街道,山西省太原市杏花岭区巨轮街道城坊街万达国际中心,112.55406073380482,37.88158010715064,177_92,112.55281429443691,37.88000787899091,4.0,9426153963.0,112.5544239,37.8815496,140107121316.0,0,0,50
太原直送,CWLS051,CWLS051,103,140107121321,太原***龙儿酒坊,112.562866,37.882099,1.0,3.0,111.0,34.67,2.2824691486083686,2.290051866125308,0.0984924294806473,太原直送,0.0984924294806473,山西省,太原市,杏花岭区,巨轮街道,山西省太原市杏花岭区巨轮街道城坊东街城坊东街17号院,112.55659545646022,37.88160110694339,178_92,112.55860722265408,37.88000787899091,4.0,7023262064.0,112.5556672,37.8815685,140107121321.0,0,0,50
太原直送,CWLS051,CWLS051,103,140107121339,太原***昌烟酒行,112.564222,37.882099,1.0,3.0,111.0,34.0,2.2820387675210534,2.289063789665985,0.0989902590005722,太原直送,0.0989902590005722,山西省,太原市,杏花岭区,巨轮街道,山西省太原市杏花岭区巨轮街道城坊东街城坊东街17号院,112.5579538488822,37.88160314041031,178_92,112.55860722265408,37.88000787899091,4.0,4220431864.0,112.5587745,37.8799869,140107121339.0,0,0,50
太原直送,CWLS030,CWLS030,1,140107121345,（唐***艳军唐久便利店,112.561738,37.885604,1.0,3.0,111.0,42.0,2.279505050721754,2.2884764467070604,0.0948168600302707,太原直送,0.0948168600302707,山西省,太原市,杏花岭区,巨轮街道,山西省太原市杏花岭区巨轮街道解放路215号万达国际中心,112.55546498455462,37.88510499785664,177_93,112.55281429443691,37.88450448419733,4.0,1902072373.0,112.5555476,37.8849985,140107121345.0,0,0,50
太原直送,CWLS053,CWLS053,41,140107121350,太原***工商户）,112.562093,37.890309,1.0,3.0,111.0,41.0,2.274932383051413,2.285002988329112,0.0905852413807,太原直送,0.0905852413807,山西省,太原市,杏花岭区,巨轮街道,山西省太原市杏花岭区巨轮街道解放北路上北关小区,112.55582009511676,37.88981142339686,178_94,112.55860722265408,37.88900108940375,4.0,7217344870.0,112.555888,37.8894797,140107121350.0,0,0,50
