station_name,line_code,line_name,deliver_no,customer_code,customer_name,longitude,latitude,order_cycle_type,order_weekday,city_village_code,avg_order_qty,distance_to_平城直送,distance_to_灵丘中转站,distance_to_太原直送,nearest_station,distance_to_station,province,city,district,township,full_address,lon_84,lat_84,grid_id,LonGridCenter,LatGridCenter,group,customer_osmid_mapping,OSM_X,OSM_Y,BB_RETAIL_CUSTOMER_CODE,kmeans_cluster,dbscan_label,kmeans_label
太原直送,CWLS021,CWLS021,168,140105100076,太原***酒副食店,112.569414,37.825504,1.0,3.0,111.0,62.67,2.3341781378142485,2.324481078893309,0.1542994340948741,太原直送,0.1542994340948741,山西省,太原市,小店区,营盘街道,山西省太原市小店区营盘街道体育路阳光花园,112.56316064283855,37.825005845011184,179_80,112.56440015087122,37.82604861651383,1.0,1883671603.0,112.5630429,37.8257538,140105100076.0,0,0,91
太原直送,CWLS020,CWLS020,62,140105101887,太原***迎花商店,112.565959,37.82947,1.0,3.0,111.0,50.33,2.331472561095451,2.324186088887456,0.1495577055353547,太原直送,0.1495577055353547,山西省,太原市,小店区,营盘街道,山西省太原市小店区营盘街道永康街7-1号山西体育场,112.55969986946734,37.828967857456185,178_81,112.55860722265408,37.83054522172026,1.0,7543026217.0,112.5584341,37.830154,140105101887.0,0,0,91
太原直送,CWLS021,CWLS021,112,140105107673,（金***虎便利加盟店,112.569304,37.828643,1.0,3.0,111.0,69.33,2.3312256536982847,2.322366992363607,0.1512514929546147,太原直送,0.1512514929546147,山西省,太原市,小店区,营盘街道,山西省太原市小店区营盘街道体育路铜苑小区,112.56305012059258,37.82814517267136,179_80,112.56440015087122,37.82604861651383,1.0,1885447602.0,112.562967,37.8279986,140105107673.0,0,0,91
太原直送,CWLS021,CWLS021,119,140105110594,（金***华金虎便利店,112.57087,37.830612,1.0,3.0,111.0,25.0,2.3288699793440566,2.31987115109029,0.149808980004534,太原直送,0.149808980004534,山西省,太原市,小店区,营盘街道,山西省太原市小店区营盘街道二营盘街17-1号白鸽小区,112.56461809364473,37.83011638082901,179_81,112.56440015087122,37.83054522172026,1.0,3663262600.0,112.5628889,37.8302687,140105110594.0,0,0,91
太原直送,CWLS021,CWLS021,104,140105111840,太原***德盛商店,112.574043,37.828574,1.0,3.0,111.0,86.67,2.3298348904119743,2.319024971589993,0.1527013708550086,太原直送,0.1527013708550086,山西省,太原市,小店区,营盘街道,山西省太原市小店区营盘街道并州南路西一巷核馨苑,112.56779536710069,37.828081622141816,180_80,112.57019307908838,37.82604861651383,1.0,7535735054.0,112.5671451,37.8280741,140105111840.0,0,0,91
太原直送,CWLS021,CWLS021,91,140105111959,太原***博涵酒业,112.574094,37.828575,1.0,3.0,111.0,26.0,2.329818312508722,2.318987813544518,0.1527160404967321,太原直送,0.1527160404967321,山西省,太原市,小店区,营盘街道,山西省太原市小店区营盘街道并州南路西一巷核馨苑,112.56784642724033,37.82808267568978,180_80,112.57019307908838,37.82604861651383,1.0,7535735054.0,112.5671451,37.8280741,140105111959.0,0,0,91
太原直送,CWLS021,CWLS021,156,140105112241,太原***华源商行,112.571298,37.825014,1.0,3.0,111.0,78.0,2.3340652320674296,2.3234767180268854,0.1552941952102476,太原直送,0.1552941952102476,山西省,太原市,小店区,营盘街道,山西省太原市小店区营盘街道亲贤北街北二条阳光花园,112.56504731888478,37.82451805200511,179_80,112.56440015087122,37.82604861651383,1.0,1885447858.0,112.5652688,37.8257684,140105112241.0,0,0,91
太原直送,CWLS021,CWLS021,123,140105112962,（唐***捷唐久便利店,112.571996,37.830684,1.0,3.0,111.0,48.33,2.328455027651169,2.3190147980573568,0.1500716471889343,太原直送,0.1500716471889343,山西省,太原市,小店区,营盘街道,山西省太原市小店区营盘街道二营盘街核馨苑,112.56574558309732,37.83018970097567,179_81,112.56440015087122,37.83054522172026,1.0,7535735051.0,112.5675174,37.830344,140105112962.0,0,0,91
太原直送,CWLS020,CWLS020,56,140105112963,（唐***虹唐久便利店,112.56654,37.830723,1.0,3.0,111.0,63.33,2.330101243731052,2.3228959719048947,0.1485001528921775,太原直送,0.1485001528921775,山西省,太原市,小店区,营盘街道,山西省太原市小店区营盘街道王村南街山西全民健身,112.56028166390278,37.83022185121687,178_81,112.55860722265408,37.83054522172026,1.0,7543026217.0,112.5584341,37.830154,140105112963.0,0,0,91
太原直送,CWLS021,CWLS021,102,140105113467,太原***恒鑫商行,112.574108,37.828553,1.0,3.0,111.0,66.67,2.329834965231873,2.318993189054252,0.1527412725002619,太原直送,0.1527412725002619,山西省,太原市,小店区,营盘街道,山西省太原市小店区营盘街道并州南路西一巷上上城,112.56786044629912,37.82806068704275,180_80,112.57019307908838,37.82604861651383,1.0,7535735054.0,112.5671451,37.8280741,140105113467.0,0,0,91
太原直送,CWLS020,CWLS020,55,140105113600,太原***烟酒商店,112.56648,37.830722,1.0,3.0,111.0,71.67,2.33012077051169,2.3229396847617445,0.1484852713571248,太原直送,0.1484852713571248,山西省,太原市,小店区,营盘街道,山西省太原市小店区营盘街道王村南街山西全民健身,112.56022156784688,37.830220768566754,178_81,112.55860722265408,37.83054522172026,1.0,7543026217.0,112.5584341,37.830154,140105113600.0,0,0,91
太原直送,BWLS051,BWLS051,68,140105113851,（唐***慧华唐久便利店,112.574024,37.835787,1.0,2.0,111.0,35.67,2.322975709961038,2.314000686344756,0.1458453519896951,太原直送,0.1458453519896951,山西省,太原市,小店区,营盘街道,山西省太原市小店区营盘街道并州南路28号电建小区,112.56777551040844,37.83529569747365,180_82,112.57019307908838,37.83504182692668,1.0,1881730387.0,112.5675304,37.8353839,140105113851.0,0,0,91
太原直送,CWLS021,CWLS021,108,140105114002,太原***和便利店,112.570647,37.828536,1.0,3.0,111.0,24.67,2.3309138292980727,2.3214804745338724,0.1517325441854814,太原直送,0.1517325441854814,山西省,太原市,小店区,营盘街道,山西省太原市小店区营盘街道并州南路西一巷电建二小区,112.56439502876924,37.82803980347344,179_80,112.56440015087122,37.82604861651383,1.0,7535735047.0,112.5647849,37.8280134,140105114002.0,0,0,91
太原直送,CWLS021,CWLS021,111,140105114511,太原***大旺商店,112.569968,37.82855,1.0,3.0,111.0,63.33,2.331109539228475,2.32195663160038,0.151526499576806,太原直送,0.151526499576806,山西省,太原市,小店区,营盘街道,山西省太原市小店区营盘街道并州南路西一巷铜苑小区,112.56371508122064,37.82805298274872,179_80,112.56440015087122,37.82604861651383,1.0,1885447602.0,112.562967,37.8279986,140105114511.0,0,0,91
太原直送,CWLS020,CWLS020,75,140105114689,太原***茂业商店,112.568355,37.82624,1.0,3.0,111.0,67.0,2.33380417576047,2.324724410344161,0.1533044815163591,太原直送,0.1533044815163591,山西省,太原市,小店区,营盘街道,山西省太原市小店区营盘街道永康街太原茂业天地,112.56209999865598,37.8257406050304,179_80,112.56440015087122,37.82604861651383,1.0,1883671614.0,112.5629467,37.8257494,140105114689.0,0,0,91
太原直送,CWLS021,CWLS021,154,140105115342,太原***诚信商店,112.57139,37.824276,1.0,3.0,111.0,62.33,2.3347393633315936,2.3239272250905407,0.1560280625336343,太原直送,0.1560280625336343,山西省,太原市,小店区,营盘街道,山西省太原市小店区营盘街道亲贤北街北二条阳光大厦(体育路),112.5651395270679,37.82378005117826,179_79,112.56440015087122,37.82155201130741,1.0,1885448142.0,112.5651774,37.8231092,140105115342.0,0,0,91
太原直送,CWLS021,CWLS021,114,140105115417,（唐***斌唐久便利店,112.569364,37.828581,1.0,3.0,111.0,38.0,2.331266140716029,2.3223673291019264,0.151327724112269,太原直送,0.151327724112269,山西省,太原市,小店区,营盘街道,山西省太原市小店区营盘街道体育路154号铜苑小区,112.5631102146052,37.82808323864887,179_80,112.56440015087122,37.82604861651383,1.0,1885447602.0,112.562967,37.8279986,140105115417.0,0,0,91
太原直送,CWLS020,CWLS020,57,140105116205,太原***品经销部,112.56589,37.830753,1.0,3.0,111.0,83.33,2.330274033579955,2.323341105316221,0.1483007232248003,太原直送,0.1483007232248003,山西省,太原市,小店区,营盘街道,山西省太原市小店区营盘街道王村南街山西省全民健身中心,112.55963060811337,37.83025095386669,178_81,112.55860722265408,37.83054522172026,1.0,7543026217.0,112.5584341,37.830154,140105116205.0,0,0,91
太原直送,CWLS020,CWLS020,77,140105116874,（金***书金虎便利店,112.564799,37.822882,1.0,3.0,111.0,64.33,2.3380961426316507,2.329614680361114,0.1556474405732361,太原直送,0.1556474405732361,山西省,太原市,小店区,平阳路街道,山西省太原市小店区平阳路街道体育西路园梅源商务,112.55853870167198,37.8223772342296,178_79,112.55860722265408,37.82155201130741,1.0,1397244273.0,112.5586065,37.8228305,140105116874.0,0,0,91
太原直送,CWLS020,CWLS020,59,140105117712,太原***佳便利店,112.565026,37.830704,1.0,3.0,111.0,97.33,2.3305884659703446,2.323994871764779,0.1481255899903881,太原直送,0.1481255899903881,山西省,太原市,小店区,营盘街道,山西省太原市小店区营盘街道王村南街山西省体育局宿舍,112.55876517946764,37.83020072001928,178_81,112.55860722265408,37.83054522172026,1.0,7543026217.0,112.5584341,37.830154,140105117712.0,0,0,91
太原直送,CWLS021,CWLS021,127,140105118490,太原***烟酒商店,112.573034,37.83095,1.0,3.0,111.0,87.0,2.327882942681178,2.318086133415445,0.1501307334625384,太原直送,0.1501307334625384,山西省,太原市,小店区,营盘街道,山西省太原市小店区营盘街道二营盘街合生国际,112.56678486990393,37.83045689891714,179_81,112.56440015087122,37.83054522172026,1.0,7535735051.0,112.5675174,37.830344,140105118490.0,0,0,91
太原直送,CWLS020,CWLS020,64,140105118609,太原***烟酒商行,112.569239,37.828753,1.0,3.0,111.0,25.0,2.3311410485245214,2.32233672606386,0.1511277704990035,太原直送,0.1511277704990035,山西省,太原市,小店区,营盘街道,山西省太原市小店区营盘街道体育路铜苑小区,112.5629850135634,37.828255107425086,179_80,112.56440015087122,37.82604861651383,1.0,1885447602.0,112.562967,37.8279986,140105118609.0,0,0,91
太原直送,CWLS020,CWLS020,78,140105118637,（寸***寸草心便利店,112.564799,37.822882,1.0,3.0,111.0,24.0,2.3380961426316507,2.329614680361114,0.1556474405732361,太原直送,0.1556474405732361,山西省,太原市,小店区,平阳路街道,山西省太原市小店区平阳路街道体育西路园梅源商务,112.55853870167198,37.8223772342296,178_79,112.55860722265408,37.82155201130741,1.0,1397244273.0,112.5586065,37.8228305,140105118637.0,0,0,91
太原直送,CWLS021,CWLS021,120,140105118733,太原***烟酒商行,112.57086,37.830605,1.0,3.0,111.0,44.0,2.3288797182201164,2.3198831977666483,0.1498127689250807,太原直送,0.1498127689250807,山西省,太原市,小店区,营盘街道,山西省太原市小店区营盘街道二营盘街17-1号白鸽小区,112.56460808083445,37.830109367898025,179_81,112.56440015087122,37.83054522172026,1.0,3663262600.0,112.5628889,37.8302687,140105118733.0,0,0,91
太原直送,CWLS021,CWLS021,117,140105118925,太原***烟酒商行,112.569845,37.830821,1.0,3.0,111.0,76.67,2.328986952921805,2.320459297815195,0.1493136952459469,太原直送,0.1493136952459469,山西省,太原市,小店区,营盘街道,山西省太原市小店区营盘街道二营盘街慧泽苑小区,112.5635916443412,37.83032417248956,179_81,112.56440015087122,37.83054522172026,1.0,3663262600.0,112.5628889,37.8302687,140105118925.0,0,0,91
太原直送,CWLS021,CWLS021,89,140105119264,太原***和便利店,112.561727,37.827177,1.0,3.0,111.0,77.0,2.33496566628034,2.3288187657696726,0.1507513154569477,太原直送,0.1507513154569477,山西省,太原市,小店区,营盘街道,山西省太原市小店区营盘街道长治路王村社区龙兆远景,112.5554607424793,37.82666822237495,177_80,112.55281429443691,37.82604861651383,1.0,1897916529.0,112.5555041,37.8255758,140105119264.0,0,0,91
太原直送,CWLS020,CWLS020,67,140105119516,（金***勤金虎便利店,112.564923,37.825499,1.0,3.0,111.0,61.0,2.335569198010627,2.327698634972537,0.1531392765948658,太原直送,0.1531392765948658,山西省,太原市,小店区,营盘街道,山西省太原市小店区营盘街道体育西路茂业天地,112.558662608515,37.82499479607986,178_80,112.55860722265408,37.82604861651383,1.0,1397244274.0,112.5585339,37.825625,140105119516.0,0,0,91
太原直送,CWLS020,CWLS020,66,140105119517,太原***烟酒商行,112.564965,37.825676,1.0,3.0,111.0,77.33,2.335387890707877,2.327545020497345,0.1529780470296283,太原直送,0.1529780470296283,山西省,太原市,小店区,营盘街道,山西省太原市小店区营盘街道体育西路295号茂业天地,112.5587046589091,37.82517188267033,178_80,112.55860722265408,37.82604861651383,1.0,1397244274.0,112.5585339,37.825625,140105119517.0,0,0,91
太原直送,CWLS021,CWLS021,138,140105119630,太原***烟酒商行,112.572221,37.8358,1.0,3.0,111.0,64.0,2.323518064217492,2.3152837123328966,0.1452653215086096,太原直送,0.1452653215086096,山西省,太原市,小店区,营盘街道,山西省太原市小店区营盘街道体育北街省安装公司宿舍,112.5659702819992,37.83530673655637,179_82,112.56440015087122,37.83504182692668,1.0,7840688583.0,112.5670682,37.8356958,140105119630.0,0,0,91
太原直送,CWLS021,CWLS021,81,140105119672,太原***运便利店,112.569058,37.832561,1.0,3.0,111.0,40.0,2.3275747182732944,2.3198094354709404,0.1474217933312435,太原直送,0.1474217933312435,山西省,太原市,小店区,营盘街道,山西省太原市小店区营盘街道体育路山西全民健身,112.56280330904296,37.83206345325485,179_81,112.56440015087122,37.83054522172026,1.0,7543026220.0,112.5627183,37.8333954,140105119672.0,0,0,91
太原直送,CWLS021,CWLS021,90,140105119684,太原***烟酒商行,112.570621,37.828535,1.0,3.0,111.0,59.33,2.330922781548111,2.321499778468432,0.1517260757022309,太原直送,0.1517260757022309,山西省,太原市,小店区,营盘街道,山西省太原市小店区营盘街道并州南路西一巷电建二小区,112.56436899313768,37.82803877218607,179_80,112.56440015087122,37.82604861651383,1.0,7535735047.0,112.5647849,37.8280134,140105119684.0,0,0,91
太原直送,CWLS020,CWLS020,83,140105119694,（金***将金虎便利店,112.567325,37.822307,1.0,3.0,111.0,64.67,2.3378631522867184,2.328209728632925,0.1568312389799896,太原直送,0.1568312389799896,山西省,太原市,小店区,平阳路街道,山西省太原市小店区平阳路街道怡和巷金色摇篮幼儿园(亲贤园),112.56106887808645,37.8218056718521,178_79,112.55860722265408,37.82155201130741,1.0,7842251525.0,112.5610434,37.8223195,140105119694.0,0,0,91
太原直送,CWLS021,CWLS021,121,140105119814,太原***烟酒商行,112.57192,37.830859,1.0,3.0,111.0,79.0,2.328311875205081,2.318946994482621,0.1498819541672746,太原直送,0.1498819541672746,山西省,太原市,小店区,营盘街道,山西省太原市小店区营盘街道二营盘街体育路便民市场,112.56566946399975,37.83036464075206,179_81,112.56440015087122,37.83054522172026,1.0,7535735051.0,112.5675174,37.830344,140105119814.0,0,0,91
太原直送,CWLS021,CWLS021,84,140105120018,太原***尚便利店,112.563259,37.832793,1.0,3.0,111.0,44.67,2.32915173134684,2.323808147637188,0.1456601374982155,太原直送,0.1456601374982155,山西省,太原市,小店区,营盘街道,山西省太原市小店区营盘街道王村南街159-商19号恒实商业广场,112.5569948786726,37.83228743084079,178_81,112.55860722265408,37.83054522172026,1.0,1893627015.0,112.5579735,37.8321624,140105120018.0,0,0,91
太原直送,CWLS020,CWLS020,81,140105120071,太原***业经销店,112.567691,37.823395,1.0,3.0,111.0,11.0,2.336715312921112,2.3271874116170816,0.1558739834225066,太原直送,0.1558739834225066,山西省,太原市,小店区,平阳路街道,山西省太原市小店区平阳路街道亲贤北街怡和广场,112.56143531876764,37.822894317594425,178_79,112.55860722265408,37.82155201130741,1.0,7842251525.0,112.5610434,37.8223195,140105120071.0,0,0,91
太原直送,CWLS021,CWLS021,125,140105120150,（金***珍金虎便利店,112.572617,37.830724,1.0,3.0,111.0,48.33,2.3282261028278635,2.318542407127811,0.1502196622849352,太原直送,0.1502196622849352,山西省,太原市,小店区,营盘街道,山西省太原市小店区营盘街道二营盘街核馨苑,112.56636737402856,37.83023040536366,179_81,112.56440015087122,37.83054522172026,1.0,7535735051.0,112.5675174,37.830344,140105120150.0,0,0,91
太原直送,CWLS020,CWLS020,69,140105120404,（唐***文唐久便利店,112.564856,37.824566,1.0,3.0,111.0,72.0,2.336477121629484,2.3283978947853785,0.1540274881246876,太原直送,0.1540274881246876,山西省,太原市,小店区,营盘街道,山西省太原市小店区营盘街道体育西路太原茂业天地,112.5585956032618,37.82406156236232,178_80,112.55860722265408,37.82604861651383,1.0,4051989617.0,112.5586059,37.8229135,140105120404.0,0,0,91
太原直送,CWLS020,CWLS020,86,140105120508,太原***乐宇商店,112.567316,37.822872,1.0,3.0,111.0,87.0,2.337328441015084,2.327821164485147,0.1562827167987584,太原直送,0.1562827167987584,山西省,太原市,小店区,平阳路街道,山西省太原市小店区平阳路街道怡和巷怡和广场,112.56105979867884,37.82237074176187,178_79,112.55860722265408,37.82155201130741,1.0,7842251525.0,112.5610434,37.8223195,140105120508.0,0,0,91
太原直送,CWLS020,CWLS020,80,140105120616,（唐***悦唐久便利店,112.567177,37.82326,1.0,3.0,111.0,87.33,2.337002207475424,2.327649357985433,0.1558720627469858,太原直送,0.1558720627469858,山西省,太原市,小店区,平阳路街道,山西省太原市小店区平阳路街道怡和巷卡萨精品酒店,112.56092053660352,37.82275861142353,178_79,112.55860722265408,37.82155201130741,1.0,7842251525.0,112.5610434,37.8223195,140105120616.0,0,0,91
太原直送,CWLS021,CWLS021,150,140105120674,（金***达金虎便利店,112.572286,37.826376,1.0,3.0,111.0,55.67,2.332465733694275,2.3218179845157896,0.1542737487001564,太原直送,0.1542737487001564,山西省,太原市,小店区,营盘街道,山西省太原市小店区营盘街道并州南路西二巷百桐园,112.56603645558766,37.82588138597209,179_80,112.56440015087122,37.82604861651383,1.0,1885447858.0,112.5652688,37.8257684,140105120674.0,0,0,91
太原直送,CWLS021,CWLS021,130,140105120799,（金***红金虎便利店,112.569318,37.831198,1.0,3.0,111.0,50.67,2.3287908832872906,2.320573762905417,0.1488026735310861,太原直送,0.1488026735310861,山西省,太原市,小店区,营盘街道,山西省太原市小店区营盘街道体育路118号慧泽苑小区,112.5630638452079,37.83070057422947,179_81,112.56440015087122,37.83054522172026,1.0,3663262600.0,112.5628889,37.8302687,140105120799.0,0,0,91
太原直送,CWLS021,CWLS021,151,140105120810,太原***霞便利店,112.571976,37.826366,1.0,3.0,111.0,53.33,2.332570380669785,2.3220465693954053,0.1541931951092526,太原直送,0.1541931951092526,山西省,太原市,小店区,营盘街道,山西省太原市小店区营盘街道并州南路西二巷百桐园,112.56572605656388,37.82587103349254,179_80,112.56440015087122,37.82604861651383,1.0,1885447858.0,112.5652688,37.8257684,140105120810.0,0,0,91
太原直送,CWLS021,CWLS021,132,140105120931,太原***聚缘商店,112.570958,37.832791,1.0,3.0,111.0,17.67,2.326769811512301,2.31828744689695,0.1477515459445344,太原直送,0.1477515459445344,山西省,太原市,小店区,营盘街道,山西省太原市小店区营盘街道狄村北街同苑小区,112.5647059611506,37.83229581531746,179_81,112.56440015087122,37.83054522172026,1.0,7543026220.0,112.5627183,37.8333954,140105120931.0,0,0,91
太原直送,BWLS017,BWLS017,69,140105120978,太原***锋便利店,112.561432,37.827367,1.0,2.0,111.0,70.0,2.334876859248254,2.328897943241824,0.150499153143792,太原直送,0.150499153143792,山西省,太原市,小店区,营盘街道,山西省太原市小店区营盘街道长治路金业集团(长治路),112.5551651695896,37.82685778425436,177_80,112.55281429443691,37.82604861651383,1.0,1897916384.0,112.555402,37.8255716,140105120978.0,0,0,91
太原直送,CWLS021,CWLS021,134,140105121020,太原***食经销部,112.571771,37.833878,1.0,3.0,111.0,21.0,2.325485231276476,2.3169466472290643,0.1469574656456751,太原直送,0.1469574656456751,山西省,太原市,小店区,营盘街道,山西省太原市小店区营盘街道同苑小区,112.565519919985,37.833383929019085,179_82,112.56440015087122,37.83504182692668,1.0,1881730486.0,112.5673592,37.8354048,140105121020.0,0,0,91
太原直送,CWLS020,CWLS020,58,140105121090,太原***顺便利店,112.563754,37.830654,1.0,3.0,111.0,58.0,2.331030844293996,2.3249421915765938,0.1478551387067727,太原直送,0.1478551387067727,山西省,太原市,小店区,营盘街道,山西省太原市小店区营盘街道王村南街保利大都汇,112.55749100025297,37.83014884979693,178_81,112.55860722265408,37.83054522172026,1.0,7535735059.0,112.5579677,37.8301438,140105121090.0,0,0,91
太原直送,CWLS020,CWLS020,90,140105121101,太原***虫便利店,112.570242,37.823209,1.0,3.0,111.0,74.33,2.3361073139924486,2.325493983466743,0.1567333894133581,太原直送,0.1567333894133581,山西省,太原市,小店区,平阳路街道,山西省太原市小店区平阳路街道官道巷橘子酒店(太原市亲贤北街茂业天地店),112.56399008389428,37.82271152972369,179_79,112.56440015087122,37.82155201130741,1.0,1878433914.0,112.5632234,37.8229077,140105121101.0,0,0,91
太原直送,CWLS021,CWLS021,155,140105121111,（唐***明唐久便利店,112.571374,37.82458,1.0,3.0,111.0,70.33,2.334454946146101,2.323725984760893,0.1557319502542776,太原直送,0.1557319502542776,山西省,太原市,小店区,营盘街道,山西省太原市小店区营盘街道亲贤北街北二条椰子水晶酒店(太原亲贤街店),112.56512347058128,37.82408407704504,179_80,112.56440015087122,37.82604861651383,1.0,1885448142.0,112.5651774,37.8231092,140105121111.0,0,0,91
太原直送,CWLS021,CWLS021,153,140105121135,太原***烟酒商行,112.571217,37.826273,1.0,3.0,111.0,96.0,2.3328919539147086,2.3226542154993663,0.1540640992444371,太原直送,0.1540640992444371,山西省,太原市,小店区,营盘街道,山西省太原市小店区营盘街道并州南路西二巷世纪家园(亲贤北街北二巷),112.56496606472756,37.82577714261512,179_80,112.56440015087122,37.82604861651383,1.0,1885447858.0,112.5652688,37.8257684,140105121135.0,0,0,91
太原直送,CWLS020,CWLS020,68,140105121286,太原***兵便利店,112.564885,37.825474,1.0,3.0,111.0,61.67,2.335604733297352,2.3277432971979493,0.1531541786077019,太原直送,0.1531541786077019,山西省,太原市,小店区,营盘街道,山西省太原市小店区营盘街道体育西路太原茂业天地,112.55862454719072,37.82496973757256,178_80,112.55860722265408,37.82604861651383,1.0,1397244274.0,112.5585339,37.825625,140105121286.0,0,0,91
太原直送,CWLS021,CWLS021,169,140105121368,（唐***阳唐久便利店,112.561876,37.827347,1.0,3.0,111.0,63.33,2.3347577589747903,2.328593434693998,0.1506199558657433,太原直送,0.1506199558657433,山西省,太原市,小店区,营盘街道,山西省太原市小店区营盘街道长治路98号王村社区龙兆远景,112.55560999927708,37.82683848178655,177_80,112.55281429443691,37.82604861651383,1.0,1897916529.0,112.5555041,37.8255758,140105121368.0,0,0,91
太原直送,BWLS017,BWLS017,75,140105121406,（唐***涛唐久便利店,112.561474,37.827003,1.0,2.0,111.0,67.33,2.3352097286841285,2.329121470331676,0.1508631975035677,太原直送,0.1508631975035677,山西省,太原市,小店区,营盘街道,山西省太原市小店区营盘街道长治路金业集团(长治路),112.55520729047684,37.82649379685399,177_80,112.55281429443691,37.82604861651383,1.0,1897916384.0,112.555402,37.8255716,140105121406.0,0,0,91
太原直送,CWLS020,CWLS020,70,140105121451,（金***平金虎便利店,112.5648,37.824591,1.0,3.0,111.0,70.67,2.3364706795603056,2.328420535017672,0.1539895936516506,太原直送,0.1539895936516506,山西省,太原市,小店区,营盘街道,山西省太原市小店区营盘街道体育西路太原茂业天地,112.55853950550006,37.824086485047225,178_80,112.55860722265408,37.82604861651383,1.0,4051989617.0,112.5586059,37.8229135,140105121451.0,0,0,91
太原直送,CWLS020,CWLS020,71,140105121458,（金***卷金虎便利店,112.567591,37.826238,1.0,3.0,111.0,63.33,2.334041746294402,2.3252725697057595,0.1531035461019763,太原直送,0.1531035461019763,山西省,太原市,小店区,营盘街道,山西省太原市小店区营盘街道永康街太原茂业天地,112.56133483568038,37.82573760194551,178_80,112.55860722265408,37.82604861651383,1.0,1883671614.0,112.5629467,37.8257494,140105121458.0,0,0,91
太原直送,CWLS020,CWLS020,87,140105121472,太原***品经销部,112.568515,37.823218,1.0,3.0,111.0,35.0,2.3366298744980987,2.326721996475296,0.1562602921698305,太原直送,0.1562602921698305,山西省,太原市,小店区,平阳路街道,山西省太原市小店区平阳路街道亲贤北街茂业2期负1层德锦城,112.56226058785568,37.82271836877323,179_79,112.56440015087122,37.82155201130741,1.0,4054893247.0,112.5630517,37.8229166,140105121472.0,0,0,91
太原直送,CWLS021,CWLS021,139,140105121481,太原***珍小卖部,112.572119,37.835805,1.0,3.0,111.0,47.33,2.323544727358609,2.3153533435035327,0.1452290512259839,太原直送,0.1452290512259839,山西省,太原市,小店区,营盘街道,山西省太原市小店区营盘街道体育北街省安装公司宿舍,112.5658681499566,37.83531162201242,179_82,112.56440015087122,37.83504182692668,1.0,7840688583.0,112.5670682,37.8356958,140105121481.0,0,0,91
太原直送,CWLS021,CWLS021,93,140105121506,（金***娜金虎便利店,112.574094,37.828575,1.0,3.0,111.0,19.5,2.329818312508722,2.318987813544518,0.1527160404967321,太原直送,0.1527160404967321,山西省,太原市,小店区,营盘街道,山西省太原市小店区营盘街道并州南路西一巷核馨苑,112.56784642724033,37.82808267568978,180_80,112.57019307908838,37.82604861651383,1.0,7535735054.0,112.5671451,37.8280741,140105121506.0,0,0,91
太原直送,CWLS020,CWLS020,88,140105121515,（唐***凯唐久便利店,112.569365,37.822421,1.0,3.0,111.0,74.33,2.3371267036940884,2.326671915371177,0.1572544742384151,太原直送,0.1572544742384151,山西省,太原市,小店区,平阳路街道,山西省太原市小店区平阳路街道体育路山西省交通干部学校,112.56311192874422,37.82192233334295,179_79,112.56440015087122,37.82155201130741,1.0,1878433914.0,112.5632234,37.8229077,140105121515.0,0,0,91
太原直送,BWLS017,BWLS017,70,140105121668,太原***峰便利店,112.561588,37.827246,1.0,2.0,111.0,53.33,2.334943322577656,2.3288703701204545,0.1506524371990007,太原直送,0.1506524371990007,山西省,太原市,小店区,营盘街道,山西省太原市小店区营盘街道长治路金业集团(长治路),112.55532147549098,37.82673701333252,177_80,112.55281429443691,37.82604861651383,1.0,1897916384.0,112.555402,37.8255716,140105121668.0,0,0,91
太原直送,CWLS021,CWLS021,137,140105121679,（唐***花唐久便利店,112.572019,37.835712,1.0,3.0,111.0,68.0,2.323664011398592,2.315489870648109,0.1452866973848572,太原直送,0.1452866973848572,山西省,太原市,小店区,营盘街道,山西省太原市小店区营盘街道体育北街翰府,112.56576803126218,37.83521849416563,179_82,112.56440015087122,37.83504182692668,1.0,7840688583.0,112.5670682,37.8356958,140105121679.0,0,0,91
太原直送,CWLS021,CWLS021,128,140105121900,太原***业经销部,112.572047,37.830859,1.0,3.0,111.0,44.0,2.3282728240358805,2.318856086635177,0.1499198171423654,太原直送,0.1499198171423654,山西省,太原市,小店区,营盘街道,山西省太原市小店区营盘街道二营盘街核馨苑,112.56579662900778,37.83036478536936,179_81,112.56440015087122,37.83054522172026,1.0,7535735051.0,112.5675174,37.830344,140105121900.0,0,0,91
太原直送,CWLS020,CWLS020,89,140105121953,（金***梅金虎便利店,112.569572,37.82332,1.0,3.0,111.0,60.67,2.336207606444683,2.3258951265921266,0.1564442455637094,太原直送,0.1564442455637094,山西省,太原市,小店区,平阳路街道,山西省太原市小店区平阳路街道体育路太原亲贤街万达悦华酒店,112.5633191227708,37.82282172232776,179_79,112.56440015087122,37.82155201130741,1.0,1878433914.0,112.5632234,37.8229077,140105121953.0,0,0,91
太原直送,CWLS021,CWLS021,126,140105122208,太原***烟酒商行,112.573778,37.830913,1.0,3.0,111.0,74.67,2.327689789309773,2.3175796296524465,0.1503942689233842,太原直送,0.1503942689233842,山西省,太原市,小店区,营盘街道,山西省太原市小店区营盘街道二营盘街核馨苑,112.56752978114312,37.83042069405619,180_81,112.57019307908838,37.83054522172026,1.0,7535735051.0,112.5675174,37.830344,140105122208.0,0,0,91
太原直送,CWLS021,CWLS021,131,140105122300,（唐***乐乐唐久便利,112.571183,37.832808,1.0,3.0,111.0,67.67,2.3266843184577035,2.31811439201994,0.147801963197381,太原直送,0.147801963197381,山西省,太原市,小店区,营盘街道,山西省太原市小店区营盘街道狄村北街同苑小区,112.56493126305688,37.83231308309214,179_81,112.56440015087122,37.83054522172026,1.0,7543026220.0,112.5627183,37.8333954,140105122300.0,0,0,91
太原直送,CWLS020,CWLS020,79,140105122327,（金***源金虎便利店,112.566242,37.823237,1.0,3.0,111.0,61.67,2.337312607126611,2.328334218267641,0.1556577111388962,太原直送,0.1556577111388962,山西省,太原市,小店区,平阳路街道,山西省太原市小店区平阳路街道亲贤北街241号金泽大厦(亲贤北街),112.5599840509349,37.82273433039203,178_79,112.55860722265408,37.82155201130741,1.0,7842251525.0,112.5610434,37.8223195,140105122327.0,0,0,91
太原直送,CWLS020,CWLS020,82,140105122338,（金***旺金虎便利店,112.567159,37.823299,1.0,3.0,111.0,67.67,2.3369706598500537,2.327634973171908,0.1558297554769313,太原直送,0.1558297554769313,山西省,太原市,小店区,平阳路街道,山西省太原市小店区平阳路街道亲贤北街卡萨精品酒店,112.56090250388934,37.82279759285559,178_79,112.55860722265408,37.82155201130741,1.0,7842251525.0,112.5610434,37.8223195,140105122338.0,0,0,91
太原直送,CWLS021,CWLS021,136,140105122372,太原***君归酒坊,112.571762,37.835674,1.0,3.0,111.0,56.33,2.3237793529580206,2.3157006005451093,0.1452439613959936,太原直送,0.1452439613959936,山西省,太原市,小店区,营盘街道,山西省太原市小店区营盘街道体育北街省安装公司宿舍,112.56551070038088,37.83518019460846,179_82,112.56440015087122,37.83504182692668,1.0,7840688583.0,112.5670682,37.8356958,140105122372.0,0,0,91
太原直送,CWLS021,CWLS021,31,140105122429,太原***烟酒商行,112.57384,37.830886,1.0,3.0,111.0,24.67,2.327696466709092,2.317554137080077,0.1504391187756696,太原直送,0.1504391187756696,山西省,太原市,小店区,营盘街道,山西省太原市小店区营盘街道二营盘街核馨苑,112.56759185843131,37.83039375560606,180_81,112.57019307908838,37.83054522172026,1.0,7535735051.0,112.5675174,37.830344,140105122429.0,0,0,91
太原直送,CWLS021,CWLS021,33,140105122442,太原***富民商行,112.572481,37.830918,1.0,3.0,111.0,34.0,2.328083275775378,2.318504245410393,0.149993686430463,太原直送,0.149993686430463,山西省,太原市,小店区,营盘街道,山西省太原市小店区营盘街道二营盘街合生国际,112.56623117921778,37.83042428314633,179_81,112.56440015087122,37.83054522172026,1.0,7535735051.0,112.5675174,37.830344,140105122442.0,0,0,91
太原直送,BWLS017,BWLS017,14,140105122448,太原***辉便利店,112.560929,37.826059,1.0,2.0,111.0,53.0,2.3362764400858023,2.3301702141459506,0.1516609968053731,太原直送,0.1516609968053731,山西省,太原市,小店区,营盘街道,山西省太原市小店区营盘街道永康街阳光国际商务中心,112.55466137132974,37.82554878729013,177_80,112.55281429443691,37.82604861651383,1.0,1897916384.0,112.555402,37.8255716,140105122448.0,0,0,91
太原直送,CWLS021,CWLS021,71,140105122474,太原***生鲜超市,112.572493,37.826385,1.0,3.0,111.0,24.33,2.332393666247616,2.3216637349523737,0.154325640656368,太原直送,0.154325640656368,山西省,太原市,小店区,营盘街道,山西省太原市小店区营盘街道并州南路西二巷百桐园,112.56624371875142,37.82589061933528,179_80,112.56440015087122,37.82604861651383,1.0,1885447858.0,112.5652688,37.8257684,140105122474.0,0,0,91
太原直送,CWLS021,CWLS021,70,140105122480,太原***德昌商店,112.569196,37.826439,1.0,3.0,111.0,19.67,2.333355691802899,2.3239836440052613,0.1533404428877123,太原直送,0.1533404428877123,山西省,太原市,小店区,营盘街道,山西省太原市小店区营盘街道体育路体旅大厦,112.56294221880552,37.82594070929096,179_80,112.56440015087122,37.82604861651383,1.0,1883671614.0,112.5629467,37.8257494,140105122480.0,0,0,91
太原直送,BWLS017,BWLS017,8,140105122491,（唐***唐久便利店,112.561346,37.827471,1.0,2.0,111.0,69.67,2.334804782386096,2.3288871652478105,0.1503783681019273,太原直送,0.1503783681019273,山西省,太原市,小店区,营盘街道,山西省太原市小店区营盘街道锦烨慢渡公寓民宿(长治路分店)金业集团(长治路),112.55507899608226,37.82696166308743,177_80,112.55281429443691,37.82604861651383,1.0,1897916384.0,112.555402,37.8255716,140105122491.0,0,0,91
太原直送,CWLS021,CWLS021,18,140105122583,太原***鲜便利店,112.570414,37.8356,1.0,3.0,111.0,22.33,2.324265521842545,2.3167187360171706,0.1449075784422597,太原直送,0.1449075784422597,山西省,太原市,小店区,营盘街道,山西省太原市小店区营盘街道体育北街同苑小区,112.5641608896879,37.83510459549176,179_82,112.56440015087122,37.83504182692668,1.0,2001038762.0,112.5627238,37.8350299,140105122583.0,0,0,91
太原直送,CWLS021,CWLS021,9,140105122664,（唐***唐久便利店,112.563225,37.832804,1.0,3.0,111.0,59.0,2.3291518556936084,2.3238249057728027,0.145641086047169,太原直送,0.145641086047169,山西省,太原市,小店区,营盘街道,山西省太原市小店区营盘街道王村南街159-商19号恒实商业广场,112.5569608168996,37.83229838110003,178_81,112.55860722265408,37.83054522172026,1.0,1893627015.0,112.5579735,37.8321624,140105122664.0,0,0,91
太原直送,CWLS021,CWLS021,46,140105122682,（唐***唐久便利店,112.571827,37.82636,1.0,3.0,111.0,42.33,2.33262182765338,2.322157278939132,0.1541558271522653,太原直送,0.1541558271522653,山西省,太原市,小店区,营盘街道,山西省太原市小店区营盘街道并州南路西二巷世纪家园(亲贤北街北二巷),112.56557686298976,37.825864862401176,179_80,112.56440015087122,37.82604861651383,1.0,1885447858.0,112.5652688,37.8257684,140105122682.0,0,0,91
太原直送,CWLS020,CWLS020,18,140105122790,太原***圆便利店,112.565998,37.829493,1.0,3.0,111.0,24.0,2.3314386152453186,2.3241420966928885,0.1495455767483585,太原直送,0.1495455767483585,山西省,太原市,小店区,营盘街道,山西省太原市小店区营盘街道永康街7-1号山西体育场,112.55973893044472,37.82899091540942,178_81,112.55860722265408,37.83054522172026,1.0,7543026217.0,112.5584341,37.830154,140105122790.0,0,0,91
太原直送,CWLS021,CWLS021,152,140105122806,太原***盛便利店,112.57256,37.83614,1.0,3.0,111.0,32.0,2.3230901866871205,2.314803642615288,0.1450474684301628,太原直送,0.1450474684301628,山西省,太原市,小店区,营盘街道,山西省太原市小店区营盘街道并州南路73号省安装公司宿舍,112.56630967537794,37.83564716904414,179_82,112.56440015087122,37.83504182692668,1.0,7840688583.0,112.5670682,37.8356958,140105122806.0,0,0,91
太原直送,CWLS021,CWLS021,30,140105122932,太原***烟酒商行,112.569936,37.830836,1.0,3.0,111.0,89.0,2.32894462834521,2.320383651942283,0.1493252788311476,太原直送,0.1493252788311476,山西省,太原市,小店区,营盘街道,山西省太原市小店区营盘街道二营盘街慧泽苑小区,112.56368277149863,37.83033928667395,179_81,112.56440015087122,37.83054522172026,1.0,3663262600.0,112.5628889,37.8302687,140105122932.0,0,0,91
太原直送,CWLS020,CWLS020,21,140105122974,太原***酒便利店,112.56817,37.828855,1.0,3.0,111.0,51.67,2.3313738156196693,2.3230309894532226,0.150736382048263,太原直送,0.150736382048263,山西省,太原市,小店区,营盘街道,山西省太原市小店区营盘街道俏肥牛山西省全民健身中心,112.56191441730752,37.82835575316117,179_81,112.56440015087122,37.83054522172026,1.0,1885448220.0,112.5628705,37.8279983,140105122974.0,0,0,91
太原直送,CWLS020,CWLS020,19,140105122975,（金***凤金虎便利店,112.568025,37.82625,1.0,3.0,111.0,48.0,2.333896429419476,2.324953577809666,0.153206782072464,太原直送,0.153206782072464,山西省,太原市,小店区,营盘街道,山西省太原市小店区营盘街道永康街太原茂业天地,112.56176949901165,37.82575017643556,179_80,112.56440015087122,37.82604861651383,1.0,1883671614.0,112.5629467,37.8257494,140105122975.0,0,0,91
太原直送,BWLS017,BWLS017,7,140105123107,太原***鸿烟酒店,112.561489,37.827243,1.0,2.0,111.0,64.67,2.3349769711147026,2.32894346539477,0.1506328530434125,太原直送,0.1506328530434125,山西省,太原市,小店区,营盘街道,山西省太原市小店区营盘街道王村小区(东门)金业集团(长治路),112.5552222907552,37.826733856225815,177_80,112.55281429443691,37.82604861651383,1.0,1897916384.0,112.555402,37.8255716,140105123107.0,0,0,91
太原直送,CWLS021,CWLS021,15,140105123113,太原***鑫烟酒店,112.561869,37.828299,1.0,3.0,111.0,49.67,2.333855154910001,2.3279351104128705,0.1496919320203974,太原直送,0.1496919320203974,山西省,太原市,小店区,营盘街道,山西省太原市小店区营盘街道尧盛饭庄金业苑,112.55560287600808,37.82779061248948,177_80,112.55281429443691,37.82604861651383,1.0,7535735066.0,112.5564399,37.8282736,140105123113.0,0,0,91
太原直送,CWLS020,CWLS020,12,140105123313,太原***元平商行,112.563707,37.830683,1.0,3.0,111.0,35.33,2.331017880746521,2.324955713702309,0.1478154491113799,太原直送,0.1478154491113799,山西省,太原市,小店区,营盘街道,山西省太原市小店区营盘街道王村南街保利大都汇,112.557443914493,37.830177784049965,178_81,112.55860722265408,37.83054522172026,1.0,7535735059.0,112.5579677,37.8301438,140105123313.0,0,0,91
太原直送,CWLS021,CWLS021,23,140105123327,太原***酒便利店,112.572397,37.828557,1.0,3.0,111.0,34.67,2.3303559336307376,2.320213836662689,0.1522217455293364,太原直送,0.1522217455293364,山西省,太原市,小店区,营盘街道,山西省太原市小店区营盘街道并州南路西一巷核馨苑,112.56614734531998,37.82806283464751,179_80,112.56440015087122,37.82604861651383,1.0,7535735054.0,112.5671451,37.8280741,140105123327.0,0,0,91
太原直送,BWLS051,BWLS051,39,140105123332,太原***烟酒商行,112.575923,37.832527,1.0,2.0,111.0,36.67,2.3254960571628573,2.314917374402159,0.1495438462659034,太原直送,0.1495438462659034,山西省,太原市,小店区,营盘街道,山西省太原市小店区营盘街道新寇庄南街水溪庭院,112.56967703352156,37.83203711026229,180_81,112.57019307908838,37.83054522172026,1.0,7840688584.0,112.569155,37.8319702,140105123332.0,0,0,91
太原直送,CWLS020,CWLS020,13,140105123341,太原***梅便利店,112.565772,37.830722,1.0,3.0,111.0,48.67,2.3303400717273,2.3234473269349154,0.1482999942076828,太原直送,0.1482999942076828,山西省,太原市,小店区,营盘街道,山西省太原市小店区营盘街道王村南街山西省体育局宿舍,112.5595124182002,37.83021978354566,178_81,112.55860722265408,37.83054522172026,1.0,7543026217.0,112.5584341,37.830154,140105123341.0,0,0,91
太原直送,CWLS021,CWLS021,34,140105123433,（唐***胡凯唐久便利店,112.571664,37.834412,1.0,3.0,111.0,69.67,2.325010148793764,2.316650849948908,0.1464161384615756,太原直送,0.1464161384615756,山西省,太原市,小店区,营盘街道,山西省太原市小店区营盘街道同苑小区,112.5654127175735,37.83391788774134,179_82,112.56440015087122,37.83504182692668,1.0,7840688583.0,112.5670682,37.8356958,140105123433.0,0,0,91
太原直送,CWLS021,CWLS021,41,140105123478,太原***烁烟酒行,112.570784,37.8263,1.0,3.0,111.0,91.67,2.3329993201940664,2.32294494877364,0.1539153096023875,太原直送,0.1539153096023875,山西省,太原市,小店区,营盘街道,山西省太原市小店区营盘街道并州南路西二巷永康小区,112.56453247516907,37.825803634944656,179_80,112.56440015087122,37.82604861651383,1.0,7535735045.0,112.5648439,37.8264712,140105123478.0,0,0,91
太原直送,CWLS021,CWLS021,17,140105123505,太原***董欣商行,112.568936,37.83447,1.0,3.0,111.0,41.0,2.325796828050548,2.3185662161105087,0.1455570581524583,太原直送,0.1455570581524583,山西省,太原市,小店区,营盘街道,山西省太原市小店区营盘街道体育路同苑小区,112.56268090922454,37.83397259014208,179_82,112.56440015087122,37.83504182692668,1.0,7543026220.0,112.5627183,37.8333954,140105123505.0,0,0,91
太原直送,CWLS021,CWLS021,28,140105123560,太原***生活超市,112.575602,37.830988,1.0,3.0,111.0,43.67,2.327059436836542,2.3162225815488866,0.1508969565829625,太原直送,0.1508969565829625,山西省,太原市,小店区,营盘街道,山西省太原市小店区营盘街道二营盘街二营盘便民市场,112.56935586313304,37.83049756500468,180_81,112.57019307908838,37.83054522172026,1.0,1881730377.0,112.5699263,37.8303993,140105123560.0,0,0,91
太原直送,CWLS021,CWLS021,39,140105123630,太原***鲜便利店,112.571366,37.825228,1.0,3.0,111.0,35.67,2.333840690255011,2.3232784418534496,0.1551082865420106,太原直送,0.1551082865420106,山西省,太原市,小店区,营盘街道,山西省太原市小店区营盘街道亲贤北街北二条卫生局宿舍,112.56511538496542,37.82473216281188,179_80,112.56440015087122,37.82604861651383,1.0,1885447858.0,112.5652688,37.8257684,140105123630.0,0,0,91
太原直送,BWLS017,BWLS017,9,140105123769,（金***张艳金虎便利店,112.561495,37.827369,1.0,2.0,111.0,64.67,2.334855357360712,2.32885136214938,0.1505115087958388,太原直送,0.1505115087958388,山西省,太原市,小店区,营盘街道,山西省太原市小店区营盘街道长治路金业集团(长治路),112.555228287387,37.826859884438285,177_80,112.55281429443691,37.82604861651383,1.0,1897916384.0,112.555402,37.8255716,140105123769.0,0,0,91
太原直送,BWLS051,BWLS051,27,140105123939,太原***瑞便利店,112.574903,37.834195,1.0,2.0,111.0,34.33,2.3242209180179025,2.314482246657548,0.1476354144641448,太原直送,0.1476354144641448,山西省,太原市,小店区,营盘街道,山西省太原市小店区营盘街道并州南路285号山西省送变电小区,112.56865571342944,37.83370435764948,180_82,112.57019307908838,37.83504182692668,1.0,1893571003.0,112.5688747,37.8328472,140105123939.0,0,0,91
太原直送,CWLS021,CWLS021,58,140105123948,太原***酒茶超市,112.574724,37.832026,1.0,3.0,111.0,58.33,2.326340300247149,2.316125203745468,0.1496333340201979,太原直送,0.1496333340201979,山西省,太原市,小店区,营盘街道,山西省太原市小店区营盘街道同微巷嘉兴小区,112.5684767603437,37.83153484537719,180_81,112.57019307908838,37.83054522172026,1.0,7840688584.0,112.569155,37.8319702,140105123948.0,0,0,91
太原直送,CWLS020,CWLS020,61,140105203486,太原***国天商店,112.565958,37.830729,1.0,3.0,111.0,15.67,2.3302757842798374,2.323309073969285,0.1483416058326176,太原直送,0.1483416058326176,山西省,太原市,小店区,营盘街道,山西省太原市小店区营盘街道王村南街山西省全民健身中心,112.55969872205851,37.83022704543447,178_81,112.55860722265408,37.83054522172026,1.0,7543026217.0,112.5584341,37.830154,140105203486.0,0,0,91
太原直送,CWLS021,CWLS021,107,140105211050,太原***有限公司,112.570991,37.828535,1.0,3.0,111.0,23.67,2.3308089491247403,2.321235022488883,0.1518321496521716,太原直送,0.1518321496521716,山西省,太原市,小店区,营盘街道,山西省太原市小店区营盘街道并州南路西一巷电建二小区,112.5647394982901,37.82803921253456,179_80,112.56440015087122,37.82604861651383,1.0,7535735047.0,112.5647849,37.8280134,140105211050.0,0,0,91
太原直送,CWLS021,CWLS021,167,140105214660,太原***一分公司,112.569518,37.824592,1.0,3.0,111.0,83.33,2.33501387489025,2.325044229082315,0.1552052570823517,太原直送,0.1552052570823517,山西省,太原市,小店区,营盘街道,山西省太原市小店区营盘街道体育路阳光大厦(体育路),112.5632648981012,37.82409384090428,179_80,112.56440015087122,37.82604861651383,1.0,1883671548.0,112.5632115,37.8229995,140105214660.0,0,0,91
太原直送,CWLS020,CWLS020,72,140105219247,太原***业分公司,112.569152,37.825238,1.0,3.0,111.0,83.33,2.3345118760396137,2.3248543740150667,0.1544841509864364,太原直送,0.1544841509864364,山西省,太原市,小店区,营盘街道,山西省太原市小店区营盘街道体育路太原茂业天地,112.56289829369398,37.824739476767085,179_80,112.56440015087122,37.82604861651383,1.0,1883671614.0,112.5629467,37.8257494,140105219247.0,0,0,91
太原直送,CWLS021,CWLS021,135,140105219404,太原***有限公司,112.569188,37.833316,1.0,3.0,111.0,43.33,2.326816480715655,2.319189843756865,0.1467349452379981,太原直送,0.1467349452379981,山西省,太原市,小店区,营盘街道,山西省太原市小店区营盘街道体育路同苑小区,112.56293341134226,37.83281873250208,179_82,112.56440015087122,37.83504182692668,1.0,7543026220.0,112.5627183,37.8333954,140105219404.0,0,0,91
太原直送,CWLS021,CWLS021,94,140105219522,太原***有限公司,112.561928,37.827724,1.0,3.0,111.0,52.33,2.3343832810800347,2.328293423362485,0.1502650298173136,太原直送,0.1502650298173136,山西省,太原市,小店区,营盘街道,山西省太原市小店区营盘街道长治路96号王村社区龙兆远景,112.55566205181546,37.82721561933046,177_80,112.55281429443691,37.82604861651383,1.0,7535735066.0,112.5564399,37.8282736,140105219522.0,0,0,91
太原直送,CWLS021,CWLS021,124,140105220029,山西***有限公司,112.572439,37.830872,1.0,3.0,111.0,43.67,2.328139956795767,2.318566431481744,0.1500249057890054,太原直送,0.1500249057890054,山西省,太原市,小店区,营盘街道,山西省太原市小店区营盘街道二营盘街核馨苑,112.56618913109568,37.83037822925288,179_81,112.56440015087122,37.83054522172026,1.0,7535735051.0,112.5675174,37.830344,140105220029.0,0,0,91
太原直送,CWLS020,CWLS020,76,140105220546,山西***有限公司,112.569148,37.825268,2.0,3.0,111.0,15.0,2.334484564884076,2.324836267169152,0.1544541894867181,太原直送,0.1544541894867181,山西省,太原市,小店区,营盘街道,山西省太原市小店区营盘街道体育路太原茂业天地,112.56289428439317,37.8247694761293,179_80,112.56440015087122,37.82604861651383,1.0,1883671614.0,112.5629467,37.8257494,140105220546.0,0,0,91
太原直送,CWLS020,CWLS020,63,140105221616,山西***有限公司,112.567068,37.82968,1.0,3.0,111.0,33.0,2.3309296863788003,2.3232448355076487,0.1496457944414044,太原直送,0.1496457944414044,山西省,太原市,小店区,营盘街道,山西省太原市小店区营盘街道大孩龙虾(山西省体育场店)山西体育场,112.56081062247075,37.82917941364939,178_81,112.55860722265408,37.83054522172026,1.0,1897916381.0,112.5627882,37.8302704,140105221616.0,0,0,91
太原直送,CWLS020,CWLS020,65,140105221902,太原***有限公司,112.567212,37.827331,2.0,3.0,111.0,18.0,2.333119167580815,2.32478075235752,0.1519493504592865,太原直送,0.1519493504592865,山西省,太原市,小店区,营盘街道,山西省太原市小店区营盘街道河东尚品坊山西体育场,112.56095512022132,37.82683025707767,178_80,112.55860722265408,37.82604861651383,1.0,1885448220.0,112.5628705,37.8279983,140105221902.0,0,0,91
太原直送,BWLS017,BWLS017,12,140105222439,山西***有限公司,112.561525,37.826893,1.0,2.0,111.0,33.0,2.3352984073544003,2.329161554451942,0.1509818940270661,太原直送,0.1509818940270661,山西省,太原市,小店区,营盘街道,山西省太原市小店区营盘街道长治路金业集团(长治路),112.555258398673,37.8263838613366,177_80,112.55281429443691,37.82604861651383,1.0,1897916384.0,112.555402,37.8255716,140105222439.0,0,0,91
太原直送,CWLS020,CWLS020,23,140105222824,山西***有限公司,112.569469,37.823088,1.0,3.0,111.0,18.0,2.336460037689711,2.326131011368449,0.1566398608305044,太原直送,0.1566398608305044,山西省,太原市,小店区,平阳路街道,山西省太原市小店区平阳路街道体育路太原亲贤街万达悦华酒店,112.56321600161364,37.82258956023525,179_79,112.56440015087122,37.82155201130741,1.0,1878433914.0,112.5632234,37.8229077,140105222824.0,0,0,91
太原直送,CWLS020,CWLS020,11,140105223207,太原***有限公司,112.566241,37.830808,1.0,3.0,111.0,23.67,2.330113006895803,2.323051089293127,0.148339391022751,太原直送,0.148339391022751,山西省,太原市,小店区,营盘街道,山西省太原市小店区营盘街道张吴记小泥炉烤肉(体育场店)山西全民健身,112.5599821728557,37.83030645140359,178_81,112.55860722265408,37.83054522172026,1.0,7543026217.0,112.5584341,37.830154,140105223207.0,0,0,91
太原直送,CWLS021,CWLS021,29,140105223427,太原***有限公司,112.572024,37.832782,1.0,3.0,111.0,48.67,2.326450127708305,2.317530120177296,0.1480786624804498,太原直送,0.1480786624804498,山西省,太原市,小店区,营盘街道,山西省太原市小店区营盘街道狄村北街合生国际,112.56577337673409,37.83228805076812,179_81,112.56440015087122,37.83054522172026,1.0,7535735051.0,112.5675174,37.830344,140105223427.0,0,0,91
太原直送,CWLS021,CWLS021,25,140105223588,山西***有限公司,112.573778,37.830913,1.0,3.0,111.0,66.67,2.327689789309773,2.3175796296524465,0.1503942689233842,太原直送,0.1503942689233842,山西省,太原市,小店区,营盘街道,山西省太原市小店区营盘街道二营盘街核馨苑,112.56752978114312,37.83042069405619,180_81,112.57019307908838,37.83054522172026,1.0,7535735051.0,112.5675174,37.830344,140105223588.0,0,0,91
太原直送,CWLS020,CWLS020,14,140105223774,太原***有限公司,112.563343,37.830685,1.0,3.0,122.0,55.67,2.331129093218987,2.3252155066558826,0.1477242602418405,太原直送,0.1477242602418405,山西省,太原市,小店区,营盘街道,山西省太原市小店区营盘街道王村南街保利大都汇,112.55707927209208,37.83017923817717,178_81,112.55860722265408,37.83054522172026,1.0,7535735059.0,112.5579677,37.8301438,140105223774.0,0,0,91
太原直送,CWLS020,CWLS020,45,140105223791,太原***有限公司,112.56841,37.82334,1.0,3.0,111.0,28.0,2.336546131597232,2.326711759622362,0.1561149297729048,太原直送,0.1561149297729048,山西省,太原市,小店区,平阳路街道,山西省太原市小店区平阳路街道亲贤北街怡和广场,112.56215541671564,37.82284025092202,179_79,112.56440015087122,37.82155201130741,1.0,4054893247.0,112.5630517,37.8229166,140105223791.0,0,0,91
太原直送,CWLS021,CWLS021,60,140105223940,山西***有限公司,112.571774,37.830903,1.0,3.0,111.0,56.67,2.328314909358481,2.319020784115567,0.1497965318724041,太原直送,0.1497965318724041,山西省,太原市,小店区,营盘街道,山西省太原市小店区营盘街道二营盘街体育路便民市场,112.56552326809506,37.83040848026892,179_81,112.56440015087122,37.83054522172026,1.0,7535735051.0,112.5675174,37.830344,140105223940.0,0,0,91
太原直送,CWLS021,CWLS021,65,140105124003,太原***鲜便利店,112.572726,37.832849,1.0,3.0,111.0,33.5,2.3261704523720907,2.3169806208606865,0.1482284531559273,太原直送,0.1482284531559273,山西省,太原市,小店区,营盘街道,山西省太原市小店区营盘街道狄村北街合生国际并州帝景,112.56647626562464,37.83235584830523,179_81,112.56440015087122,37.83054522172026,1.0,7535735051.0,112.5675174,37.830344,140105124003.0,0,0,91
太原直送,CWLS021,CWLS021,62,140105224077,山西***有限公司,112.573636,37.832917,1.0,3.0,111.0,15.33,2.325826119286005,2.316281594711664,0.1484452974162482,太原直送,0.1484452974162482,山西省,太原市,小店区,营盘街道,山西省太原市小店区营盘街道狄村北街合生国际并州帝景,112.56738737868127,37.83242484705686,180_81,112.57019307908838,37.83054522172026,1.0,1893571003.0,112.5688747,37.8328472,140105224077.0,0,0,91
太原直送,CWLS021,CWLS021,61,140105124093,太原***百货商行,112.569232,37.832162,1.0,3.0,111.0,56.0,2.3279004921383586,2.319962967670175,0.147853750990634,太原直送,0.147853750990634,山西省,太原市,小店区,营盘街道,山西省太原市小店区营盘街道体育路国治龙城苑,112.56297760888955,37.8316646122256,179_81,112.56440015087122,37.83054522172026,1.0,3663262600.0,112.5628889,37.8302687,140105124093.0,0,0,91
太原直送,CWLS020,CWLS020,27,140105124114,（唐***唐久便利店,112.568648,37.826237,1.0,3.0,111.0,59.33,2.3337167091712323,2.324516850871168,0.1533861090874903,太原直送,0.1533861090874903,山西省,太原市,小店区,营盘街道,山西省太原市小店区营盘街道永康街体旅大厦,112.56239343656055,37.825737982517815,179_80,112.56440015087122,37.82604861651383,1.0,1883671614.0,112.5629467,37.8257494,140105124114.0,0,0,91
太原直送,CWLS020,CWLS020,10,140105124242,太原***顺金商行,112.563603,37.830671,1.0,3.0,111.0,31.33,2.3310615996408126,2.325038693803822,0.1478014955404677,太原直送,0.1478014955404677,山西省,太原市,小店区,营盘街道,山西省太原市小店区营盘街道王村南街保利大都汇,112.5573397331293,37.83016562675257,178_81,112.55860722265408,37.83054522172026,1.0,7535735059.0,112.5579677,37.8301438,140105124242.0,0,0,91
太原直送,CWLS021,CWLS021,49,140105124248,太原***烟酒商行,112.569075,37.83149,1.0,3.0,111.0,28.67,2.328588136497519,2.3205441767417385,0.1484540088141735,太原直送,0.1484540088141735,山西省,太原市,小店区,营盘街道,山西省太原市小店区营盘街道体育路慧泽苑小区,112.56282045785308,37.83099231224404,179_81,112.56440015087122,37.83054522172026,1.0,1897916381.0,112.5627882,37.8302704,140105124248.0,0,0,91
太原直送,CWLS021,CWLS021,50,140105224283,山西***有限公司,112.573175,37.830917,1.0,3.0,111.0,26.0,2.3278710525671285,2.318008286396098,0.1502051750107174,太原直送,0.1502051750107174,山西省,太原市,小店区,营盘街道,山西省太原市小店区营盘街道二营盘街合生国际,112.56692604800844,37.830424047556775,179_81,112.56440015087122,37.83054522172026,1.0,7535735051.0,112.5675174,37.830344,140105224283.0,0,0,91
太原直送,CWLS021,CWLS021,53,140105124310,太原***烟酒商行,112.571745,37.831025,1.0,3.0,111.0,30.33,2.3282077441396845,2.3189563613196733,0.149671423551729,太原直送,0.149671423551729,山西省,太原市,小店区,营盘街道,山西省太原市小店区营盘街道二营盘街23号体育路便民市场,112.5654942159376,37.83053046538541,179_81,112.56440015087122,37.83054522172026,1.0,7535735051.0,112.5675174,37.830344,140105124310.0,0,0,91
太原直送,CWLS021,CWLS021,55,140105224388,太原***有限公司,112.571596,37.83284,1.0,3.0,111.0,52.67,2.326526683072861,2.3177962086018264,0.1478945990156511,太原直送,0.1478945990156511,山西省,太原市,小店区,营盘街道,山西省太原市小店区营盘街道狄村北街同苑小区,112.56534480974638,37.83234556898088,179_81,112.56440015087122,37.83054522172026,1.0,7543026220.0,112.5627183,37.8333954,140105224388.0,0,0,91
太原直送,CWLS021,CWLS021,57,140105124409,太原***丽烟酒行,112.572903,37.835845,1.0,3.0,111.0,20.67,2.323265269841566,2.314763503253196,0.1454349672671586,太原直送,0.1454349672671586,山西省,太原市,小店区,营盘街道,山西省太原市小店区营盘街道翰府A座,112.56665314073442,37.83535250280664,179_82,112.56440015087122,37.83504182692668,1.0,7840688583.0,112.5670682,37.8356958,140105124409.0,0,0,91
太原直送,CWLS021,CWLS021,52,140105124419,太原***烟酒商行,112.573337,37.832852,1.0,3.0,111.0,50.33,2.3259798176667377,2.3165410390808967,0.1484140162417228,太原直送,0.1484140162417228,山西省,太原市,小店区,营盘街道,山西省太原市小店区营盘街道狄村北街合生国际并州帝景,112.56708802306056,37.83235951641791,179_81,112.56440015087122,37.83054522172026,1.0,1893571003.0,112.5688747,37.8328472,140105124419.0,0,0,91
太原直送,CWLS021,CWLS021,51,140105124523,太原***食品商行,112.573575,37.832931,1.0,3.0,111.0,35.67,2.325831530072628,2.316315490825239,0.148412963274774,太原直送,0.148412963274774,山西省,太原市,小店区,营盘街道,山西省太原市小店区营盘街道狄村北街合生国际并州帝景,112.56732630338762,37.8324387840752,180_81,112.57019307908838,37.83054522172026,1.0,1893571003.0,112.5688747,37.8328472,140105124523.0,0,0,91
太原直送,BWLS017,BWLS017,58,140105124538,太原***洺樽商行,112.561945,37.825236,1.0,2.0,111.0,31.0,2.3367427517946897,2.330015623244192,0.1526909720743178,太原直送,0.1526909720743178,山西省,太原市,小店区,营盘街道,山西省太原市小店区营盘街道长治路山西省检验检测中心,112.55567937149698,37.824727278035006,177_80,112.55281429443691,37.82604861651383,1.0,1897916529.0,112.5555041,37.8255758,140105124538.0,0,0,91
太原直送,CWLS021,CWLS021,56,140105124549,太原***盛便利店,112.571784,37.833338,1.0,3.0,111.0,26.33,2.325994991771481,2.3173140604728184,0.1474761509736392,太原直送,0.1474761509736392,山西省,太原市,小店区,营盘街道,山西省太原市小店区营盘街道同苑小区(南门),112.56553299950237,37.83284386140852,179_82,112.56440015087122,37.83504182692668,1.0,7543026220.0,112.5627183,37.8333954,140105124549.0,0,0,91
太原直送,CWLS021,CWLS021,171,140105224585,山西***有限公司,112.571356,37.824833,1.0,3.0,111.0,33.33,2.334219685476286,2.3235618698059275,0.1554842116389943,太原直送,0.1554842116389943,山西省,太原市,小店区,营盘街道,山西省太原市小店区营盘街道亲贤北街北二条椰子水晶酒店(太原亲贤街店),112.56510541730954,37.8243370931522,179_80,112.56440015087122,37.82604861651383,1.0,1885448142.0,112.5651774,37.8231092,140105224585.0,0,0,91
太原直送,CWLS020,CWLS020,48,140105124651,太原***便利超市,112.567334,37.821533,1.0,3.0,111.0,31.33,2.338596708387528,2.328744524111646,0.1575820096997084,太原直送,0.1575820096997084,山西省,太原市,小店区,平阳路街道,山西省太原市小店区平阳路街道怡和巷腾龙苑,112.56107798167254,37.82103157199081,178_79,112.55860722265408,37.82155201130741,1.0,7842251525.0,112.5610434,37.8223195,140105124651.0,0,0,91
太原直送,CWLS021,CWLS021,83,140105124807,太原***源烟酒店,112.573571,37.830836,1.0,3.0,111.0,36.0,2.327826589635277,2.3177815258617445,0.150403679253535,太原直送,0.150403679253535,山西省,太原市,小店区,营盘街道,山西省太原市小店区营盘街道二营盘街核馨苑,112.5673225408537,37.83034346209919,180_81,112.57019307908838,37.83054522172026,1.0,7535735051.0,112.5675174,37.830344,140105124807.0,0,0,91
太原直送,CWLS020,CWLS020,36,140105224824,山西***有限公司,112.568574,37.826244,1.0,3.0,111.0,25.0,2.3337328581587884,2.32456490953748,0.1533594325824094,太原直送,0.1533594325824094,山西省,太原市,小店区,营盘街道,山西省太原市小店区营盘街道永康街体旅大厦,112.56231932568896,37.8257448884502,179_80,112.56440015087122,37.82604861651383,1.0,1883671614.0,112.5629467,37.8257494,140105224824.0,0,0,91
太原直送,CWLS021,CWLS021,7,140105124847,太原***来便利店,112.561814,37.827669,1.0,3.0,111.0,28.67,2.334471008906514,2.328413514577683,0.1502923235464784,太原直送,0.1502923235464784,山西省,太原市,小店区,营盘街道,山西省太原市小店区营盘街道长治路76号王村社区龙兆远景,112.55554784705848,37.82716043230504,177_80,112.55281429443691,37.82604861651383,1.0,7535735066.0,112.5564399,37.8282736,140105124847.0,0,0,91
太原直送,CWLS021,CWLS021,92,140105124854,（金***怡金虎便利店,112.56986,37.830843,1.0,3.0,111.0,36.33,2.3289613999456886,2.320433201514745,0.1492968837216623,太原直送,0.1492968837216623,山西省,太原市,小店区,营盘街道,山西省太原市小店区营盘街道二营盘街慧泽苑小区,112.56360666307332,37.830346194283024,179_81,112.56440015087122,37.83054522172026,1.0,3663262600.0,112.5628889,37.8302687,140105124854.0,0,0,91
太原直送,CWLS021,CWLS021,1,140105124873,太原***利烟酒行,112.569175,37.832717,1.0,3.0,111.0,48.0,2.327390210983105,2.3196167941711794,0.147305414021342,太原直送,0.147305414021342,山西省,太原市,小店区,营盘街道,山西省太原市小店区营盘街道狄村北街国治龙城苑,112.5629204617434,37.832219624807664,179_81,112.56440015087122,37.83054522172026,1.0,7543026220.0,112.5627183,37.8333954,140105124873.0,0,0,91
太原直送,CWLS020,CWLS020,22,140105124878,（唐***泽立唐久便利店,112.564923,37.825499,1.0,3.0,111.0,37.0,2.335569198010627,2.327698634972537,0.1531392765948658,太原直送,0.1531392765948658,山西省,太原市,小店区,营盘街道,山西省太原市小店区营盘街道体育西路茂业天地,112.558662608515,37.82499479607986,178_80,112.55860722265408,37.82604861651383,1.0,1397244274.0,112.5585339,37.825625,140105124878.0,0,0,91
太原直送,CWLS021,CWLS021,82,140105224877,山西***有限公司,112.573579,37.830893,1.0,3.0,111.0,20.0,2.327769884854598,2.3177359797321606,0.1503519081887495,太原直送,0.1503519081887495,山西省,太原市,小店区,营盘街道,山西省太原市小店区营盘街道二营盘街核馨苑,112.56733054393725,37.830400479253306,180_81,112.57019307908838,37.83054522172026,1.0,7535735051.0,112.5675174,37.830344,140105224877.0,0,0,91
太原直送,CWLS020,CWLS020,46,140105124904,（金***彬金虎便利店,112.56841,37.82334,1.0,3.0,111.0,26.0,2.336546131597232,2.326711759622362,0.1561149297729048,太原直送,0.1561149297729048,山西省,太原市,小店区,平阳路街道,山西省太原市小店区平阳路街道亲贤北街怡和广场,112.56215541671564,37.82284025092202,179_79,112.56440015087122,37.82155201130741,1.0,4054893247.0,112.5630517,37.8229166,140105124904.0,0,0,91
太原直送,CWLS021,CWLS021,51,140105124903,太原***忠小卖部,112.569049,37.831551,1.0,3.0,111.0,35.0,2.328538142355413,2.3205202587620257,0.1483881572093973,太原直送,0.1483881572093973,山西省,太原市,小店区,营盘街道,山西省太原市小店区营盘街道体育路山西全民健身,112.5627944127697,37.83105328857085,179_81,112.56440015087122,37.83054522172026,1.0,1897916381.0,112.5627882,37.8302704,140105124903.0,0,0,91
太原直送,CWLS020,CWLS020,1,140105224930,山西***有限公司,112.569283,37.82465,,,111.0,16.0,2.335031000752882,2.325171707813856,0.1550856535885892,太原直送,0.1550856535885892,山西省,太原市,小店区,营盘街道,山西省太原市小店区营盘街道体育路太原茂业天地,112.563029552159,37.82415155539329,179_80,112.56440015087122,37.82604861651383,1.0,1883671616.0,112.5630509,37.822995,140105224930.0,0,0,91
太原直送,CWLS021,CWLS021,1,140105124928,太原***烟酒商店,112.574424,37.833684,,,111.0,37.0,2.324854242194554,2.315181943932921,0.1479659360866529,太原直送,0.1479659360866529,山西省,太原市,小店区,营盘街道,山西省太原市小店区营盘街道并州南路53号合生国际并州帝景,112.56817622274556,37.83319279051134,180_82,112.57019307908838,37.83504182692668,1.0,1893571003.0,112.5688747,37.8328472,140105124928.0,0,0,91
