station_name,line_code,line_name,deliver_no,customer_code,customer_name,longitude,latitude,order_cycle_type,order_weekday,city_village_code,avg_order_qty,distance_to_平城直送,distance_to_灵丘中转站,distance_to_太原直送,nearest_station,distance_to_station,province,city,district,township,full_address,lon_84,lat_84,grid_id,LonGridCenter,LatGridCenter,group,customer_osmid_mapping,OSM_X,OSM_Y,BB_RETAIL_CUSTOMER_CODE,kmeans_cluster,dbscan_label,kmeans_label
太原直送,BWLS051,BWLS051,58,140105100758,（唐***茂唐久便利店,112.582976,37.830925,1.0,2.0,111.0,68.0,2.324872907120944,2.3109995047476715,0.1534755511897566,太原直送,0.1534755511897566,山西省,太原市,小店区,营盘街道,山西省太原市小店区营盘街道狄村正街山西省人民政府口岸办联检宿舍,112.57673638014693,37.83044056074926,181_81,112.57598600730554,37.83054522172026,1.0,2001038771.0,112.5733413,37.8304827,140105100758.0,0,0,19
太原直送,BWLS051,BWLS051,82,140105103655,太原***红梅商店,112.581982,37.83265,1.0,2.0,111.0,14.67,2.32353097503132,2.310500899459899,0.1515077508578319,太原直送,0.1515077508578319,山西省,太原市,小店区,营盘街道,山西省太原市小店区营盘街道新寇庄南街山西省工业管理学校家属宿舍区,112.5757414859818,37.83216515500811,181_81,112.57598600730554,37.83054522172026,1.0,1893531580.0,112.5732736,37.8334854,140105103655.0,0,0,19
太原直送,BWLS051,BWLS051,98,140105104408,太原***明香商店,112.579297,37.838358,1.0,2.0,111.0,32.67,2.318912508617995,2.308429963434456,0.1452160743203016,太原直送,0.1452160743203016,山西省,太原市,小店区,营盘街道,山西省太原市小店区营盘街道东岗路太阳小区,112.5730536640846,37.83787201033255,180_83,112.57019307908838,37.8395384321331,1.0,1893531765.0,112.5730965,37.838557,140105104408.0,0,0,19
太原直送,BWLS051,BWLS051,97,140105104968,太原***便林商店,112.579418,37.837118,1.0,2.0,111.0,34.0,2.320056272688661,2.309209331378381,0.1464175407866177,太原直送,0.1464175407866177,山西省,太原市,小店区,营盘街道,山西省太原市小店区营盘街道东岗路曙光苑,112.57317491382456,37.8366319155499,181_82,112.57598600730554,37.83504182692668,1.0,2001038741.0,112.573184,37.8365127,140105104968.0,0,0,19
太原直送,BWLS051,BWLS051,61,140105105406,太原***东银商店,112.585738,37.830626,1.0,2.0,111.0,20.67,2.324321949724258,2.309239310717918,0.1547759041776193,太原直送,0.1547759041776193,山西省,太原市,小店区,营盘街道,山西省太原市小店区营盘街道狄村东街唐槐公寓,112.57950004542757,37.83014313588573,182_81,112.5817789355227,37.83054522172026,1.0,1897916326.0,112.5805364,37.8306512,140105105406.0,0,0,19
太原直送,BWLS051,BWLS051,64,140105107426,太原***兴隆超市,112.583662,37.831331,1.0,2.0,111.0,24.67,2.3242780765934605,2.3102255853989635,0.1533481226001816,太原直送,0.1533481226001816,山西省,太原市,小店区,营盘街道,山西省太原市小店区营盘街道建设南路100号建南汽车站,112.57742277945395,37.83084705661298,181_81,112.57598600730554,37.83054522172026,1.0,1897916326.0,112.5805364,37.8306512,140105107426.0,0,0,19
太原直送,BWLS051,BWLS051,85,140105108089,太原***泽元酒业,112.577538,37.834,1.0,2.0,111.0,40.33,2.323599590170814,2.31273280363577,0.1486896205994186,太原直送,0.1486896205994186,山西省,太原市,小店区,营盘街道,山西省太原市小店区营盘街道狄村北街司法厅宿舍区,112.57129352645288,37.83351183523259,180_82,112.57019307908838,37.83504182692668,1.0,1893531580.0,112.5732736,37.8334854,140105108089.0,0,0,19
太原直送,BWLS051,BWLS051,75,140105108677,（唐***健唐久便利店,112.576999,37.837011,1.0,2.0,111.0,55.33,2.3208979784436905,2.311015659186454,0.1456744969443879,太原直送,0.1456744969443879,山西省,太原市,小店区,营盘街道,山西省太原市小店区营盘街道体育北街山西省政法管理干部学院,112.57075363978004,37.83652281152751,180_82,112.57019307908838,37.83504182692668,1.0,2001038787.0,112.5693727,37.8364244,140105108677.0,0,0,19
太原直送,BWLS051,BWLS051,80,140105111117,（金***鹏金虎便利店,112.579464,37.834222,1.0,2.0,111.0,35.67,2.322800073651197,2.311200273660636,0.1491434580596835,太原直送,0.1491434580596835,山西省,太原市,小店区,营盘街道,山西省太原市小店区营盘街道东岗路迎泽区委宿舍,112.5732212888267,37.83373550605641,181_82,112.57598600730554,37.83504182692668,1.0,1893531580.0,112.5732736,37.8334854,140105111117.0,0,0,19
太原直送,BWLS051,BWLS051,78,140105111738,太原***兴和商行,112.579462,37.835425,1.0,2.0,111.0,84.33,2.3216550315636866,2.310360766274386,0.1480163534377199,太原直送,0.1480163534377199,山西省,太原市,小店区,营盘街道,山西省太原市小店区营盘街道东岗路刚玉生活区3区,112.57321914801724,37.8349386892916,181_82,112.57598600730554,37.83504182692668,1.0,1893531580.0,112.5732736,37.8334854,140105111738.0,0,0,19
太原直送,BWLS051,BWLS051,87,140105113597,（唐***家唐久便利店,112.582377,37.8342,1.0,2.0,111.0,47.67,2.321934237058619,2.3091338936861163,0.1502076998858517,太原直送,0.1502076998858517,山西省,太原市,小店区,营盘街道,山西省太原市小店区营盘街道东岗路17号迎泽区委宿舍,112.57613658981688,37.83371566215235,181_82,112.57598600730554,37.83504182692668,1.0,1893531580.0,112.5732736,37.8334854,140105113597.0,0,0,19
太原直送,BWLS051,BWLS051,86,140105114467,太原***信源商行,112.579399,37.834026,1.0,2.0,111.0,66.0,2.3230065597042544,2.3113837846298924,0.149304394191861,太原直送,0.149304394191861,山西省,太原市,小店区,营盘街道,山西省太原市小店区营盘街道狄村北街迎泽区委宿舍,112.57315625461624,37.833539423500845,181_82,112.57598600730554,37.83504182692668,1.0,1893531580.0,112.5732736,37.8334854,140105114467.0,0,0,19
太原直送,BWLS051,BWLS051,74,140105116378,太原***齐便利店,112.576999,37.837011,1.0,2.0,111.0,84.67,2.3208979784436905,2.311015659186454,0.1456744969443879,太原直送,0.1456744969443879,山西省,太原市,小店区,营盘街道,山西省太原市小店区营盘街道体育北街山西省政法管理干部学院,112.57075363978004,37.83652281152751,180_82,112.57019307908838,37.83504182692668,1.0,2001038787.0,112.5693727,37.8364244,140105116378.0,0,0,19
太原直送,BWLS050,BWLS050,33,140105116905,（唐***信唐久便利店,112.589473,37.832962,1.0,2.0,111.0,43.0,2.3209685172067696,2.3049387399742303,0.1540843754603261,太原直送,0.1540843754603261,山西省,太原市,小店区,营盘街道,山西省太原市小店区营盘街道南十坊社区卫生服务站南十方铁路小区,112.5832362791949,37.83248113435069,182_81,112.5817789355227,37.83054522172026,1.0,1893571046.0,112.5807076,37.8335775,140105116905.0,0,0,19
太原直送,BWLS051,BWLS051,81,140105118763,太原***航便利店,112.579476,37.83317,1.0,2.0,111.0,85.0,2.3237983134364275,2.3119273429519764,0.1501336172147955,太原直送,0.1501336172147955,山西省,太原市,小店区,营盘街道,山西省太原市小店区营盘街道东岗路精工家园,112.57323342090068,37.83268335489664,181_81,112.57598600730554,37.83054522172026,1.0,1893531580.0,112.5732736,37.8334854,140105118763.0,0,0,19
太原直送,BWLS050,BWLS050,29,140105118882,（金***亲金虎便利店,112.587013,37.830853,1.0,2.0,111.0,31.0,2.3237206649750326,2.308171345768118,0.1550523347131544,太原直送,0.1550523347131544,山西省,太原市,小店区,营盘街道,山西省太原市小店区营盘街道建设南路辅路尚家轻居酒店(太原火车站建设南路店),112.58077562311492,37.83037080208076,182_81,112.5817789355227,37.83054522172026,1.0,1897916455.0,112.5808638,37.8306603,140105118882.0,0,0,19
太原直送,BWLS051,BWLS051,96,140105119838,太原***娑便利店,112.57942,37.836303,1.0,2.0,111.0,23.67,2.320831744275529,2.3097772644763808,0.1471801404028382,太原直送,0.1471801404028382,山西省,太原市,小店区,营盘街道,山西省太原市小店区营盘街道东岗路刚玉生活区2区,112.5731770097956,37.83581679089599,181_82,112.57598600730554,37.83504182692668,1.0,2001038741.0,112.573184,37.8365127,140105119838.0,0,0,19
太原直送,BWLS051,BWLS051,73,140105119879,太原***才便利店,112.57835,37.837019,1.0,2.0,111.0,81.33,2.3204768956792057,2.310042838260797,0.1461334972721865,太原直送,0.1461334972721865,山西省,太原市,小店区,营盘街道,山西省太原市小店区营盘街道体育北街一机床厂二宿舍,112.57210595723416,37.8365320108468,180_82,112.57019307908838,37.83504182692668,1.0,2001038741.0,112.573184,37.8365127,140105119879.0,0,0,19
太原直送,BWLS051,BWLS051,63,140105119988,太原***小小商店,112.58383,37.831147,1.0,2.0,111.0,19.67,2.324402533780451,2.310234671676444,0.1535810209140433,太原直送,0.1535810209140433,山西省,太原市,小店区,营盘街道,山西省太原市小店区营盘街道狄村街山西省人民政府口岸办联检宿舍,112.57759090584268,37.83066313197256,181_81,112.57598600730554,37.83054522172026,1.0,1897916326.0,112.5805364,37.8306512,140105119988.0,0,0,19
太原直送,BWLS051,BWLS051,76,140105120224,太原***粒便利店,112.57619,37.836988,1.0,2.0,111.0,44.0,2.321167801620988,2.311611089002,0.1454221050390887,太原直送,0.1454221050390887,山西省,太原市,小店区,营盘街道,山西省太原市小店区营盘街道体育北街,112.5699438029322,37.8364990515605,180_82,112.57019307908838,37.83504182692668,1.0,2001038787.0,112.5693727,37.8364244,140105120224.0,0,0,19
太原直送,BWLS051,BWLS051,57,140105120261,太原***达便利店,112.5817,37.830888,1.0,2.0,111.0,46.33,2.325295377839553,2.3119360187896625,0.1530518038900516,太原直送,0.1530518038900516,山西省,太原市,小店区,营盘街道,山西省太原市小店区营盘街道狄村街12晋能钢结构小区,112.57545948207398,37.83040269057511,181_81,112.57598600730554,37.83054522172026,1.0,2001038771.0,112.5733413,37.8304827,140105120261.0,0,0,19
太原直送,BWLS051,BWLS051,90,140105120317,太原***悠便利店,112.579471,37.834738,1.0,2.0,111.0,64.0,2.322306529113888,2.31083452744371,0.148662623779479,太原直送,0.148662623779479,山西省,太原市,小店区,营盘街道,山西省太原市小店区营盘街道东岗路迎泽区委宿舍,112.57322823528916,37.83425159086857,181_82,112.57598600730554,37.83504182692668,1.0,1893531580.0,112.5732736,37.8334854,140105120317.0,0,0,19
太原直送,BWLS050,BWLS050,31,140105120430,太原***全民商行,112.587118,37.832585,1.0,2.0,111.0,32.33,2.3220376985262283,2.306881737599042,0.1534963021997582,太原直送,0.1534963021997582,山西省,太原市,小店区,营盘街道,山西省太原市小店区营盘街道鑫金海汽修中国石化迎宾加油站,112.58088046857372,37.83210311329175,182_81,112.5817789355227,37.83054522172026,1.0,1897916455.0,112.5808638,37.8306603,140105120430.0,0,0,19
太原直送,BWLS051,BWLS051,94,140105120751,太原***烟酒商行,112.584132,37.835448,1.0,2.0,111.0,61.0,2.320212338888405,2.307006904249964,0.1497048327409616,太原直送,0.1497048327409616,山西省,太原市,小店区,营盘街道,山西省太原市小店区营盘街道刚玉五机卫生所中正锦城,112.57789259374675,37.83496497061298,181_82,112.57598600730554,37.83504182692668,1.0,1893571087.0,112.5803697,37.8336222,140105120751.0,0,0,19
太原直送,BWLS051,BWLS051,72,140105120981,（金***磊金虎便利店,112.57835,37.837019,1.0,2.0,111.0,53.67,2.3204768956792057,2.310042838260797,0.1461334972721865,太原直送,0.1461334972721865,山西省,太原市,小店区,营盘街道,山西省太原市小店区营盘街道体育北街一机床厂二宿舍,112.57210595723416,37.8365320108468,180_82,112.57019307908838,37.83504182692668,1.0,2001038741.0,112.573184,37.8365127,140105120981.0,0,0,19
太原直送,BWLS051,BWLS051,92,140105121011,（唐***文唐久便利店,112.582538,37.83545,1.0,2.0,111.0,56.0,2.320694429657207,2.308144264601541,0.1491050672311275,太原直送,0.1491050672311275,山西省,太原市,小店区,营盘街道,山西省太原市小店区营盘街道体育北街85号中正锦城,112.57629755810416,37.834965962443896,181_82,112.57598600730554,37.83504182692668,1.0,1893531580.0,112.5732736,37.8334854,140105121011.0,0,0,19
太原直送,BWLS051,BWLS051,77,140105121021,太原***小零食店,112.575974,37.83702,1.0,2.0,111.0,66.0,2.321203583158096,2.311743473937577,0.1453194676910119,太原直送,0.1453194676910119,山西省,太原市,小店区,营盘街道,山西省太原市小店区营盘街道体育北街沙河街小学,112.56972756875936,37.83653084964239,180_82,112.57019307908838,37.83504182692668,1.0,2001038787.0,112.5693727,37.8364244,140105121021.0,0,0,19
太原直送,BWLS051,BWLS051,93,140105121121,太原***城便利店,112.584132,37.835448,1.0,2.0,111.0,60.33,2.320212338888405,2.307006904249964,0.1497048327409616,太原直送,0.1497048327409616,山西省,太原市,小店区,营盘街道,山西省太原市小店区营盘街道刚玉五机卫生所中正锦城,112.57789259374675,37.83496497061298,181_82,112.57598600730554,37.83504182692668,1.0,1893571087.0,112.5803697,37.8336222,140105121121.0,0,0,19
太原直送,BWLS051,BWLS051,89,140105121219,太原***烟酒商行,112.583811,37.834094,1.0,2.0,111.0,52.67,2.321599917864617,2.3081839662544232,0.1508377509942359,太原直送,0.1508377509942359,山西省,太原市,小店区,营盘街道,山西省太原市小店区营盘街道狄村北街山西汽车配件市场,112.5775715535176,37.833610568734805,181_82,112.57598600730554,37.83504182692668,1.0,1893571087.0,112.5803697,37.8336222,140105121219.0,0,0,19
太原直送,BWLS050,BWLS050,24,140105121298,太原***盛烟酒店,112.586786,37.829972,1.0,2.0,111.0,67.67,2.3246291031599,2.308951219780312,0.1557789006573115,太原直送,0.1557789006573115,山西省,太原市,小店区,营盘街道,山西省太原市小店区营盘街道建设南路辅路太原红楼酒店,112.580548624245,37.82948956223646,182_81,112.5817789355227,37.83054522172026,1.0,1897916326.0,112.5805364,37.8306512,140105121298.0,0,0,19
太原直送,BWLS051,BWLS051,62,140105121538,太原***聚朋商行,112.586684,37.830669,1.0,2.0,111.0,35.0,2.323995344880232,2.308534886001937,0.1550958734364008,太原直送,0.1550958734364008,山西省,太原市,小店区,营盘街道,山西省太原市小店区营盘街道建设南路辅路太原红楼酒店,112.58044649753728,37.830186618266,182_81,112.5817789355227,37.83054522172026,1.0,1897916326.0,112.5805364,37.8306512,140105121538.0,0,0,19
太原直送,BWLS051,BWLS051,84,140105121730,太原***便民超市,112.576448,37.833833,1.0,2.0,111.0,47.33,2.3240920387921395,2.3136292882828053,0.1484824101535259,太原直送,0.1484824101535259,山西省,太原市,小店区,营盘街道,山西省太原市小店区营盘街道狄村北街广建家园小区,112.57020243955616,37.83334380989989,180_82,112.57019307908838,37.83504182692668,1.0,1893571003.0,112.5688747,37.8328472,140105121730.0,0,0,19
太原直送,BWLS051,BWLS051,88,140105121831,（金***敏金虎便利店,112.582825,37.834042,1.0,2.0,111.0,21.33,2.3219486879138844,2.308924478978472,0.1505194101270678,太原直送,0.1505194101270678,山西省,太原市,小店区,营盘街道,山西省太原市小店区营盘街道狄村北街迎泽区委宿舍,112.57658491809158,37.83355793620005,181_82,112.57598600730554,37.83504182692668,1.0,1893531580.0,112.5732736,37.8334854,140105121831.0,0,0,19
太原直送,BWLS050,BWLS050,28,140105121843,太原***越果蔬店,112.588316,37.830544,1.0,2.0,111.0,56.33,2.323622637967269,2.307459849975501,0.1558431253857523,太原直送,0.1558431253857523,山西省,太原市,小店区,营盘街道,山西省太原市小店区营盘街道张家巷一条省二建小区,112.58207917888572,37.8300623256614,182_81,112.5817789355227,37.83054522172026,1.0,1897916455.0,112.5808638,37.8306603,140105121843.0,0,0,19
太原直送,BWLS051,BWLS051,79,140105122210,太原***到便利店,112.579393,37.834904,1.0,2.0,111.0,43.0,2.322172239581077,2.3107742662531967,0.1484798084622911,太原直送,0.1484798084622911,山西省,太原市,小店区,营盘街道,山西省太原市小店区营盘街道东岗路255号刚玉生活区3区,112.57315014786138,37.83441755333835,181_82,112.57598600730554,37.83504182692668,1.0,1893531580.0,112.5732736,37.8334854,140105122210.0,0,0,19
太原直送,BWLS051,BWLS051,59,140105122223,太原***兴便利店,112.584689,37.830494,1.0,2.0,111.0,33.67,2.324764880461031,2.310079751960524,0.1545053928411522,太原直送,0.1545053928411522,山西省,太原市,小店区,营盘街道,山西省太原市小店区营盘街道狄村东街唐槐苑,112.5784504933046,37.83001054111896,181_81,112.57598600730554,37.83054522172026,1.0,1897916326.0,112.5805364,37.8306512,140105122223.0,0,0,19
太原直送,BWLS051,BWLS051,99,140105122453,太原***烟酒商行,112.583709,37.837034,1.0,2.0,111.0,68.67,2.318829534317904,2.306199416463804,0.1480771398190777,太原直送,0.1480771398190777,山西省,太原市,小店区,营盘街道,山西省太原市小店区营盘街道体育北街中正锦城,112.57746915001545,37.83655095936777,181_82,112.57598600730554,37.83504182692668,1.0,1911805106.0,112.5800689,37.8386371,140105122453.0,0,0,19
太原直送,BWLS051,BWLS051,14,140105122467,太原***酒便利店,112.586619,37.831183,1.0,2.0,111.0,71.0,2.3235249238293063,2.3082206675630013,0.1545962220625024,太原直送,0.1545962220625024,山西省,太原市,小店区,营盘街道,山西省太原市小店区营盘街道狄村街山西汽车配件市场,112.58038140840932,37.83070066445639,182_81,112.5817789355227,37.83054522172026,1.0,1897916326.0,112.5805364,37.8306512,140105122467.0,0,0,19
太原直送,BWLS051,BWLS051,43,140105122496,（唐***唐久便利店,112.584132,37.835448,1.0,2.0,111.0,56.67,2.320212338888405,2.307006904249964,0.1497048327409616,太原直送,0.1497048327409616,山西省,太原市,小店区,营盘街道,山西省太原市小店区营盘街道刚玉五机卫生所中正锦城,112.57789259374675,37.83496497061298,181_82,112.57598600730554,37.83504182692668,1.0,1893571087.0,112.5803697,37.8336222,140105122496.0,0,0,19
太原直送,BWLS051,BWLS051,47,140105122776,太原***鹏便利店,112.579412,37.8378,1.0,2.0,111.0,43.67,2.3194086928374613,2.3087372897029605,0.145778278937569,太原直送,0.145778278937569,山西省,太原市,小店区,营盘街道,山西省太原市小店区营盘街道东岗路太阳小区,112.5731688297228,37.8373140167048,181_83,112.57598600730554,37.8395384321331,1.0,2001038741.0,112.573184,37.8365127,140105122776.0,0,0,19
太原直送,BWLS051,BWLS051,25,140105123159,太原***品经销部,112.580865,37.831013,1.0,2.0,111.0,70.67,2.325430027077142,2.312444561388875,0.1526399164176927,太原直送,0.1526399164176927,山西省,太原市,小店区,营盘街道,山西省太原市小店区营盘街道狄村街一号院小区,112.57462382623692,37.8305271040157,181_81,112.57598600730554,37.83054522172026,1.0,2001038771.0,112.5733413,37.8304827,140105123159.0,0,0,19
太原直送,BWLS051,BWLS051,23,140105123203,太原***烟酒商行,112.581001,37.831025,1.0,2.0,111.0,42.33,2.3253772479836488,2.3123390612470742,0.1526764683505631,太原直送,0.1526764683505631,山西省,太原市,小店区,营盘街道,山西省太原市小店区营盘街道狄村街一号院小区,112.57475993205988,37.830539206574855,181_81,112.57598600730554,37.83054522172026,1.0,2001038771.0,112.5733413,37.8304827,140105123203.0,0,0,19
太原直送,BWLS051,BWLS051,40,140105123264,太原***烟酒商店,112.584492,37.837114,1.0,2.0,111.0,74.0,2.3185156374529807,2.3055839264674365,0.1483034080592868,太原直送,0.1483034080592868,山西省,太原市,小店区,营盘街道,山西省太原市小店区营盘街道体育北街中正锦城,112.57825261472324,37.836631440154704,181_82,112.57598600730554,37.83504182692668,1.0,1911805106.0,112.5800689,37.8386371,140105123264.0,0,0,19
太原直送,BWLS051,BWLS051,41,140105123353,太原***福荣饭店,112.582919,37.835852,1.0,2.0,111.0,32.67,2.3201956570748465,2.3075907889125338,0.1488736919573073,太原直送,0.1488736919573073,山西省,太原市,小店区,营盘街道,山西省太原市小店区营盘街道建设南路393号中正锦城,112.57667877249314,37.83536827589535,181_82,112.57598600730554,37.83504182692668,1.0,2001038741.0,112.573184,37.8365127,140105123353.0,0,0,19
太原直送,BWLS050,BWLS050,63,140105123381,太原***微便利店,112.589473,37.832962,1.0,2.0,111.0,29.67,2.3209685172067696,2.3049387399742303,0.1540843754603261,太原直送,0.1540843754603261,山西省,太原市,小店区,营盘街道,山西省太原市小店区营盘街道南十坊社区卫生服务站南十方铁路小区,112.5832362791949,37.83248113435069,182_81,112.5817789355227,37.83054522172026,1.0,1893571046.0,112.5807076,37.8335775,140105123381.0,0,0,19
太原直送,BWLS050,BWLS050,68,140105123468,太原***新洋酒业,112.586948,37.8309,1.0,2.0,111.0,51.67,2.323695460924686,2.3081846952427725,0.1549839310186717,太原直送,0.1549839310186717,山西省,太原市,小店区,营盘街道,山西省太原市小店区营盘街道建设南路尚家轻居酒店(太原火车站建设南路店),112.58071058917196,37.83041777872933,182_81,112.5817789355227,37.83054522172026,1.0,1897916455.0,112.5808638,37.8306603,140105123468.0,0,0,19
太原直送,BWLS051,BWLS051,48,140105123636,太原***瑞祥商行,112.582206,37.837051,1.0,2.0,111.0,32.0,2.3192702250951664,2.3072619167090647,0.1474952786803659,太原直送,0.1474952786803659,山西省,太原市,小店区,营盘街道,山西省太原市小店区营盘街道体育北街中正锦城,112.5759651389221,37.83656698554501,181_82,112.57598600730554,37.83504182692668,1.0,2001038741.0,112.573184,37.8365127,140105123636.0,0,0,19
太原直送,BWLS051,BWLS051,45,140105123679,太原***芳便利店,112.585511,37.835317,1.0,2.0,111.0,34.0,2.3199192777827387,2.306113905605053,0.150354592214532,太原直送,0.150354592214532,山西省,太原市,小店区,营盘街道,山西省太原市小店区营盘街道建设南路98号中正锦城E区,112.57927238606024,37.83483473051157,182_82,112.5817789355227,37.83504182692668,1.0,1893571087.0,112.5803697,37.8336222,140105123679.0,0,0,19
太原直送,BWLS051,BWLS051,28,140105123811,太原***海烟酒店,112.586583,37.831214,1.0,2.0,,29.33,2.323506235520141,2.3082245852121863,0.154553782033955,太原直送,0.154553782033955,山西省,太原市,小店区,营盘街道,山西省太原市小店区营盘街道狄村街山西汽车配件市场,112.580345388246,37.8307316516648,182_81,112.5817789355227,37.83054522172026,1.0,1897916326.0,112.5805364,37.8306512,140105123811.0,0,0,19
太原直送,BWLS050,BWLS050,9,140105123844,太原***轩烟酒店,112.587118,37.831781,1.0,2.0,111.0,48.0,2.3228042216908835,2.3074455619363987,0.1542370411704015,太原直送,0.1542370411704015,山西省,太原市,小店区,营盘街道,山西省太原市小店区营盘街道建设南路155号太原建设南路希尔顿欢朋酒店,112.58088056145596,37.83129899121219,182_81,112.5817789355227,37.83054522172026,1.0,1897916455.0,112.5808638,37.8306603,140105123844.0,0,0,19
太原直送,BWLS051,BWLS051,29,140105123848,太原***烟酒商行,112.585236,37.831175,1.0,2.0,111.0,61.0,2.323950342671933,2.309212256819196,0.1540782044060691,太原直送,0.1540782044060691,山西省,太原市,小店区,营盘街道,山西省太原市小店区营盘街道狄村街山西汽车配件市场,112.57899771842824,37.83069194984295,182_81,112.5817789355227,37.83054522172026,1.0,1897916326.0,112.5805364,37.8306512,140105123848.0,0,0,19
太原直送,BWLS051,BWLS051,35,140105123883,（金***海波金虎便利店,112.575747,37.838998,1.0,2.0,111.0,57.0,2.319390685383772,2.310526377681497,0.1433804140773807,太原直送,0.1433804140773807,山西省,太原市,小店区,营盘街道,山西省太原市小店区营盘街道南内环街易尚大厦,112.5695000949085,37.8385089381806,180_83,112.57019307908838,37.8395384321331,1.0,2010392760.0,112.5693967,37.8384659,140105123883.0,0,0,19
太原直送,BWLS050,BWLS050,41,140105219604,太原***有限公司,112.587091,37.833491,1.0,2.0,111.0,34.33,2.321182112047218,2.3062658098191937,0.1526517772841149,太原直送,0.1526517772841149,山西省,太原市,小店区,营盘街道,山西省太原市小店区营盘街道日本轿车,112.58085335225316,37.83300923889629,182_82,112.5817789355227,37.83504182692668,1.0,1893571046.0,112.5807076,37.8335775,140105219604.0,0,0,19
太原直送,BWLS051,BWLS051,60,140105222048,太原***酒便利店,112.585645,37.830627,1.0,2.0,111.0,58.67,2.324349093182863,2.3093049052606704,0.1547398841927947,太原直送,0.1547398841927947,山西省,太原市,小店区,营盘街道,山西省太原市小店区营盘街道狄村东街唐槐公寓,112.57940699758282,37.8301440870744,182_81,112.5817789355227,37.83054522172026,1.0,1897916326.0,112.5805364,37.8306512,140105222048.0,0,0,19
太原直送,BWLS051,BWLS051,91,140105222259,太原***有限公司,112.579741,37.83543,1.0,2.0,111.0,63.67,2.321565148942624,2.3101577335917973,0.1481102422960638,太原直送,0.1481102422960638,山西省,太原市,小店区,营盘街道,山西省太原市小店区营盘街道并州南路50号中正锦城,112.57349838880252,37.834943913419394,181_82,112.57598600730554,37.83504182692668,1.0,1893531580.0,112.5732736,37.8334854,140105222259.0,0,0,19
太原直送,BWLS050,BWLS050,42,140105222384,（石***迎宾加油站,112.586863,37.832475,1.0,2.0,111.0,31.0,2.3222195378542474,2.3071406798054177,0.1534984688001745,太原直送,0.1534984688001745,山西省,太原市,小店区,营盘街道,山西省太原市小店区营盘街道建设南路中国石化迎宾加油站,112.58062536956626,37.83199297723844,182_81,112.5817789355227,37.83054522172026,1.0,1897916326.0,112.5805364,37.8306512,140105222384.0,0,0,19
太原直送,BWLS050,BWLS050,62,140105222951,山西***有限公司,112.587062,37.83091,1.0,2.0,111.0,35.0,2.323651540169046,2.3080964390867584,0.1550186196880847,太原直送,0.1550186196880847,山西省,太原市,小店区,营盘街道,山西省太原市小店区营盘街道建设南路辅路尚家轻居酒店(太原火车站建设南路店),112.5808246378637,37.83042783350972,182_81,112.5817789355227,37.83054522172026,1.0,1897916455.0,112.5808638,37.8306603,140105222951.0,0,0,19
太原直送,BWLS052,BWLS052,126,140106100956,太原***平小卖部,112.583904,37.846893,1.0,2.0,111.0,43.0,2.3093786471605267,2.29917442494474,0.1390917244878345,太原直送,0.1390917244878345,山西省,太原市,迎泽区,桥东街道,山西省太原市迎泽区桥东街道津菜馆(东景花园小区店)东景花园小区,112.57766313173084,37.84641164032295,181_85,112.57598600730554,37.84853164254594,1.0,7840688569.0,112.5776085,37.8455874,140106100956.0,0,0,19
太原直送,BWLS052,BWLS052,69,140106100973,太原***酒副食店,112.586161,37.843247,1.0,2.0,111.0,33.33,2.3121653656060155,2.3001028962472496,0.1433418495764602,太原直送,0.1433418495764602,山西省,太原市,迎泽区,桥东街道,山西省太原市迎泽区桥东街道建设南路市建一公司宿舍北区,112.57992179779974,37.842766310632925,182_84,112.5817789355227,37.84403503733952,1.0,1881697268.0,112.5799776,37.8428788,140106100973.0,0,0,19
太原直送,BWLS052,BWLS052,100,140106101153,太原***酒副食店,112.580888,37.839327,1.0,2.0,111.0,35.0,2.317504002785109,2.306614452448436,0.1448926895360855,太原直送,0.1448926895360855,山西省,太原市,迎泽区,桥东街道,山西省太原市迎泽区桥东街道南内环街阳光小区,112.57464588347358,37.83884240047616,181_83,112.57598600730554,37.8395384321331,1.0,1893531698.0,112.5730807,37.8387576,140106101153.0,0,0,19
太原直送,BWLS052,BWLS052,98,140106103224,太原***烟酒商店,112.581519,37.839739,1.0,2.0,111.0,13.67,2.316919188103027,2.305875093289528,0.1447451992019049,太原直送,0.1447451992019049,山西省,太原市,迎泽区,桥东街道,山西省太原市迎泽区桥东街道南内环街37号希岸酒店(太原南内环街店),112.57527732346588,37.83925492484171,181_83,112.57598600730554,37.8395384321331,1.0,1885448096.0,112.5763653,37.8406105,140106103224.0,0,0,19
太原直送,BWLS052,BWLS052,122,140106104693,太原***锁小卖部,112.58387,37.846154,1.0,2.0,111.0,69.33,2.310092844789143,2.299714164918106,0.13975330210768,太原直送,0.13975330210768,山西省,太原市,迎泽区,桥东街道,山西省太原市迎泽区桥东街道双塔寺街东景花园小区,112.5776291961688,37.8456725004044,181_84,112.57598600730554,37.84403503733952,1.0,7840688569.0,112.5776085,37.8455874,140106104693.0,0,0,19
太原直送,BWLS052,BWLS052,130,140106108420,太原***副食商店,112.581396,37.846896,1.0,2.0,111.0,45.67,2.310141579725796,2.3009706505040426,0.1380872000512687,太原直送,0.1380872000512687,山西省,太原市,迎泽区,桥东街道,山西省太原市迎泽区桥东街道郦苑巷郦苑国际宝馨居,112.5751534027205,37.84641297673364,181_85,112.57598600730554,37.84853164254594,1.0,4566917454.0,112.5751334,37.845569,140106108420.0,0,0,19
太原直送,BWLS052,BWLS052,87,140106109878,太原***姓小卖部,112.583656,37.839373,1.0,2.0,111.0,23.67,2.3166172218527987,2.304601881474536,0.1458967877268022,太原直送,0.1458967877268022,山西省,太原市,迎泽区,桥东街道,山西省太原市迎泽区桥东街道南内环街机床厂一宿舍,112.57741584631978,37.83889029138909,181_83,112.57598600730554,37.8395384321331,1.0,1885448096.0,112.5763653,37.8406105,140106109878.0,0,0,19
太原直送,BWLS052,BWLS052,64,140106109963,太原***鑫便利店,112.585895,37.845135,1.0,2.0,111.0,42.67,2.3104473008471778,2.29897474374231,0.1415121735682095,太原直送,0.1415121735682095,山西省,太原市,迎泽区,桥东街道,山西省太原市迎泽区桥东街道建设南路辅路中正悦湾,112.5796554482057,37.84465447646061,182_84,112.5817789355227,37.84403503733952,1.0,2010392751.0,112.5797871,37.8454151,140106109963.0,0,0,19
太原直送,BWLS052,BWLS052,132,140106110125,太原***力便利店,112.580899,37.846033,1.0,2.0,111.0,58.33,2.311115237273122,2.301928473551033,0.138688757064155,太原直送,0.138688757064155,山西省,太原市,迎泽区,桥东街道,山西省太原市迎泽区桥东街道双塔寺街辅路东港嘉园,112.5746561168088,37.84554947413071,181_84,112.57598600730554,37.84403503733952,1.0,4566917454.0,112.5751334,37.845569,140106110125.0,0,0,19
太原直送,BWLS052,BWLS052,131,140106111831,（金***伟金虎便利店,112.580949,37.846076,1.0,2.0,111.0,49.67,2.3110590031691114,2.3018626481721256,0.1386684391813829,太原直送,0.1386684391813829,山西省,太原市,迎泽区,桥东街道,山西省太原市迎泽区桥东街道双塔寺街辅路东港嘉园,112.5747061512848,37.84559251811558,181_84,112.57598600730554,37.84403503733952,1.0,4566917454.0,112.5751334,37.845569,140106111831.0,0,0,19
太原直送,BWLS052,BWLS052,99,140106113776,太原***仓便利店,112.581073,37.839313,1.0,2.0,111.0,56.33,2.317460902840004,2.3064918174112368,0.1449742228811754,太原直送,0.1449742228811754,山西省,太原市,迎泽区,桥东街道,山西省太原市迎泽区桥东街道南内环街阳光小区,112.57483103043631,37.83882853493117,181_83,112.57598600730554,37.8395384321331,1.0,1893531698.0,112.5730807,37.8387576,140106113776.0,0,0,19
太原直送,CWLS024,CWLS024,46,140106114509,太原***中便利店,112.579063,37.842385,1.0,3.0,111.0,56.0,2.315150095568749,2.3057877843533165,0.1413776512182885,太原直送,0.1413776512182885,山西省,太原市,迎泽区,桥东街道,山西省太原市迎泽区桥东街道温州炒米粉警鑫小区,112.57281899032697,37.84189945233019,180_84,112.57019307908838,37.84403503733952,1.0,1893571040.0,112.5729911,37.8414214,140106114509.0,0,0,19
太原直送,BWLS050,BWLS050,43,140106114570,太原***菲烟酒店,112.586649,37.835782,1.0,2.0,111.0,48.33,2.3191317446598405,2.304975910406442,0.1503715287446342,太原直送,0.1503715287446342,山西省,太原市,迎泽区,桥东街道,山西省太原市迎泽区桥东街道建设南路丽枫酒店(太原火车站双塔公园南门店),112.58041089082974,37.83530038138564,182_82,112.5817789355227,37.83504182692668,1.0,1893571087.0,112.5803697,37.8336222,140106114570.0,0,0,19
太原直送,BWLS052,BWLS052,124,140106114921,太原***庆便利店,112.583912,37.84631,1.0,2.0,111.0,10.0,2.309931465981185,2.2995752632225352,0.1396276972881766,太原直送,0.1396276972881766,山西省,太原市,迎泽区,桥东街道,山西省太原市迎泽区桥东街道温馨家园快捷酒店(山西人民医院火车站店)东景花园小区,112.57767120406746,37.84582855106893,181_84,112.57598600730554,37.84403503733952,1.0,7840688569.0,112.5776085,37.8455874,140106114921.0,0,0,19
太原直送,BWLS052,BWLS052,80,140106117764,太原***云便利店,112.586197,37.841731,1.0,2.0,111.0,65.67,2.31359898358985,2.301136508744535,0.1447400917506916,太原直送,0.1447400917506916,山西省,太原市,迎泽区,桥东街道,山西省太原市迎泽区桥东街道建设南路格林豪泰快捷酒店(太原建设南路南内环街口店),112.57995799048456,37.84125008811178,182_83,112.5817789355227,37.8395384321331,1.0,4171675252.0,112.5800402,37.8415351,140106117764.0,0,0,19
太原直送,BWLS052,BWLS052,133,140106118344,太原***富食品店,112.58087,37.846091,1.0,2.0,111.0,35.0,2.3110688899478924,2.301908856178275,0.1386240557515171,太原直送,0.1386240557515171,山西省,太原市,迎泽区,桥东街道,山西省太原市迎泽区桥东街道双塔寺街辅路东港嘉园,112.5746270871555,37.84560746192781,181_84,112.57598600730554,37.84403503733952,1.0,4566917454.0,112.5751334,37.845569,140106118344.0,0,0,19
太原直送,BWLS052,BWLS052,134,140106118549,太原***张张酒坊,112.58081,37.846066,1.0,2.0,111.0,64.67,2.3111110479356016,2.301969311132752,0.1386239388345296,太原直送,0.1386239388345296,山西省,太原市,迎泽区,桥东街道,山西省太原市迎泽区桥东街道双塔寺街辅路东港嘉园,112.57456704241748,37.84558241320365,181_84,112.57598600730554,37.84403503733952,1.0,4566917454.0,112.5751334,37.845569,140106118549.0,0,0,19
太原直送,BWLS052,BWLS052,67,140106119273,（金***明金虎便利店,112.58486,37.844733,1.0,2.0,111.0,42.67,2.3111449344117294,2.2999964581433554,0.1414538214011937,太原直送,0.1414538214011937,山西省,太原市,迎泽区,桥东街道,山西省太原市迎泽区桥东街道中正悦湾,112.57861994460592,37.84425185246575,181_84,112.57598600730554,37.84403503733952,1.0,2010392751.0,112.5797871,37.8454151,140106119273.0,0,0,19
太原直送,BWLS052,BWLS052,63,140106119283,太原***品经销部,112.585443,37.845352,1.0,2.0,111.0,91.67,2.3103779507182383,2.299146911294275,0.1411278419766977,太原直送,0.1411278419766977,山西省,太原市,迎泽区,桥东街道,山西省太原市迎泽区桥东街道建设南路73--5号中正悦湾,112.57920319051988,37.84487127288161,182_84,112.5817789355227,37.84403503733952,1.0,2010392751.0,112.5797871,37.8454151,140106119283.0,0,0,19
太原直送,BWLS052,BWLS052,84,140106119289,太原***伟便利店,112.586353,37.839585,1.0,2.0,111.0,23.33,2.3155967206817327,2.302525502189495,0.1467656491281252,太原直送,0.1467656491281252,山西省,太原市,迎泽区,桥东街道,山西省太原市迎泽区桥东街道建设南路太原爱尔眼科医院,112.58011431330706,37.83910382801627,182_83,112.5817789355227,37.8395384321331,1.0,1911805108.0,112.5800583,37.8388446,140106119289.0,0,0,19
太原直送,BWLS052,BWLS052,76,140106119290,太原***亚便利店,112.579153,37.844459,1.0,2.0,111.0,33.33,2.3131482096130345,2.304277577552881,0.1394832099429891,太原直送,0.1394832099429891,山西省,太原市,迎泽区,桥东街道,山西省太原市迎泽区桥东街道东岗路山西省人民医院南院区,112.5729088309042,37.84397385691872,180_84,112.57019307908838,37.84403503733952,1.0,1881020352.0,112.5728627,37.8454337,140106119290.0,0,0,19
太原直送,BWLS052,BWLS052,135,140106119320,太原***旺食品店,112.58087,37.846091,1.0,2.0,111.0,29.67,2.3110688899478924,2.301908856178275,0.1386240557515171,太原直送,0.1386240557515171,山西省,太原市,迎泽区,桥东街道,山西省太原市迎泽区桥东街道双塔寺街辅路东港嘉园,112.5746270871555,37.84560746192781,181_84,112.57598600730554,37.84403503733952,1.0,4566917454.0,112.5751334,37.845569,140106119320.0,0,0,19
太原直送,BWLS052,BWLS052,117,140106119400,（唐***艳唐久便利店,112.591317,37.842532,1.0,2.0,111.0,50.67,2.3112874732393194,2.2969169920800327,0.1461777120391492,太原直送,0.1461777120391492,山西省,太原市,迎泽区,桥东街道,山西省太原市迎泽区桥东街道双塔南巷双塔南巷小学校,112.58507961904732,37.84205320411544,183_84,112.58757186373984,37.84403503733952,1.0,2109885650.0,112.5850841,37.8419805,140106119400.0,0,0,19
太原直送,BWLS052,BWLS052,119,140106119499,太原***品经销部,112.590748,37.83952,1.0,2.0,111.0,66.67,2.3143309389890607,2.299432154483575,0.1486475023469957,太原直送,0.1486475023469957,山西省,太原市,迎泽区,郝庄镇,山西省太原市迎泽区郝庄镇南内环东街建投·双塔名邸,112.58451085048708,37.839040565943016,182_83,112.5817789355227,37.8395384321331,1.0,7539624519.0,112.5851623,37.8368803,140106119499.0,0,0,19
太原直送,BWLS052,BWLS052,81,140106119574,（唐***龙唐久便利店,112.58615,37.841505,1.0,2.0,111.0,69.0,2.3138285931367086,2.301328090147076,0.1449274656267766,太原直送,0.1449274656267766,山西省,太原市,迎泽区,桥东街道,山西省太原市迎泽区桥东街道建设南路格林豪泰快捷酒店(太原建设南路南内环街口店),112.57991099379149,37.841024028637655,182_83,112.5817789355227,37.8395384321331,1.0,4171675252.0,112.5800402,37.8415351,140106119574.0,0,0,19
太原直送,BWLS052,BWLS052,121,140106119588,太原***惠便利店,112.58387,37.846154,1.0,2.0,111.0,73.0,2.310092844789143,2.299714164918106,0.13975330210768,太原直送,0.13975330210768,山西省,太原市,迎泽区,桥东街道,山西省太原市迎泽区桥东街道双塔寺街东景花园小区,112.5776291961688,37.8456725004044,181_84,112.57598600730554,37.84403503733952,1.0,7840688569.0,112.5776085,37.8455874,140106119588.0,0,0,19
太原直送,BWLS050,BWLS050,44,140106119620,太原***德烟酒店,112.586831,37.837051,1.0,2.0,111.0,45.67,2.317867126236528,2.3039573553824675,0.14927891045958,太原直送,0.14927891045958,山西省,太原市,迎泽区,桥东街道,山西省太原市迎泽区桥东街道建设南路辅路太原艾华曼精品酒店(建设南路火车站店),112.58059282657278,37.83656966495415,182_82,112.5817789355227,37.83504182692668,1.0,1911805104.0,112.5803916,37.8386454,140106119620.0,0,0,19
太原直送,BWLS052,BWLS052,93,140106119625,（唐***（个体工商户）,112.581648,37.839332,1.0,2.0,111.0,62.33,2.3172674939268445,2.306067041525244,0.1451708901467508,太原直送,0.1451708901467508,山西省,太原市,迎泽区,桥东街道,山西省太原市迎泽区桥东街道南内环街希岸酒店(太原南内环街店),112.57540646737286,37.83884795280216,181_83,112.57598600730554,37.8395384321331,1.0,1885448096.0,112.5763653,37.8406105,140106119625.0,0,0,19
太原直送,CWLS024,CWLS024,48,140106119679,太原***副食商店,112.577352,37.839163,1.0,3.0,111.0,33.33,2.318741315637644,2.309261114567164,0.1437760476609377,太原直送,0.1437760476609377,山西省,太原市,迎泽区,桥东街道,山西省太原市迎泽区桥东街道南内环街省四建新一楼,112.571106745503,37.83867546784632,180_83,112.57019307908838,37.8395384321331,1.0,2010392760.0,112.5693967,37.8384659,140106119679.0,0,0,19
太原直送,BWLS052,BWLS052,116,140106119734,（金***峰金虎便利店,112.585168,37.846077,1.0,2.0,111.0,34.0,2.3097709382241773,2.2988379066093376,0.1403539439452943,太原直送,0.1403539439452943,山西省,太原市,迎泽区,桥东街道,山西省太原市迎泽区桥东街道双塔寺街如家·neo-太原火车站建设南路双塔东街店,112.57892795940684,37.84559623993869,182_84,112.5817789355227,37.84403503733952,1.0,4566917452.0,112.5797809,37.8456305,140106119734.0,0,0,19
太原直送,CWLS024,CWLS024,51,140106119753,太原***烟酒商店,112.577352,37.839163,1.0,3.0,111.0,72.67,2.318741315637644,2.309261114567164,0.1437760476609377,太原直送,0.1437760476609377,山西省,太原市,迎泽区,桥东街道,山西省太原市迎泽区桥东街道南内环街省四建新一楼,112.571106745503,37.83867546784632,180_83,112.57019307908838,37.8395384321331,1.0,2010392760.0,112.5693967,37.8384659,140106119753.0,0,0,19
太原直送,BWLS052,BWLS052,108,140106119885,太原***生便利店,112.59107,37.839093,1.0,2.0,111.0,63.0,2.314641147447483,2.299501489360681,0.1491711373858906,太原直送,0.1491711373858906,山西省,太原市,迎泽区,郝庄镇,山西省太原市迎泽区郝庄镇乐家面馆(东城一品店)东城一品,112.58483296810752,37.83861359301133,183_83,112.58757186373984,37.8395384321331,1.0,7539624519.0,112.5851623,37.8368803,140106119885.0,0,0,19
太原直送,BWLS052,BWLS052,70,140106119953,太原***青食品店,112.58472,37.843377,1.0,2.0,111.0,19.67,2.3124792761244377,2.3010433689819907,0.1426370943513675,太原直送,0.1426370943513675,山西省,太原市,迎泽区,桥东街道,山西省太原市迎泽区桥东街道市建一公司宿舍南区市建一公司宿舍北区,112.57848002219244,37.84289555640797,181_84,112.57598600730554,37.84403503733952,1.0,1881697268.0,112.5799776,37.8428788,140106119953.0,0,0,19
太原直送,BWLS052,BWLS052,103,140106120064,太原***淞然超市,112.586645,37.840601,1.0,2.0,111.0,39.67,2.314540005530255,2.301606217113818,0.1459546123560341,太原直送,0.1459546123560341,山西省,太原市,迎泽区,桥东街道,山西省太原市迎泽区桥东街道建设南路辅路和润龙城苑,112.58040633212543,37.84012013081901,182_83,112.5817789355227,37.8395384321331,1.0,1881697336.0,112.5803215,37.8405296,140106120064.0,0,0,19
太原直送,BWLS052,BWLS052,102,140106120098,太原***呱呱超市,112.590772,37.839486,1.0,2.0,111.0,33.0,2.314356130231039,2.299438840808119,0.1486884941412733,太原直送,0.1486884941412733,山西省,太原市,迎泽区,郝庄镇,山西省太原市迎泽区郝庄镇南内环东街建投·双塔名邸,112.58453485971076,37.83900656777577,182_83,112.5817789355227,37.8395384321331,1.0,7539624519.0,112.5851623,37.8368803,140106120098.0,0,0,19
太原直送,CWLS024,CWLS024,47,140106120203,太原***忆品茶庄,112.579271,37.839885,1.0,3.0,111.0,76.0,2.317466547404725,2.307382670804513,0.1437819872167564,太原直送,0.1437819872167564,山西省,太原市,迎泽区,桥东街道,山西省太原市迎泽区桥东街道东岗路山西省贸易学校,112.573027464563,37.8393992281972,180_83,112.57019307908838,37.8395384321331,1.0,1893531698.0,112.5730807,37.8387576,140106120203.0,0,0,19
太原直送,BWLS052,BWLS052,44,140106120312,太原***意便利店,112.579118,37.845592,1.0,2.0,111.0,35.33,2.312080460263005,2.3035133304561106,0.1384189648350184,太原直送,0.1384189648350184,山西省,太原市,迎泽区,桥东街道,山西省太原市迎泽区桥东街道东岗路山西省人民医院南院区,112.57287366864954,37.845107009918415,180_84,112.57019307908838,37.84403503733952,1.0,1881020352.0,112.5728627,37.8454337,140106120312.0,0,0,19
太原直送,BWLS052,BWLS052,123,140106120354,（金***芳金虎便利店,112.590668,37.839241,1.0,2.0,111.0,47.67,2.314621078221012,2.299684678837516,0.1488657765539092,太原直送,0.1488657765539092,山西省,太原市,迎泽区,郝庄镇,山西省太原市迎泽区郝庄镇南内环东街东城一品,112.58443086483604,37.83876149815576,182_83,112.5817789355227,37.8395384321331,1.0,7539624519.0,112.5851623,37.8368803,140106120354.0,0,0,19
太原直送,CWLS024,CWLS024,61,140106120358,太原***顺便利店,112.575819,37.84302,1.0,3.0,111.0,31.33,2.3155411571252604,2.307671952192945,0.1396266615120422,太原直送,0.1396266615120422,山西省,太原市,迎泽区,桥东街道,山西省太原市迎泽区桥东街道葡萄园东巷晋煤楼,112.5695717077296,37.842531642767455,180_84,112.57019307908838,37.84403503733952,1.0,7840688579.0,112.5690827,37.8420033,140106120358.0,0,0,19
太原直送,BWLS052,BWLS052,32,140106120470,太原***烟酒商行,112.586114,37.841241,1.0,2.0,111.0,57.5,2.314091077224277,2.3015383767080704,0.1451541623412841,太原直送,0.1451541623412841,山西省,太原市,迎泽区,桥东街道,山西省太原市迎泽区桥东街道建设南路303号格林豪泰快捷酒店(太原建设南路南内环街口店),112.579875006743,37.84075996867954,182_83,112.5817789355227,37.8395384321331,1.0,1881697336.0,112.5803215,37.8405296,140106120470.0,0,0,19
太原直送,BWLS050,BWLS050,8,140106120575,太原***涞烟酒店,112.586804,37.837195,1.0,2.0,111.0,69.67,2.3177380388518865,2.3038758170847635,0.1491360943065068,太原直送,0.1491360943065068,山西省,太原市,迎泽区,桥东街道,山西省太原市迎泽区桥东街道建设南路辅路,112.58056579783398,37.836713674458935,182_82,112.5817789355227,37.83504182692668,1.0,1911805104.0,112.5803916,37.8386454,140106120575.0,0,0,19
太原直送,BWLS052,BWLS052,33,140106120602,太原***昌旺超市,112.580523,37.846085,1.0,2.0,111.0,47.0,2.311180785376165,2.302161929429159,0.1384958521544922,太原直送,0.1384958521544922,山西省,太原市,迎泽区,桥东街道,山西省太原市迎泽区桥东街道双塔寺街辅路东港嘉园,112.57427980952208,37.845601200226646,181_84,112.57598600730554,37.84403503733952,1.0,4566917454.0,112.5751334,37.845569,140106120602.0,0,0,19
太原直送,BWLS052,BWLS052,28,140106120639,太原***族便利店,112.585999,37.84465,1.0,2.0,111.0,36.0,2.310877784457886,2.299238918924692,0.1419967404027265,太原直送,0.1419967404027265,山西省,太原市,迎泽区,桥东街道,山西省太原市迎泽区桥东街道建设南路辅路中正悦湾,112.57975955611512,37.84416945225841,182_84,112.5817789355227,37.84403503733952,1.0,2010392751.0,112.5797871,37.8454151,140106120639.0,0,0,19
太原直送,CWLS024,CWLS024,15,140106120681,太原***艳烟酒店,112.578882,37.839087,1.0,3.0,111.0,70.33,2.3183452769967223,2.308218201673321,0.1443868610954578,太原直送,0.1443868610954578,山西省,太原市,迎泽区,[],山西省太原市迎泽区南内环街山西省贸易学校,112.5726382085362,37.838600782505246,180_83,112.57019307908838,37.8395384321331,1.0,1893531765.0,112.5730965,37.838557,140106120681.0,0,0,19
太原直送,BWLS052,BWLS052,24,140106120687,（金***江金虎便利店,112.579253,37.841135,1.0,2.0,111.0,52.67,2.316281958685513,2.306523404635862,0.1426106814512805,太原直送,0.1426106814512805,山西省,太原市,迎泽区,桥东街道,山西省太原市迎泽区桥东街道东岗路太原锅炉厂职工宿舍,112.57300930410356,37.84064941034922,180_83,112.57019307908838,37.8395384321331,1.0,1893531767.0,112.5729981,37.8408165,140106120687.0,0,0,19
太原直送,BWLS052,BWLS052,27,140106120741,太原***通便利店,112.583271,37.845839,1.0,2.0,111.0,30.0,2.3105754632004576,2.300363127601599,0.1398004695986378,太原直送,0.1398004695986378,山西省,太原市,迎泽区,桥东街道,山西省太原市迎泽区桥东街道双塔寺街时代特区,112.57702985160635,37.84535707706926,181_84,112.57598600730554,37.84403503733952,1.0,7840688569.0,112.5776085,37.8455874,140106120741.0,0,0,19
太原直送,BWLS052,BWLS052,31,140106120743,太原***烟酒商行,112.586232,37.840969,1.0,2.0,111.0,64.0,2.3143144895906,2.3016441573275404,0.1454506459146837,太原直送,0.1454506459146837,山西省,太原市,迎泽区,桥东街道,山西省太原市迎泽区桥东街道建设南路辅路格林豪泰快捷酒店(太原建设南路南内环街口店),112.57999309545912,37.84048798530525,182_83,112.5817789355227,37.8395384321331,1.0,1881697336.0,112.5803215,37.8405296,140106120743.0,0,0,19
太原直送,CWLS024,CWLS024,10,140106120761,太原***豪食品店,112.579263,37.840899,1.0,3.0,111.0,27.33,2.316503584244151,2.3066808770207032,0.1428341234999508,太原直送,0.1428341234999508,山西省,太原市,迎泽区,桥东街道,山西省太原市迎泽区桥东街道东岗路太原锅炉厂职工宿舍,112.5730193402417,37.8404133812672,180_83,112.57019307908838,37.8395384321331,1.0,1893531767.0,112.5729981,37.8408165,140106120761.0,0,0,19
太原直送,BWLS052,BWLS052,22,140106120787,太原***食经销部,112.581669,37.83933,1.0,2.0,111.0,56.67,2.317262998444717,2.3060534109378272,0.1451806087086046,太原直送,0.1451806087086046,山西省,太原市,迎泽区,桥东街道,山西省太原市迎泽区桥东街道南内环街希岸酒店(太原南内环街店),112.57542748328062,37.838845967359966,181_83,112.57598600730554,37.8395384321331,1.0,1885448096.0,112.5763653,37.8406105,140106120787.0,0,0,19
太原直送,BWLS052,BWLS052,25,140106120788,太原***烟酒商行,112.584944,37.845737,1.0,2.0,111.0,48.67,2.31016297385466,2.2992356061578416,0.140571747648661,太原直送,0.140571747648661,山西省,太原市,迎泽区,桥东街道,山西省太原市迎泽区桥东街道建设南路73-5-1013号中正悦湾,112.57870387549517,37.84525606086387,181_84,112.57598600730554,37.84403503733952,1.0,2010392751.0,112.5797871,37.8454151,140106120788.0,0,0,19
太原直送,BWLS052,BWLS052,50,140106120802,太原***烟酒商行,112.586205,37.840568,1.0,2.0,111.0,44.67,2.314704802685862,2.3019438320693184,0.145806427735546,太原直送,0.145806427735546,山西省,太原市,迎泽区,桥东街道,山西省太原市迎泽区桥东街道建设南路辅路格林豪泰快捷酒店(太原建设南路南内环街口店),112.57996612876856,37.84008690852131,182_83,112.5817789355227,37.8395384321331,1.0,1881697336.0,112.5803215,37.8405296,140106120802.0,0,0,19
太原直送,BWLS052,BWLS052,42,140106120833,太原***副食商店,112.581489,37.839352,1.0,2.0,111.0,25.67,2.317296911146476,2.3061668556273163,0.1450928795530662,太原直送,0.1450928795530662,山西省,太原市,迎泽区,桥东街道,山西省太原市迎泽区桥东街道晋南小院私房菜希岸酒店(太原南内环街店),112.57524734554056,37.83886784269617,181_83,112.57598600730554,37.8395384321331,1.0,1885448096.0,112.5763653,37.8406105,140106120833.0,0,0,19
太原直送,BWLS052,BWLS052,47,140106120844,（唐***代唐久便利店,112.579531,37.846029,1.0,2.0,111.0,67.33,2.3115379065211075,2.302912606828357,0.1381694613147185,太原直送,0.1381694613147185,山西省,太原市,迎泽区,桥东街道,山西省太原市迎泽区桥东街道双塔寺街玲珑琚,112.57328698202728,37.84554441599839,181_84,112.57598600730554,37.84403503733952,1.0,1881020364.0,112.5728627,37.845512,140106120844.0,0,0,19
太原直送,CWLS024,CWLS024,12,140106120846,太原***彬便利店,112.576338,37.840743,1.0,3.0,111.0,42.0,2.3175485141150705,2.3088861203359423,0.1419424250356437,太原直送,0.1419424250356437,山西省,太原市,迎泽区,桥东街道,山西省太原市迎泽区桥东街道军官小区1期,112.57009152502704,37.84025477931958,180_83,112.57019307908838,37.8395384321331,1.0,5769987754.0,112.5704044,37.8414551,140106120846.0,0,0,19
太原直送,BWLS052,BWLS052,26,140106120851,太原***兴烟酒店,112.590861,37.840134,1.0,2.0,111.0,62.33,2.3137114211865306,2.298921462389262,0.1481409433782582,太原直送,0.1481409433782582,山西省,太原市,迎泽区,郝庄镇,山西省太原市迎泽区郝庄镇双塔南路建投·双塔名邸,112.58462380417971,37.83965469584791,182_83,112.5817789355227,37.8395384321331,1.0,5767946495.0,112.5851745,37.8419041,140106120851.0,0,0,19
太原直送,CWLS024,CWLS024,9,140106120861,太原***燕烟酒店,112.579275,37.840599,1.0,3.0,111.0,76.33,2.316785533547724,2.306881583143144,0.1431179606478508,太原直送,0.1431179606478508,山西省,太原市,迎泽区,桥东街道,山西省太原市迎泽区桥东街道东岗路山西省贸易学校,112.573031385542,37.84011334376476,180_83,112.57019307908838,37.8395384321331,1.0,1893531767.0,112.5729981,37.8408165,140106120861.0,0,0,19
太原直送,BWLS052,BWLS052,43,140106120864,太原***飞便利店,112.579105,37.844133,1.0,2.0,111.0,35.33,2.313473237595802,2.304539178763729,0.1397680916518487,太原直送,0.1397680916518487,山西省,太原市,迎泽区,桥东街道,山西省太原市迎泽区桥东街道小小铁锅焖面山西省人民医院南院区,112.57286082577066,37.84364776533351,180_84,112.57019307908838,37.84403503733952,1.0,1881020352.0,112.5728627,37.8454337,140106120864.0,0,0,19
太原直送,BWLS052,BWLS052,23,140106120899,太原***百货商行,112.590865,37.839466,1.0,2.0,111.0,31.33,2.3143471895169485,2.2993864773808705,0.1487463031910317,太原直送,0.1487463031910317,山西省,太原市,迎泽区,郝庄镇,山西省太原市迎泽区郝庄镇南内环东街建投·双塔名邸,112.58462788222684,37.8389865921556,182_83,112.5817789355227,37.8395384321331,1.0,7539624519.0,112.5851623,37.8368803,140106120899.0,0,0,19
太原直送,BWLS052,BWLS052,49,140106120919,太原***烟酒商行,112.586056,37.844236,1.0,2.0,111.0,49.67,2.311254918518939,2.2994872241873816,0.1423973174536617,太原直送,0.1423973174536617,山西省,太原市,迎泽区,桥东街道,山西省太原市迎泽区桥东街道建设南路辅路中正悦湾,112.57981663212024,37.84375541515014,182_84,112.5817789355227,37.84403503733952,1.0,1881697268.0,112.5799776,37.8428788,140106120919.0,0,0,19
太原直送,BWLS052,BWLS052,53,140106120937,太原***桓烟酒店,112.58081,37.846066,1.0,2.0,111.0,41.0,2.3111110479356016,2.301969311132752,0.1386239388345296,太原直送,0.1386239388345296,山西省,太原市,迎泽区,桥东街道,山西省太原市迎泽区桥东街道双塔寺街辅路东港嘉园,112.57456704241748,37.84558241320365,181_84,112.57598600730554,37.84403503733952,1.0,4566917454.0,112.5751334,37.845569,140106120937.0,0,0,19
太原直送,BWLS052,BWLS052,45,140106120944,太原***萌便利店,112.583264,37.845887,1.0,2.0,111.0,54.67,2.3105318845384946,2.300334668921894,0.1397536832323218,太原直送,0.1397536832323218,山西省,太原市,迎泽区,桥东街道,山西省太原市迎泽区桥东街道双塔寺街时代特区,112.57702284148183,37.8454050803449,181_84,112.57598600730554,37.84403503733952,1.0,7840688569.0,112.5776085,37.8455874,140106120944.0,0,0,19
太原直送,BWLS052,BWLS052,40,140106120961,太原***宜玖酒店,112.583333,37.839362,1.0,2.0,111.0,46.33,2.3167259134271787,2.304840585262677,0.1457824652041485,太原直送,0.1457824652041485,山西省,太原市,迎泽区,桥东街道,山西省太原市迎泽区桥东街道南内环东街33号机床厂一宿舍,112.57709264074973,37.8388790876342,181_83,112.57598600730554,37.8395384321331,1.0,1885448096.0,112.5763653,37.8406105,140106120961.0,0,0,19
太原直送,BWLS052,BWLS052,101,140106211083,太原***贸易商行,112.579253,37.841135,1.0,2.0,111.0,86.33,2.316281958685513,2.306523404635862,0.1426106814512805,太原直送,0.1426106814512805,山西省,太原市,迎泽区,桥东街道,山西省太原市迎泽区桥东街道东岗路太原锅炉厂职工宿舍,112.57300930410356,37.84064941034922,180_83,112.57019307908838,37.8395384321331,1.0,1893531767.0,112.5729981,37.8408165,140106211083.0,0,0,19
太原直送,CWLS024,CWLS024,108,140106217860,太原***有限公司,112.579126,37.842849,1.0,3.0,111.0,47.33,2.314689091668466,2.30541911101734,0.140969133944277,太原直送,0.140969133944277,山西省,太原市,迎泽区,桥东街道,山西省太原市迎泽区桥东街道温州炒米粉油墨厂小区,112.57288199301456,37.84236357790488,180_84,112.57019307908838,37.84403503733952,1.0,1893571040.0,112.5729911,37.8414214,140106217860.0,0,0,19
太原直送,BWLS052,BWLS052,78,140106218842,太原***建南分部,112.586197,37.841731,1.0,2.0,111.0,22.33,2.31359898358985,2.301136508744535,0.1447400917506916,太原直送,0.1447400917506916,山西省,太原市,迎泽区,桥东街道,山西省太原市迎泽区桥东街道建设南路格林豪泰快捷酒店(太原建设南路南内环街口店),112.57995799048456,37.84125008811178,182_83,112.5817789355227,37.8395384321331,1.0,4171675252.0,112.5800402,37.8415351,140106218842.0,0,0,19
太原直送,BWLS052,BWLS052,120,140106219021,山西***有限公司,112.590397,37.839353,1.0,2.0,111.0,27.67,2.31459593323759,2.299799643903137,0.1486491941316814,太原直送,0.1486491941316814,山西省,太原市,迎泽区,郝庄镇,山西省太原市迎泽区郝庄镇南内环东街东城一品,112.58415978855707,37.83887343204731,182_83,112.5817789355227,37.8395384321331,1.0,12612891189.0,112.5829162,37.8373545,140106219021.0,0,0,19
太原直送,CWLS024,CWLS024,11,140106219286,太原***泽分公司,112.578656,37.841851,1.0,3.0,122.0,21.33,2.315783074904256,2.306451869473112,0.1417266884993772,太原直送,0.1417266884993772,山西省,太原市,迎泽区,桥东街道,山西省太原市迎泽区桥东街道南沙河北沿岸,112.57241168257556,37.841365028315465,180_83,112.57019307908838,37.8395384321331,1.0,1893571040.0,112.5729911,37.8414214,140106219286.0,0,0,19
太原直送,BWLS052,BWLS052,95,140106219447,太原***有限公司,112.581648,37.839332,1.0,2.0,111.0,29.67,2.3172674939268445,2.306067041525244,0.1451708901467508,太原直送,0.1451708901467508,山西省,太原市,迎泽区,桥东街道,山西省太原市迎泽区桥东街道南内环街希岸酒店(太原南内环街店),112.57540646737286,37.83884795280216,181_83,112.57598600730554,37.8395384321331,1.0,1885448096.0,112.5763653,37.8406105,140106219447.0,0,0,19
太原直送,BWLS052,BWLS052,91,140106219472,山西***有限公司,112.583178,37.839478,1.0,2.0,111.0,54.0,2.3166625548409057,2.3048703888689666,0.1456158282948665,太原直送,0.1456158282948665,山西省,太原市,迎泽区,桥东街道,山西省太原市迎泽区桥东街道染料厂宿舍阳光小区,112.5769375259409,37.83899500719748,181_83,112.57598600730554,37.8395384321331,1.0,1885448096.0,112.5763653,37.8406105,140106219472.0,0,0,19
太原直送,BWLS052,BWLS052,118,140106219523,山西***有限公司,112.585168,37.846077,3.0,2.0,111.0,9.0,2.3097709382241773,2.2988379066093376,0.1403539439452943,太原直送,0.1403539439452943,山西省,太原市,迎泽区,桥东街道,山西省太原市迎泽区桥东街道双塔寺街如家·neo-太原火车站建设南路双塔东街店,112.57892795940684,37.84559623993869,182_84,112.5817789355227,37.84403503733952,1.0,4566917452.0,112.5797809,37.8456305,140106219523.0,0,0,19
太原直送,BWLS052,BWLS052,114,140106220123,太原***有限公司,112.585516,37.845942,1.0,2.0,111.0,83.33,2.309793690375397,2.298682850596184,0.1406206731956548,太原直送,0.1406206731956548,山西省,太原市,迎泽区,桥东街道,山西省太原市迎泽区桥东街道双塔寺街利浦石油加油站,112.57927616068164,37.845461406887736,182_84,112.5817789355227,37.84403503733952,1.0,2010392749.0,112.5797871,37.8454898,140106220123.0,0,0,19
太原直送,BWLS052,BWLS052,109,140106220259,山西***有限公司,112.59118,37.838756,1.0,2.0,111.0,97.67,2.314929405638543,2.2996591250828944,0.1495228201245541,太原直送,0.1495228201245541,山西省,太原市,迎泽区,郝庄镇,山西省太原市迎泽区郝庄镇东城一品(东门),112.58494302900606,37.838276571337,183_83,112.58757186373984,37.8395384321331,1.0,7539624519.0,112.5851623,37.8368803,140106220259.0,0,0,19
太原直送,BWLS052,BWLS052,89,140106220265,山西***有限公司,112.58346,37.839364,1.0,2.0,111.0,83.33,2.3166853873208546,2.304748352116772,0.1458294864902119,太原直送,0.1458294864902119,山西省,太原市,迎泽区,桥东街道,山西省太原市迎泽区桥东街道南内环街机床厂一宿舍,112.57721972256618,37.83888116794476,181_83,112.57598600730554,37.8395384321331,1.0,1885448096.0,112.5763653,37.8406105,140106220265.0,0,0,19
太原直送,BWLS052,BWLS052,18,140106220477,太原***有限公司,112.591207,37.84004,1.0,2.0,111.0,40.0,2.313696842778888,2.2987403326539506,0.1483745692664301,太原直送,0.1483745692664301,山西省,太原市,迎泽区,郝庄镇,山西省太原市迎泽区郝庄镇双塔南路建投·双塔名邸,112.58496988592506,37.83956078010074,183_83,112.58757186373984,37.8395384321331,1.0,5767946495.0,112.5851745,37.8419041,140106220477.0,0,0,19
太原直送,CWLS024,CWLS024,21,140106220490,山西***有限公司,112.576733,37.839179,1.0,3.0,111.0,78.67,2.318915848381735,2.309693492265364,0.1435466798501435,太原直送,0.1435466798501435,山西省,太原市,迎泽区,桥东街道,山西省太原市迎泽区桥东街道南内环街省四建新一楼,112.57048711715991,37.8386909039566,180_83,112.57019307908838,37.8395384321331,1.0,2010392760.0,112.5693967,37.8384659,140106220490.0,0,0,19
太原直送,BWLS052,BWLS052,30,140106220600,太原***有限公司,112.586201,37.841805,1.0,2.0,111.0,24.67,2.313527256204255,2.301081925497,0.1446741286754465,太原直送,0.1446741286754465,山西省,太原市,迎泽区,桥东街道,山西省太原市迎泽区桥东街道建设南路格林豪泰快捷酒店(太原建设南路南内环街口店),112.57996198386748,37.8413241018396,182_83,112.5817789355227,37.8395384321331,1.0,4171675252.0,112.5800402,37.8415351,140106220600.0,0,0,19
太原直送,BWLS051,BWLS051,20,140105123990,（金***来金虎便利店,112.583222,37.831088,1.0,2.0,111.0,24.67,2.324642997556825,2.310709777561208,0.1534131808743952,太原直送,0.1534131808743952,山西省,太原市,小店区,营盘街道,山西省太原市小店区营盘街道狄村街山西省人民政府口岸办联检宿舍,112.57698252445648,37.83060374362141,181_81,112.57598600730554,37.83054522172026,1.0,1897916326.0,112.5805364,37.8306512,140105123990.0,0,0,19
太原直送,BWLS051,BWLS051,21,140105123998,太原***烟酒商行,112.582855,37.835653,1.0,2.0,111.0,24.67,2.320404694731504,2.3077757353558006,0.1490344253654128,太原直送,0.1490344253654128,山西省,太原市,小店区,营盘街道,山西省太原市小店区营盘街道体育北街87号中正锦城,112.57661475226088,37.835169203410246,181_82,112.57598600730554,37.83504182692668,1.0,2001038741.0,112.573184,37.8365127,140105123998.0,0,0,19
太原直送,BWLS050,BWLS050,7,140105124034,太原***秦丽商行,112.586697,37.834241,1.0,2.0,111.0,26.33,2.320586148499556,2.3060212108428217,0.1518073911902843,太原直送,0.1518073911902843,山西省,太原市,迎泽区,[],山西省太原市迎泽区建设南路米特假日酒店(太原建设南路火车站店),112.58045909078986,37.83375916756297,182_82,112.5817789355227,37.83504182692668,1.0,1893571087.0,112.5803697,37.8336222,140105124034.0,0,0,19
太原直送,BWLS051,BWLS051,36,140105124057,太原***鲜便利店,112.579972,37.835434,1.0,2.0,111.0,28.0,2.321490885873559,2.3099897409783017,0.1481884615008858,太原直送,0.1481884615008858,山西省,太原市,小店区,营盘街道,山西省太原市小店区营盘街道建设南路411号中正锦城,112.57372958478604,37.834948096323565,181_82,112.57598600730554,37.83504182692668,1.0,1893531580.0,112.5732736,37.8334854,140105124057.0,0,0,19
太原直送,BWLS051,BWLS051,26,140105124067,太原***吧便利店,112.578552,37.839007,1.0,2.0,111.0,19.0,2.318522386869056,2.308510369453856,0.1443440652642121,太原直送,0.1443440652642121,山西省,太原市,小店区,营盘街道,山西省太原市小店区营盘街道南内环街山西省贸易学校,112.57230791549657,37.8385204927206,180_83,112.57019307908838,37.8395384321331,1.0,1893531765.0,112.5730965,37.838557,140105124067.0,0,0,19
太原直送,BWLS050,BWLS050,13,140105124071,太原***头小卖部,112.589473,37.832962,1.0,2.0,111.0,72.33,2.3209685172067696,2.3049387399742303,0.1540843754603261,太原直送,0.1540843754603261,山西省,太原市,小店区,营盘街道,山西省太原市小店区营盘街道南十坊社区卫生服务站南十方铁路小区,112.5832362791949,37.83248113435069,182_81,112.5817789355227,37.83054522172026,1.0,1893571046.0,112.5807076,37.8335775,140105124071.0,0,0,19
太原直送,BWLS050,BWLS050,18,140105124103,太原***家便利店,112.585446,37.828875,1.0,2.0,111.0,24.33,2.326079363874974,2.3106757058367124,0.1562897822411979,太原直送,0.1562897822411979,山西省,太原市,小店区,营盘街道,山西省太原市小店区营盘街道碧桂园玖玺台(北门),112.57920809616613,37.828391717926245,182_81,112.5817789355227,37.83054522172026,1.0,4171675248.0,112.5808198,37.8271905,140105124103.0,0,0,19
太原直送,BWLS051,BWLS051,37,140105124144,太原***酒茶商行,112.586559,37.834193,1.0,2.0,111.0,33.33,2.320673607131345,2.306153299680014,0.1517976325770566,太原直送,0.1517976325770566,山西省,太原市,小店区,营盘街道,山西省太原市小店区营盘街道建设南路辅路山西汽车配件市场,112.58032103298414,37.83371109337861,182_82,112.5817789355227,37.83504182692668,1.0,1893571087.0,112.5803697,37.8336222,140105124144.0,0,0,19
太原直送,BWLS052,BWLS052,15,140106121087,太原***柳烟酒店,112.590709,37.840081,1.0,2.0,111.0,57.67,2.313807755156854,2.299067081453907,0.1481236783907307,太原直送,0.1481236783907307,山西省,太原市,迎泽区,郝庄镇,山西省太原市迎泽区郝庄镇双塔南路建投·双塔名邸,112.58447177698751,37.839601642317405,182_83,112.5817789355227,37.8395384321331,1.0,5767946495.0,112.5851745,37.8419041,140106121087.0,0,0,19
太原直送,BWLS050,BWLS050,16,140105124153,（金***金虎便利店,112.585692,37.828874,1.0,2.0,111.0,25.33,2.326006038408759,2.310501131145582,0.1563824093752208,太原直送,0.1563824093752208,山西省,太原市,小店区,营盘街道,山西省太原市小店区营盘街道碧桂园玖玺台(北门),112.57945422427385,37.82839084864799,182_81,112.5817789355227,37.83054522172026,1.0,4171675248.0,112.5808198,37.8271905,140105124153.0,0,0,19
太原直送,BWLS051,BWLS051,30,140105124163,太原***梅便利店,112.579512,37.832554,1.0,2.0,111.0,59.0,2.324374025761344,2.3123324913136964,0.1507238311681281,太原直送,0.1507238311681281,山西省,太原市,小店区,营盘街道,山西省太原市小店区营盘街道东岗路精工家园,112.57326952346772,37.83206729006434,181_81,112.57598600730554,37.83054522172026,1.0,1893531580.0,112.5732736,37.8334854,140105124163.0,0,0,19
太原直送,BWLS051,BWLS051,31,140105124193,太原***梅便利店,112.582118,37.832787,1.0,2.0,111.0,35.33,2.3233591335660937,2.3103078758174207,0.1514291813389941,太原直送,0.1514291813389941,山西省,太原市,小店区,营盘街道,山西省太原市小店区营盘街道新寇庄南街山西汽车配件市场,112.57587756859064,37.83230226977515,181_81,112.57598600730554,37.83054522172026,1.0,1893531580.0,112.5732736,37.8334854,140105124193.0,0,0,19
太原直送,BWLS051,BWLS051,16,140105224245,山西***有限公司,112.577301,37.83315,1.0,2.0,111.0,24.33,2.3244813493046084,2.313496355906783,0.1494104042996977,太原直送,0.1494104042996977,山西省,太原市,小店区,营盘街道,山西省太原市小店区营盘街道狄村北街26号广建家园小区,112.57105638999032,37.83266149247231,180_81,112.57019307908838,37.83054522172026,1.0,7840688584.0,112.569155,37.8319702,140105224245.0,0,0,19
太原直送,BWLS051,BWLS051,38,140105124268,太原***洪昌酒业,112.586384,37.83557,1.0,2.0,111.0,35.33,2.3194139588408995,2.305313540400311,0.1504620663489632,太原直送,0.1504620663489632,山西省,太原市,小店区,营盘街道,山西省太原市小店区营盘街道建设南路辅路中正锦城,112.58014579196136,37.83508821902723,182_82,112.5817789355227,37.83504182692668,1.0,1893571087.0,112.5803697,37.8336222,140105124268.0,0,0,19
太原直送,BWLS051,BWLS051,13,140105124359,太原***鑫烟酒店,112.583157,37.830523,1.0,2.0,111.0,22.33,2.325201118995946,2.311152061193074,0.1539158305568328,太原直送,0.1539158305568328,山西省,太原市,小店区,营盘街道,山西省太原市小店区营盘街道狄村正街山西省人民政府口岸办联检宿舍,112.57691754697132,37.83003861681782,181_81,112.57598600730554,37.83054522172026,1.0,2001038771.0,112.5733413,37.8304827,140105124359.0,0,0,19
太原直送,BWLS052,BWLS052,29,140106121166,太原***鹏便利店,112.583127,37.83937,1.0,2.0,111.0,29.33,2.3167809507946533,2.304982341210008,0.1456960119049228,太原直送,0.1456960119049228,山西省,太原市,迎泽区,桥东街道,山西省太原市迎泽区桥东街道南内环街全季酒店(太原南内环街店),112.57688650475626,37.83888695758348,181_83,112.57598600730554,37.8395384321331,1.0,1885448096.0,112.5763653,37.8406105,140106121166.0,0,0,19
太原直送,BWLS051,BWLS051,100,140105124541,（唐***心唐久便利店,112.579497,37.834131,1.0,2.0,111.0,38.0,2.322876673710422,2.3112403059130355,0.1492402524790148,太原直送,0.1492402524790148,山西省,太原市,小店区,营盘街道,山西省太原市小店区营盘街道东岗路迎泽区委宿舍,112.57325432812354,37.83364451871152,181_82,112.57598600730554,37.83504182692668,1.0,1893531580.0,112.5732736,37.8334854,140105124541.0,0,0,19
太原直送,BWLS051,BWLS051,70,140105124554,太原***烟酒商行,112.582791,37.839325,1.0,2.0,111.0,50.33,2.316926052013742,2.305254137089658,0.1456091821555185,太原直送,0.1456091821555185,山西省,太原市,迎泽区,桥东街道,山西省太原市迎泽区桥东街道南内环街全季酒店(太原南内环街店),112.57655028438592,37.83884173226419,181_83,112.57598600730554,37.8395384321331,1.0,1885448096.0,112.5763653,37.8406105,140105124554.0,0,0,19
太原直送,BWLS051,BWLS051,9,140105124594,太原***酒茶商行,112.578625,37.834004,1.0,2.0,111.0,58.0,2.323263693961792,2.311952582275421,0.1490566937275872,太原直送,0.1490566937275872,山西省,太原市,小店区,营盘街道,山西省太原市小店区营盘街道狄村北街,112.57238156132662,37.83351678004388,180_82,112.57019307908838,37.83504182692668,1.0,1893531580.0,112.5732736,37.8334854,140105124594.0,0,0,19
太原直送,BWLS051,BWLS051,8,140105124593,太原***鑫便利店,112.586583,37.831214,1.0,2.0,,25.33,2.323506235520141,2.3082245852121863,0.154553782033955,太原直送,0.154553782033955,山西省,太原市,小店区,营盘街道,山西省太原市小店区营盘街道狄村街山西汽车配件市场,112.580345388246,37.8307316516648,182_81,112.5817789355227,37.83054522172026,1.0,1897916326.0,112.5805364,37.8306512,140105124593.0,0,0,19
太原直送,BWLS052,BWLS052,46,140106121234,太原***工商户）,112.583506,37.83936,1.0,2.0,111.0,50.0,2.3166752108420376,2.3047182475584727,0.1458509007788424,太原直送,0.1458509007788424,山西省,太原市,迎泽区,桥东街道,山西省太原市迎泽区桥东街道南内环街机床厂一宿舍,112.5772657525164,37.838877196114005,181_83,112.57598600730554,37.8395384321331,1.0,1885448096.0,112.5763653,37.8406105,140106121234.0,0,0,19
太原直送,BWLS050,BWLS050,30,140105124609,太原***圆贸易行,112.586767,37.828739,1.0,2.0,111.0,31.0,2.3258104428916835,2.309830101173031,0.1569119443891995,太原直送,0.1569119443891995,山西省,太原市,小店区,营盘街道,山西省太原市小店区营盘街道建设南路181号碧桂园玖玺台,112.58052975811331,37.828256368364215,182_80,112.5817789355227,37.82604861651383,1.0,4171675248.0,112.5808198,37.8271905,140105124609.0,0,0,19
太原直送,BWLS050,BWLS050,32,140105124655,太原***烟酒商行,112.585487,37.828885,1.0,2.0,111.0,39.67,2.3260574492862376,2.3106394757350164,0.1562957612988902,太原直送,0.1562957612988902,山西省,太原市,小店区,营盘街道,山西省太原市小店区营盘街道碧桂园玖玺台(北门),112.5792491165861,37.828401741422994,182_81,112.5817789355227,37.83054522172026,1.0,4171675248.0,112.5808198,37.8271905,140105124655.0,0,0,19
太原直送,BWLS052,BWLS052,105,140106121248,太原***业丰商行,112.59095,37.839359,1.0,2.0,111.0,58.0,2.3144236232334348,2.299400770366046,0.1488793696420021,太原直送,0.1488793696420021,山西省,太原市,迎泽区,郝庄镇,山西省太原市迎泽区郝庄镇南内环东街东城一品,112.58471291262248,37.83887960019479,183_83,112.58757186373984,37.8395384321331,1.0,7539624519.0,112.5851623,37.8368803,140106121248.0,0,0,19
太原直送,BWLS052,BWLS052,74,140106121266,太原***工商户）,112.586154,37.843179,1.0,2.0,111.0,44.67,2.3122322826491737,2.300155411064221,0.1434009798327717,太原直送,0.1434009798327717,山西省,太原市,迎泽区,桥东街道,山西省太原市迎泽区桥东街道建设南路市建一公司宿舍北区,112.57991480225525,37.842698296266775,182_84,112.5817789355227,37.84403503733952,1.0,5767987829.0,112.5800904,37.8427529,140106121266.0,0,0,19
太原直送,BWLS052,BWLS052,28,140106121275,太原***工商户）,112.591056,37.840095,1.0,2.0,111.0,37.67,2.313689870342396,2.298809586321585,0.1482599314481138,太原直送,0.1482599314481138,山西省,太原市,迎泽区,郝庄镇,山西省太原市迎泽区郝庄镇双塔南路建投·双塔名邸,112.58481884948166,37.83961574618712,183_83,112.58757186373984,37.8395384321331,1.0,5767946495.0,112.5851745,37.8419041,140106121275.0,0,0,19
太原直送,BWLS051,BWLS051,24,140105124749,太原***霖便利店,112.581726,37.831034,1.0,2.0,111.0,16.0,2.3251483777845188,2.311815206090005,0.1529246015852229,太原直送,0.1529246015852229,山西省,太原市,小店区,营盘街道,山西省太原市小店区营盘街道狄村街狄仁杰文化公园,112.57548548452812,37.8305487309696,181_81,112.57598600730554,37.83054522172026,1.0,2001038771.0,112.5733413,37.8304827,140105124749.0,0,0,19
太原直送,BWLS051,BWLS051,75,140105124756,太原***恒新商店,112.583041,37.836022,1.0,2.0,111.0,31.67,2.3199966259356937,2.30738468627362,0.1487616944814725,太原直送,0.1487616944814725,山西省,太原市,小店区,营盘街道,山西省太原市小店区营盘街道太原刚玉物流工程有限公司(刚玉五机卫生所西北)中正锦城,112.57680083459884,37.8355383812819,181_82,112.57598600730554,37.83504182692668,1.0,2001038741.0,112.573184,37.8365127,140105124756.0,0,0,19
太原直送,BWLS052,BWLS052,59,140106121308,（金***祥辉金虎便利店,112.579448,37.841283,1.0,2.0,111.0,32.0,2.316081400313255,2.306280444460301,0.1425440971243644,太原直送,0.1425440971243644,山西省,太原市,迎泽区,桥东街道,山西省太原市迎泽区桥东街道晋运胡子大盘鸡(太原东岗路店)太原锅炉厂职工宿舍,112.57320445851482,37.840797592026384,181_83,112.57598600730554,37.8395384321331,1.0,1893531767.0,112.5729981,37.8408165,140106121308.0,0,0,19
太原直送,BWLS051,BWLS051,25,140105124866,太原***品经销部,112.584689,37.830494,1.0,2.0,111.0,32.0,2.324764880461031,2.310079751960524,0.1545053928411522,太原直送,0.1545053928411522,山西省,太原市,小店区,营盘街道,山西省太原市小店区营盘街道狄村东街唐槐苑,112.5784504933046,37.83001054111896,181_81,112.57598600730554,37.83054522172026,1.0,1897916326.0,112.5805364,37.8306512,140105124866.0,0,0,19
